WeLoopHey3S V 1.96 247.29.26.10 @10:00:43
Reset reason 0
get_hw_ver: vol = 2637, HW_VER = 1
IP12B064x status=40
IP12B064x chip size: 0x2000
SF: Detected PN25F64B with page size 0x100, erase size 0x1000, total 0x800000
battery_init 95%
app_status_init 0 196
ite725x_read_id: detect ITE7259.00
GPS: UART error 4
GPS: UART error 8
nmea sentence damaged ($PMTK)
nmea sentence damaged ($PMTK)
nmea sentence damaged ($PMTK)
nmea sentence damaged ($PMTK)
GPS: detect AXN_5.10_3333_17041200
gps_get_info: set GNSS mode failed (-13)
Initializing BLE ...
RAM START ADDR 0x20002100 should be adjusted to 0x20001FE8
RAM SIZE should be adjusted to 0xE018 
sd_ble_enable: RAM START at 0x20002100
sd_ble_enable: app_ram_base should be adjusted to 0x20002078
ram size should be adjusted to 0xDF88 
889.071:WeLoop Hey 3S 7020DE
Initialization is finished! Go ...
YF_GPS:5:10:10:23
$GPS$2E$$46,,,,,0,0,,,M,,M,,*521494411807 0.000000 0.000000 0.00 0.00 0.00 0 0 0 0 0
speed:-1.000000, dis=0.000000
$GPGSA,A,1,,,,,,,,,,,,,,,*1E$GLGSA,A,1,,,,,,,,,,,,,,,*02$GPGSV,3,1,11,26,72,336,42,14,61,117,29,16,60,251,,31,43,036,*73$GPGSV,3,2,11,32,38,134,,22,33,261,,193,26,170,,03,24,291,*47$GPGSV,3,3,11,27,22,182,,29,18,050,,23,08,320,*48$GLGSV,3,1,10,69,52,296,,68,50,199,,79,39,348,,81,24,115,*68$GLGSV,3,2,10,78,23,031,,80,19,281,,88,18,062,,82,07,162,*67$GLGSV,3,3,10,70,06,332,,67,05,167,*63$GNRMC,022345.446,V,,,,,0.00,0.00,100517,,,N*55$GNVTG,0.00,T,,M,0.00,N,0.00,K,N*2C$GNGGA,022346.446,,,,,0,0,,,M,,M,,*511494411808 0.000000 0.000000 0.00 0.00 0.00 11 42 29 0 0
speed:-1.000000, dis=0.000000
$GPGSA,A,1,,,,,,,,,,,,,,,*1E$GLGSA,A,1,,,,,,,,,,,,,,,*02$GPGSV,3,1,11,26,72,336,40,14,61,117,33,16,60,251,20,31,43,036,*78$GPGSV,3,2,11,32,38,134,36,22,33,261,24,193,26,170,,03,24,291,29*4F$GPGSV,3,3,11,27,22,182,,29,18,050,,23,08,320,*48$GLGSV,3,1,10,69,52,296,,68,50,199,,79,39,348,32,81,24,115,*69$GLGSV,3,2,10,78,23,031,,80,19,281,,88,18,062,,82,07,162,*67$GLGSV,3,3,10,70,06,332,,67,05,167,*63$GNRMC,022346.446,V,,,,,0.00,0.00,100517,,,N*56$GNVTG,0.00,T,,M,0.00,N,0.00,K,N*2C$GNGGA,022347.225,,,,,0,0,,,M,,M,,*531494411809 0.000000 0.000000 0.00 0.00 0.00 11 40 36 33 29
speed:-1.000000, dis=0.000000
$GPGSA,A,1,,,,,,,,,,,,,,,*1E$GLGSA,A,1,,,,,,,,,,,,,,,*02$GPGSV,3,1,12,26,72,336,41,14,61,117,35,16,60,251,25,41,46,236,*79$GPGSV,3,2,12,31,43,036,,32,38,134,36,22,33,261,31,193,26,170,20*4E$GPGSV,3,3,12,03,24,290,31,27,22,182,,29,18,050,,23,08,320,32*76$GLGSV,3,1,10,69,52,296,31,68,50,199,23,79,39,348,30,81,24,115,25*6F$GLGSV,3,2,10,78,23,031,,80,19,281,,88,18,062,,82,07,162,*67$GLGSV,3,3,10,70,06,332,,67,05,167,*63$GNRMC,022347.225,V,,,,,1.24,148.88,100517,,,N*5E$GNVTG,148.88,T,,M,1.24,N,2.31,K,N*26$GNGGA,022348.207,2257.0722,N,11353.8188,E,1,7,1.50,-50.7,M,-3.6,M,,*451494411810 113.896980 22.951203 -50.-70 1.50 0.00 12 41 36 35 32
speed:-1.000000, dis=0.000000
$GPGSA,A,3,26,14,16,22,32,03,23,,,,,,1.73,1.50,0.87*09$GLGSA,A,3,,,,,,,,,,,,,1.73,1.50,0.87*10$GPGSV,3,1,12,26,72,336,38,14,61,117,35,16,60,251,29,41,46,236,*7B$GPGSV,3,2,12,31,43,036,,32,38,134,38,22,33,261,36,193,26,170,19*4D$GPGSV,3,3,12,03,24,290,33,27,22,182,,29,18,050,,23,08,320,28*7F$GLGSV,3,1,10,69,52,296,27,68,50,199,21,79,39,348,39,81,24,115,25*63$GLGSV,3,2,10,78,23,031,,80,19,281,,88,18,062,,82,07,162,*67$GLGSV,3,3,10,70,06,332,,67,05,167,*63$GNRMC,022348.207,A,2257.0722,N,11353.8188,E,0.87,152.50,100517,,,A*7D$GNVTG,152.50,T,,M,0.87,N,1.61,K,A*29$GNGGA,022349.212,2257.0717,N,11353.8188,E,1,7,1.50,-49.5,M,-3.6,M,,*4C1494411811 113.896980 22.951195 -49.-50 1.50 0.87 12 38 38 36 35
speed:0.000000, dis=0.000000
$GPGSA,A,3,26,14,16,22,32,03,23,,,,,,1.73,1.50,0.87*09$GLGSA,A,3,,,,,,,,,,,,,1.73,1.50,0.87*10$GPGSV,3,1,12,26,72,336,39,14,61,117,33,16,60,251,25,41,46,236,*70$GPGSV,3,2,12,31,43,036,,32,38,134,32,22,33,261,34,193,26,170,19*45$GPGSV,3,3,12,03,24,290,35,27,22,182,,29,18,050,,23,08,320,30*70$GLGSV,3,1,10,69,52,296,29,68,50,199,17,79,39,348,39,81,24,115,26*6B$GLGSV,3,2,10,78,23,031,,80,19,281,,88,18,062,,82,07,162,*67$GLGSV,3,3,10,70,06,332,,67,05,167,*63$GNRMC,022349.212,A,2257.0717,N,11353.8188,E,0.68,150.21,100517,,,A*7B$GNVTG,150.21,T,,M,0.68,N,1.27,K,A*2E$GNGGA,022350.214,2257.0711,N,11353.8182,E,1,7,1.50,-48.4,M,-3.6,M,,*4E1494411812 113.896970 22.951185 -48.-40 1.50 0.87 12 39 35 34 33
speed:0.000000, dis=0.000000
$GPGSA,A,3,26,14,16,22,32,03,23,,,,,,1.73,1.50,0.87*09$GLGSA,A,3,,,,,,,,,,,,,1.73,1.50,0.87*10$GPGSV,3,1,12,26,72,336,39,14,61,117,33,16,60,251,25,41,46,236,*70$GPGSV,3,2,12,31,43,036,,32,38,134,32,22,33,261,33,193,26,170,19*42$GPGSV,3,3,12,03,24,290,36,27,22,182,,29,18,050,,23,08,320,32*71$GLGSV,3,1,10,69,52,296,28,68,50,199,17,79,39,348,39,81,24,115,25*69$GLGSV,3,2,10,78,23,031,,80,19,281,,88,18,062,,82,07,162,*67$GLGSV,3,3,10,70,06,332,,67,05,167,*63$GNRMC,022350.214,A,2257.0711,N,11353.8182,E,0.57,150.21,100517,,,A*75$GNVTG,150.21,T,,M,0.57,N,1.06,K,A*21$GNGGA,022351.215,2257.0721,N,11353.8181,E,1,7,1.50,-49.5,M,-3.6,M,,*4E1494411813 113.896968 22.951201 -49.-50 1.50 0.87 12 39 36 33 33
speed:0.000000, dis=0.000000
$GPGSA,A,3,26,14,16,22,32,03,23,,,,,,1.73,1.50,0.87*09$GLGSA,A,3,,,,,,,,,,,,,1.73,1.50,0.87*10$GPGSV,3,1,12,26,72,336,39,14,61,117,32,16,60,251,28,41,46,236,*7C$GPGSV,3,2,12,31,43,036,,32,38,134,33,22,33,261,34,193,26,170,18*45$GPGSV,3,3,12,03,24,290,36,27,22,182,,29,18,050,,23,08,320,30*73$GLGSV,3,1,10,69,52,296,26,68,50,199,26,79,39,348,38,81,24,115,27*66$GLGSV,3,2,10,78,23,031,,80,19,281,24,88,18,062,,82,07,162,*61$GLGSV,3,3,10,70,06,332,,67,05,167,*63$GNRMC,022351.215,A,2257.0721,N,11353.8181,E,0.58,150.21,100517,,,A*7A$GNVTG,150.21,T,,M,0.58,N,1.07,K,A*2F$GNGGA,022352.215,2257.0727,N,11353.8179,E,1,8,1.14,-51.0,M,-3.6,M,,*4F1494411814 113.896965 22.951211 -51.00 1.14 0.87 12 39 36 34 33
speed:0.000000, dis=0.000000
$GPGSA,A,3,26,14,16,22,32,03,23,31,,,,,1.43,1.14,0.87*08$GLGSA,A,3,,,,,,,,,,,,,1.43,1.14,0.87*13$GPGSV,3,1,12,26,72,336,38,14,61,117,32,16,60,251,29,41,46,236,*7C$GPGSV,3,2,12,31,43,036,17,32,38,134,33,22,33,261,34,193,26,170,19*42$GPGSV,3,3,12,03,24,290,35,27,22,182,22,29,18,050,,23,08,320,28*79$GLGSV,3,1,10,69,52,296,24,68,50,199,26,79,39,348,38,81,24,115,29*6A$GLGSV,3,2,10,78,23,031,,80,19,281,24,88,18,062,,82,07,162,*61$GLGSV,3,3,10,70,06,332,,67,05,167,*63$GNRMC,022352.215,A,2257.0727,N,11353.8179,E,0.36,150.21,100517,,,A*70$GNVTG,150.21,T,,M,0.36$GNGGA,022353.217,2257.0727,N,11353.8178,E,1,8,1.14,-50.6,M,-3.6,M,,*4A1494411815 113.896963 22.951211 -50.-60 1.14 0.87 12 38 35 34 33
speed:0.000000, dis=0.000000
$GPGSA,A,3,26,14,16,22,32,03,23,31,,,,,1.43,1.14,0.87*08$GLGSA,A,3,,,,,,,,,,,,,1.43,1.14,0.87*13$GPGSV,3,1,12,26,72,336,38,14,61,117,32,16,60,251,28,41,46,236,*7D$GPGSV,3,2,12,31,43,036,17,32,38,134,33,22,33,261,34,193,26,170,20*48$GPGSV,3,3,12,03,24,290,34,27,22,182,23,29,18,050,,23,08,320,29*78$GLGSV,3,1,10,69,52,296,23,68,50,199,24,79,39,348,38,81,24,115,31*66$GLGSV,3,2,10,78,23,031,,80,19,281,27,88,18,062,,82,07,162,*62$GLGSV,3,3,10,70,06,332,,67,05,167,*63$GNRMC,022353.217,A,2257.0727,N,11353.8178,E,0.37,150.21,100517,,,A*73$GNVTG,150.21,T,,M,0.37,N,0.69,K,A*2F$GNGGA,022354.218,2257.0731,N,11353.8177,E,1,7,1.50,-51.1,M,-3.6,M,,*431494411816 113.896961 22.951218 -51.-10 1.50 0.87 12 38 34 34 33
speed:0.000000, dis=0.000000
$GPGSA,A,3,26,14,16,22,32,03,23,,,,,,1.73,1.50,0.87*09$GLGSA,A,3,,,,,,,,,,,,,1.73,1.50,0.87*10$GPGSV,3,1,12,26,72,336,39,14,61,117,33,16,60,251,28,41,46,236,*7D$GPGSV,3,2,12,31,43,036,17,32,38,134,33,22,33,261,33,193,26,170,20*4F$GPGSV,3,3,12,03,24,290,24,27,22,182,23,29,18,050,,23,08,320,29*79$GLGSV,3,1,10,69,52,296,33,68,50,199,16,79,39,348,38,81,24,115,31*66$GLGSV,3,2,10,78,23,031,,80,19,281,24,88,18,062,,82,07,162,*61$GLGSV,3,3,10,70,06,332,,67,05,167,*63$GNRMC,022354.218,A,2257.0731,N,11353.8177,E,0.41,150.21,100517,,,A*72$GNVTG,150.21,T,,M,0.41,N,0.75,K,A*23$GNGGA,022355.217,2257.0738,N,11353.8176,E,1,7,1.50,-52.4,M,-3.6,M,,*431494411817 113.896960 22.951230 -52.-40 1.50 0.87 12 39 33 33 33
speed:0.000000, dis=0.000000
$GPGSA,A,3,26,14,16,22,32,03,23,,,,,,1.73,1.50,0.87*09$GLGSA,A,3,,,,,,,,,,,,,1.73,1.50,0.87*10$GPGSV,3,1,12,26,72,336,39,14,61,117,33,16,60,251,29,41,46,236,*7C$GPGSV,3,2,12,31,43,036,15,32,38,134,34,22,33,261,34,193,26,170,19*47$GPGSV,3,3,12,03,24,290,23,27,22,182,18,29,18,050,,23,08,320,29*76$GLGSV,3,1,10,69,52,296,34,68,50,199,17,79,39,348,37,81,24,115,31*6F$GLGSV,3,2,10,78,23,031,,80,19,281,25,88,18,062,,82,07,162,*60$GLGSV,3,3,10,70,06,332,,67,05,167,*63$GNRMC,022355.217,A,2257.0738,N,11353.8176,E,0.27,150.21,100517,,,A*74$GNVTG,150.21,T,,M,0.27,N,0.51,K,A*25$GNGGA,022356.269,2257.0608,N,11353.8228,E,1,7,1.50,-45.8,M,-3.6,M,,*491494411818 113.897046 22.951013 -45.-80 1.50 0.87 12 39 34 34 33
speed:0.000000, dis=0.000000
$GPGSA,A,3,26,14,16,22,32,03,23,,,,,,1.73,1.50,0.87*09$GLGSA,A,3,,,,,,,,,,,,,1.73,1.50,0.87*10$GPGSV,3,1,12,26,72,336,39,14,61,117,33,16,60,251,30,41,46,236,*74$GPGSV,3,2,12,31,43,036,12,32,38,134,35,22,33,261,33,193,26,170,17*48$GPGSV,3,3,12,03,24,290,21,27,22,182,15,29,18,050,,23,08,320,30*71$GLGSV,3,1,10,69,52,296,33,68,50,199,17,79,39,348,29,81,24,115,30*66$GLGSV,3,2,10,78,23,031,,80,19,281,23,88,18,062,,82,07,162,*66$GLGSV,3,3,10,70,06,332,,67,05,167,*63$GNRMC,022356.269,A,2257.0608,N,11353.8228,E,0.07,150.21,100517,,,A*76$GNVTG,150.21,T,,M,0.07,N,0.13,K,A*21$GNGGA,022358.000,2257.0599,N,11353.8228,E,1,7,1.50,-41.1,M,-3.6,M,,*4C1494411820 113.897046 22.950998 -41.-10 1.50 0.87 12 39 35 33 33
speed:0.000000, dis=0.000000
$GPGSA,A,3,26,14,16,22,32,03,23,,,,,,1.73,1.50,0.87*09$GLGSA,A,3,,,,,,,,,,,,,1.73,1.50,0.87*10$GPGSV,3,1,12,26,72,336,38,14,61,117,33,16,60,251,23,42,45,122,*71$GPGSV,3,2,12,31,43,036,13,32,38,134,23,22,33,261,31,193,26,170,15*4E$GPGSV,3,3,12,03,24,290,31,27,22,182,19,29,18,050,,23,08,320,30*7C$GLGSV,3,1,10,69,52,296,32,68,50,199,19,79,39,348,30,81,24,115,29*69$GLGSV,3,2,10,78,23,031,,80,19,281,22,88,18,062,,82,07,162,*67$GLGSV,3,3,10,70,06,332,,67,05,167,*63$GNRMC,022358.000,A,2257.0599,N,11353.8228,E,0.13,150.21,100517,,,A*7B$GNVTG,150.21,T,,M,0.13,N,0.24,K,A*20$GNGGA,022359.000,2257.0621,N,11353.8248,E,1,7,1.50,-42.6,M,-3.6,M,,*4F1494411821 113.897080 22.951035 -42.-60 1.50 0.87 12 38 33 31 31
speed:0.000000, dis=0.000000
$GPGSA,A,3,26,14,16,22,32,03,23,,,,,,1.73,1.50,0.87*09$GLGSA,A,3,,,,,,,,,,,,,1.73,1.50,0.87*10$GPGSV,3,1,12,26,72,336,37,14,61,117,33,16,60,251,30,42,45,122,*7C$GPGSV,3,2,12,31,43,036,14,32,38,134,35,22,33,261,29,193,26,170,*43$GPGSV,3,3,12,03,24,290,30,27,22,182,19,29,18,050,,23,08,320,29*75$GLGSV,3,1,10,69,52,296,31,68,50,199,20,79,39,348,32,81,24,115,22*69$GLGSV,3,2,10,78,23,031,,80,19,281,22,88,18,062,,82,07,162,*67$GLGSV,3,3,10,70,06,332,22,67,05,167,*63$GNRMC,022359.000,A,2257.0621,N,11353.8248,E,0.11,150.21,100517,,,A*7E$GNVTG,150.21,T,,M,0.11,N,0.21,K,A*27$GNGGA,022400.000,2257.0607,N,11353.8237,E,1,7,1.50,-43.3,M,-3.6,M,,*4C1494411822 113.897061 22.951011 -43.-30 1.50 0.87 12 37 35 33 30
speed:0.000000, dis=0.000000
$GPGSA,A,3,26,14,16,22,32,03,23,,,,,,1.73,1.50,0.87*09$GLGSA,A,3,,,,,,,,,,,,,1.73,1.50,0.87*10$GPGSV,3,1,12,26,72,336,36,14,61,117,33,16,60,251,29,42,45,122,*75$GPGSV,3,2,12,31,43,036,14,32,38,134,35,22,33,261,30,193,26,170,*4B$GPGSV,3,3,12,03,24,290,32,27,22,182,,29,18,050,,23,08,320,28*7E$GLGSV,3,1,10,69,52,296,31,68,50,199,20,79,39,348,33,81,24,115,21*6B$GLGSV,3,2,10,78,23,031,,80,19,281,23,88,18,062,,82,07,162,*66$GLGSV,3,3,10,70,06,332,22,67,05,167,*63$GNRMC,022400.000,A,2257.0607,N,11353.8237,E,0.14,150.21,100517,,,A*7C$GNVTG,150.21,T,,M,0.14,N,0.25,K,A*26$GNGGA,022401.000,2257.0601,N,11353.8236,E,1,7,1.50,-45.2,M,-3.6,M,,*4D1494411823 113.897060 22.951001 -45.-20 1.50 0.87 12 36 35 33 32
speed:0.000000, dis=0.000000
$GPGSA,A,3,26,14,16,22,32,03,23,,,,,,1.73,1.50,0.87*09$GLGSA,A,3,,,,,,,,,,,,,1.73,1.50,0.87*10$GPGSV,3,1,12,26,72,336,37,14,61,117,34,16,61,251,30,42,45,122,*7A$GPGSV,3,2,12,31,43,036,17,32,38,134,28,22,33,261,31,193,26,170,*45$GPGSV,3,3,12,03,24,290,31,27,22,182,,29,18,050,,23,08,320,28*7D$GLGSV,3,1,10,69,52,296,31,68,50,199,22,79,39,348,33,81,24,115,22*6A$GLGSV,3,2,10,78,23,031,,80,19,281,23,88,18,062,,82,07,162,*66$GLGSV,3,3,10,70,06,332,20,67,05,167,*61$GNRMC,022401.000,A,2257.0601,N,11353.8236,E,0.02,150.21,100517,,,A*7D$GNVTG,150.21,T,,M,0.02,N,0.04,K,A*22$GNGGA,022402.000,2257.0600,N,11353.8240,E,1,7,1.50,-46.3,M,-3.6,M,,*4C1494411824 113.897066 22.951000 -46.-30 1.50 0.87 12 37 34 31 31
speed:0.000000, dis=0.000000
$GPGSA,A,3,26,14,16,22,32,03,23,,,,,,1.73,1.50,0.87*09$GLGSA,A,3,,,,,,,,,,,,,1.73,1.50,0.87*10$GPGSV,3,1,12,26,72,336,37,14,61,117,33,16,61,251,30,42,45,122,*7D$GPGSV,3,2,12,31,43,036,15,32,38,134,28,22,33,261,32,193,26,170,*44$GPGSV,3,3,12,03,24,290,33,27,22,182,22,29,18,050,,23,08,320,28*7F$GLGSV,3,1,10,69,52,296,30,68,50,199,23,79,39,348,24,81,24,115,30*6F$GLGSV,3,2,10,78,23,031,,80,19,281,24,88,18,062,,82,07,162,*61$GLGSV,3,3,10,70,06,332,23,67,05,167,*62$GNRMC,022402.000,A,2257.0600,N,11353.8240,E,0.09,150.21,100517,,,A*75$GNVTG,150.21,T,,M,0.09,N,0.17,K,A*2B$GNGGA,022403.000,2257.0599,N,11353.8243,E,1,7,1.50,-47.3,M,-3.6,M,,*4C1494411825 113.897071 22.950998 -47.-30 1.50 0.87 12 37 33 33 32
speed:0.000000, dis=0.000000
$GPGSA,A,3,26,14,16,22,32,03,23,,,,,,1.73,1.50,0.87*09$GLGSA,A,3,,,,,,,,,,,,,1.73,1.50,0.87*10$GPGSV,3,1,12,26,72,336,37,14,61,117,33,16,61,251,30,42,45,122,*7D$GPGSV,3,2,12,31,43,036,15,32,38,134,28,22,33,261,32,193,26,170,*44$GPGSV,3,3,12,03,24,290,34,27,22,182,22,29,18,050,,23,08,320,28*78$GLGSV,3,1,10,69,52,296,29,68,50,199,24,79,39,348,24,81,24,115,30*60$GLGSV,3,2,10,78,23,031,,80,19,281,24,88,18,062,,82,07,162,*61$GLGSV,3,3,10,70,06,332,23,67,05,167,*62$GNRMC,022403.000,A,2257.0599,N,11353.8243,E,0.18,150.21,100517,,,A*74$GNVTG,150.21,T,,M,0.18,N,0.34,K,A*2A$GNGGA,022404.000,2257.0603,N,11353.8246,E,1,7,1.50,-48.8,M,-3.6,M,,*4A1494411826 113.897076 22.951005 -48.-80 1.50 0.87 12 37 34 33 32
speed:0.000000, dis=0.000000
$GPGSA,A,3,26,14,16,22,32,03,23,,,,,,1.73,1.50,0.87*09$GLGSA,A,3,,,,,,,,,,,,,1.73,1.50,0.87*10$GPGSV,3,1,12,26,72,336,38,14,61,117,33,16,61,251,37,42,45,122,*75$GPGSV,3,2,12,31,43,036,14,32,38,134,29,22,33,261,33,193,26,170,*45$GPGSV,3,3,12,03,24,290,33,27,22,182,20,29,18,050,,23,08,320,27*72$GLGSV,3,1,10,69,52,296,31,68,50,199,25,79,39,348,33,81,24,115,30*6E$GLGSV,3,2,10,78,23,031,,80,19,281,25,88,18,062,,82,07,162,*60$GLGSV,3,3,10,70,06,332,21,67,05,167,*60$GNRMC,022404.000,A,2257.0603,N,11353.8246,E,0.26,150.21,100517,,,A*7B$GNVTG,150.21,T,,M,0.26,N,0.48,K,A*2C$GNGGA,022405.000,2257.0605,N,11353.8247,E,1,7,1.50,-50.0,M,-3.6,M,,*4D1494411827 113.897078 22.951008 -50.00 1.50 0.87 12 38 37 33 33
speed:0.000000, dis=0.000000
$GPGSA,A,3,26,14,16,22,32,03,23,,,,,,1.73,1.50,0.87*09$GLGSA,A,3,,,,,,,,,,,,,1.73,1.50,0.87*10$GPGSV,3,1,12,26,72,336,39,14,61,117,33,16,61,251,37,42,45,122,28*7E$GPGSV,3,2,12,31,43,036,14,32,38,134,29,22,33,261,34,193,26,170,*42$GPGSV,3,3,12,03,24,290,32,27,22,182,20,29,18,050,,23,08,320,26*72$GLGSV,3,1,10,69,52,296,32,68,50,199,26,79,39,348,33,81,24,115,30*6E$GLGSV,3,2,10,78,23,031,,80,19,281,25,88,18,062,,82,07,162,*60$GLGSV,3,3,10,70,06,332,21,67,05,167,*60$GNRMC,022405.000,A,2257.0605,N,11353.8247,E,0.08,150.21,100517,,,A*71$GNVTG,150.21,T,,M,0.08,N,0.15,K,A*28$GNGGA,022406.000,2257.0606,N,11353.8244,E,1,7,1.50,-50.1,M,-3.6,M,,*4F1494411828 113.897073 22.951010 -50.-10 1.50 0.87 12 39 37 34 33
speed:0.000000, dis=0.000000
$GPGSA,A,3,26,14,16,22,32,03,23,,,,,,1.73,1.50,0.87*09$GLGSA,A,3,,,,,,,,,,,,,1.73,1.50,0.87*10$GPGSV,3,1,12,26,72,336,40,14,61,117,34,16,61,251,36,42,45,122,29*77$GPGSV,3,2,12,31,43,036,,32,38,134,31,22,33,261,34,193,26,170,*4E$GPGSV,3,3,12,03,24,290,22,27,22,182,29,29,18,050,,23,08,320,27*7B$GLGSV,3,1,10,69,52,296,31,68,50,199,25,79,39,348,33,81,24,115,31*6F$GLGSV,3,2,10,78,23,031,,80,19,281,24,88,18,062,,82,07,162,*61$GLGSV,3,3,10,70,06,332,21,67,05,167,*60$GNRMC,022406.000,A,2257.0606,N,11353.8244,E,0.15,150.21,100517,,,A*7E$GNVTG,150.21,T,,M,0.15,N,0.29,K,A*2B$GNGGA,022407.000,2257.0606,N,11353.8240,E,1,7,1.50,-50.3,M,-3.6,M,,*481494411829 113.897066 22.951010 -50.-30 1.50 0.87 12 40 36 34 34
speed:0.000000, dis=0.000000
$GPGSA,A,3,26,14,16,22,32,03,23,,,,,,1.73,1.50,0.87*09$GLGSA,A,3,,,,,,,,,,,,,1.73,1.50,0.87*10$GPGSV,3,1,12,26,72,336,40,14,61,117,34,16,61,251,36,42,45,122,29*77$GPGSV,3,2,12,31,43,036,,32,38,134,32,22,33,261,34,193,26,170,*4D$GPGSV,3,3,12,03,24,290,22,27,22,182,29,29,18,050,,23,08,320,28*74$GLGSV,3,1,10,69,52,296,30,68,50,199,24,79,39,348,33,81,24,115,32*6C$GLGSV,3,2,10,78,23,031,,80,19,281,24,88,18,062,,82,07,162,*61$GLGSV,3,3,10,70,06,332,21,67,05,167,*60$GNRMC,022407.000,A,2257.0606,N,11353.8240,E,0.25,150.21,100517,,,A*78$GNVTG,150.21,T,,M,0.25,N,0.47,K,A*20$GNGGA,022408.000,2257.0608,N,11353.8240,E,1,7,1.50,-51.0,M,-3.6,M,,*4B1494411830 113.897066 22.951013 -51.00 1.50 0.87 12 40 36 34 34
speed:0.000000, dis=0.000000
$GPGSA,A,3,26,14,16,22,32,03,23,,,,,,1.73,1.50,0.87*09$GLGSA,A,3,,,,,,,,,,,,,1.73,1.50,0.87*10$GPGSV,3,1,12,26,72,336,40,14,61,117,26,16,61,251,36,42,45,122,26*7B$GPGSV,3,2,12,31,43,036,,32,38,134,33,22,33,261,33,193,26,170,*4B$GPGSV,3,3,12,03,24,290,35,27,22,182,23,29,18,050,,23,08,320,27*77$GLGSV,3,1,10,69,52,296,31,68,50,199,25,79,39,348,33,81,24,115,31*6F$GLGSV,3,2,10,78,23,031,,80,19,281,24,88,18,062,,82,07,162,*61$GLGSV,3,3,10,70,06,332,20,67,05,167,*61$GNRMC,022408.000,A,2257.0608,N,11353.8240,E,0.40,150.21,100517,,,A*7A$GNVTG,150.21,T,,M,0.40$GNGGA,022409.000,2257.0613,N,11353.8242,E,1,7,1.50,-51.5,M,-3.6,M,,*471494411831 113.897070 22.951021 -51.-50 1.50 0.87 12 40 36 35 33
speed:0.000000, dis=0.000000
$GPGSA,A,3,26,14,16,22,32,03,23,,,,,,1.73,1.50,0.87*09$GLGSA,A,3,,,,,,,,,,,,,1.73,1.50,0.87*10$GPGSV,3,1,12,26,72,336,40,14,61,117,26,16,61,251,36,42,45,122,26*7B$GPGSV,3,2,12,31,43,036,,32,38,134,33,22,33,261,32,193,26,170,*4A$GPGSV,3,3,12,03,24,290,35,27,22,182,23,29,18,050,,23,08,320,26*76$GLGSV,3,1,10,69,52,296,32,68,50,199,25,79,39,348,33,81,24,115,30*6D$GLGSV,3,2,10,78,23,031,,80,19,281,24,88,18,062,,82,07,162,*61$GLGSV,3,3,10,70,06,332,20,67,05,167,*61$GNRMC,022409.000,A,2257.0613,N,11353.8242,E,0.43,150.21,100517,,,A*70$GNVTG,150.21,T,,M,0.43,N,0.80,K,A*2B$GNGGA,022410.000,2257.0615,N,11353.8246,E,1,7,1.50,-51.8,M,-3.6,M,,*401494411832 113.897076 22.951025 -51.-80 1.50 0.87 12 40 36 35 33
speed:0.000000, dis=0.000000
$GPGSA,A,3,26,14,16,22,32,03,23,,,,,,1.73,1.50,0.87*09$GLGSA,A,3,,,,,,,,,,,,,1.73,1.50,0.87*10$GPGSV,3,1,12,26,72,336,40,14,61,117,38,16,61,251,36,42,45,122,26*74$GPGSV,3,2,12,31,43,036,,32,38,134,33,22,33,261,30,193,26,170,*48$GPGSV,3,3,12,03,24,290,37,27,22,182,19,29,18,050,,23,08,320,25*7E$GLGSV,3,1,10,69,52,296,33,68,50,199,33,79,39,348,20,81,24,115,28*60$GLGSV,3,2,10,78,23,031,,80,19,281,24,88,18,062,,82,07,162,*61$GLGSV,3,3,10,70,06,332,,67,05,167,*63$GNRMC,022410.000,A,2257.0615,N,11353.8246,E,0.25,150.21,100517,,,A*7A$GNVTG,150.21,T,,M,0.25,N,0.46,K,A*21$GNGGA,022411.000,2257.0619,N,11353.8249,E,1,7,1.50,-51.9,M,-3.6,M,,*431494411833 113.897081 22.951031 -51.-90 1.50 0.87 12 40 38 37 36
speed:0.000000, dis=0.000000
$GPGSA,A,3,26,14,16,22,32,03,23,,,,,,1.73,1.50,0.87*09$GLGSA,A,3,,,,,,,,,,,,,1.73,1.50,0.87*10$GPGSV,3,1,12,26,72,336,40,14,61,117,38,16,61,251,36,42,45,122,*70$GPGSV,3,2,12,31,43,036,,32,38,134,32,22,33,261,29,193,26,170,*41$GPGSV,3,3,12,03,24,290,38,27,22,182,,29,18,050,,23,08,320,25*79$GLGSV,3,1,10,69,52,296,34,68,50,199,32,79,39,348,29,81,24,115,29*6E$GLGSV,3,2,10,78,23,031,,80,19,281,24,88,18,062,,82,07,162,20*63$GLGSV,3,3,10,70,06,332,,67,05,167,*63$GNRMC,022411.000,A,2257.0619,N,11353.8249,E,0.26,150.21,100517,,,A*7B$GNVTG,150.21,T,,M,0.26,N,0.49,K,A*2D$GNGGA,022412.000,2257.0620,N,11353.8249,E,1,7,1.50,-51.6,M,-3.6,M,,*451494411834 113.897081 22.951033 -51.-60 1.50 0.87 12 40 38 38 36
speed:0.000000, dis=0.000000
$GPGSA,A,3,26,14,16,22,32,03,23,,,,,,1.73,1.50,0.87*09$GLGSA,A,3,,,,,,,,,,,,,1.73,1.50,0.87*10$GPGSV,3,1,12,26,72,336,40,14,61,117,37,16,61,251,35,42,45,122,27*79$GPGSV,3,2,12,31,43,036,,32,38,134,34,22,33,261,29,193,26,170,25*40$GPGSV,3,3,12,03,24,290,38,27,22,182,,29,18,050,,23,08,320,25*79$GLGSV,3,1,10,69,52,296,34,68,50,199,31,79,39,348,27,81,24,115,30*6B$GLGSV,3,2,10,78,23,031,,80,19,281,24,88,18,062,,82,07,162,16*66$GLGSV,3,3,10,70,06,332,,67,05,167,*63$GNRMC,022412.000,A,2257.0620,N,11353.8249,E,0.31,150.21,100517,,,A*74$GNVTG,150.21,T,,M,0.31,N,0.58,K,A*2B$GNGGA,022413.000,2257.0619,N,11353.8248,E,1,7,1.50,-51.1,M,-3.6,M,,*481494411835 113.897080 22.951031 -51.-10 1.50 0.87 12 40 38 37 35
speed:0.000000, dis=0.000000
$GPGSA,A,3,26,14,16,22,32,03,23,,,,,,1.73,1.50,0.87*09$GLGSA,A,3,,,,,,,,,,,,,1.73,1.50,0.87*10$GPGSV,3,1,12,26,72,336,39,14,61,117,36,16,61,251,24,42,45,122,27*76$GPGSV,3,2,12,31,43,036,,32,38,134,36,22,33,260,31,193,26,170,20*4F$GPGSV,3,3,12,03,24,290,36,27,22,182,21,29,18,050,,23,08,320,25*74$GLGSV,3,1,10,69,52,296,25,68,50,199,31,79,39,348,28,81,24,115,30*64$GLGSV,3,2,10,78,23,031,,80,19,281,23,88,18,062,,82,07,162,24*60$GLGSV,3,3,10,70,06,332,,67,05,167,*63$GNRMC,022413.000,A,2257.0619,N,11353.8248,E,0.45,150.21,100517,,,A*7D$GNVTG,150.21,T,,M,0.45,N,0.84,K,A*29$GNGGA,022414.000,2257.0619,N,11353.8248,E,1,7,1.50,-50.4,M,-3.6,M,,*4B1494411836 113.897080 22.951031 -50.-40 1.50 0.87 12 39 36 36 36
speed:0.000000, dis=0.000000
$GPGSA,A,3,26,14,16,22,32,03,23,,,,,,1.73,1.50,0.87*09$GLGSA,A,3,,,,,,,,,,,,,1.73,1.50,0.87*10$GPGSV,3,1,12,26,72,336,40,14,61,117,36,16,61,251,26,50,45,122,*7C$GPGSV,3,2,12,31,43,036,,32,38,134,34,22,33,260,31,193,26,170,21*4C$GPGSV,3,3,12,03,24,290,26,27,22,182,20,29,18,050,,23,09,320,26*76$GLGSV,3,1,10,69,52,296,27,68,50,199,29,79,39,348,36,81,24,115,28*69$GLGSV,3,2,10,78,23,031,,80,19,281,22,88,18,062,,82,07,162,19*6F$GLGSV,3,3,10,70,06,332,,67,05,167,*63$GNRMC,022414.000,A,2257.0619,N,11353.8248,E,0.42,150.21,100517,,,A*7D$GNVTG,150.21,T,,M,0.42,N,0.78,K,A*2D$GNGGA,022415.000,2257.0618,N,11353.8249,E,1,7,1.50,-50.0,M,-3.6,M,,*4E1494411837 113.897081 22.951030 -50.00 1.50 0.87 12 40 36 34 31
speed:0.000000, dis=0.000000
$GPGSA,A,3,26,14,16,22,32,03,23,,,,,,1.73,1.50,0.87*09$GLGSA,A,3,,,,,,,,,,,,,1.73,1.50,0.87*10$GPGSV,3,1,12,26,72,336,40,14,61,117,35,16,61,251,34,50,45,122,*7C$GPGSV,3,2,12,31,43,036,,32,38,134,34,22,33,260,31,193,26,170,18*46$GPGSV,3,3,12,03,24,290,26,27,22,182,20,29,18,050,,23,09,320,27*77$GLGSV,3,1,10,69,52,296,28,68,50,199,28,79,39,348,35,81,24,115,29*65$GLGSV,3,2,10,78,23,031,,80,19,281,22,88,18,062,,82,07,162,23*66$GLGSV,3,3,10,70,06,332,,67,05,167,*63$GNRMC,022415.000,A,2257.0618,N,11353.8249,E,0.35,150.21,100517,,,A*7C$GNVTG,150.21,T,,M,0.35,N,0.64,K,A*20$GNGGA,022416.000,2257.0617,N,11353.8248,E,1,7,1.50,-49.7,M,-3.6,M,,*4C1494411838 113.897080 22.951028 -49.-70 1.50 0.87 12 40 35 34 34
speed:0.000000, dis=0.000000
$GPGSA,A,3,26,14,16,22,32,03,23,,,,,,1.73,1.50,0.87*09$GLGSA,A,3,,,,,,,,,,,,,1.73,1.50,0.87*10$GPGSV,3,1,12,26,72,336,40,14,61,117,35,16,61,251,33,50,45,122,*7B$GPGSV,3,2,12,31,43,036,,32,38,134,20,22,33,260,32,193,26,170,19*41$GPGSV,3,3,12,03,24,290,28,27,22,182,20,29,18,050,,23,09,320,28*76$GLGSV,3,1,10,69,52,296,28,68,50,199,27,79,39,348,28,81,24,115,29*66$GLGSV,3,2,10,78,23,031,,80,19,281,22,88,18,062,,82,07,162,21*64$GLGSV,3,3,10,70,06,332,22,67,05,167,17*65$GNRMC,022416.000,A,2257.0617,N,11353.8248,E,0.25,150.21,100517,,,A*70$GNVTG,150.21,T,,M,0.25,N,0.46,K,A*21$GNGGA,022417.000,2257.0615,N,11353.8248,E,1,7,1.50,-49.9,M,-3.6,M,,*411494411839 113.897080 22.951025 -49.-90 1.50 0.87 12 40 35 33 32
speed:0.000000, dis=0.000000
$GPGSA,A,3,26,14,16,22,32,03,23,,,,,,1.73,1.50,0.87*09$GLGSA,A,3,,,,,,,,,,,,,1.73,1.50,0.87*10$GPGSV,3,1,12,26,72,337,41,14,61,117,35,16,61,251,33,50,45,122,*7B$GPGSV,3,2,12,31,43,036,,32,38,134,30,22,33,260,33,193,26,170,24*4F$GPGSV,3,3,12,03,24,290,28,27,22,182,22,29,18,050,,23,09,320,28*74$GLGSV,3,1,10,69,52,296,29,68,50,199,28,79,39,348,28,81,24,115,28*69$GLGSV,3,2,10,78,23,031,,80,19,281,21,88,18,062,,82,07,162,*64$GLGSV,3$GNGGA,022418.000,2257.0615,N,11353.8248,E,1,7,1.50,-49.9,M,-3.6,M,,*4E1494411840 113.897080 22.951025 -49.-90 1.50 0.87 12 41 35 33 33
speed:0.000000, dis=0.000000
$GPGSA,A,3,26,14,16,22,32,03,23,,,,,,1.73,1.50,0.87*09$GLGSA,A,3,,,,,,,,,,,,,1.73,1.50,0.87*10$GPGSV,3,1,12,26,72,337,41,14,61,117,35,16,61,251,34,50,45,122,*7C$GPGSV,3,2,12,31,43,036,,32,38,134,23,22,33,260,34,193,26,170,22*4C$GPGSV,3,3,12,03,24,290,30,27,22,182,18,29,18,050,,23,09,320,28*74$GLGSV,3,1,10,69,52,296,30,68,50,199,26,79,39,348,30,81,24,115,19*64$GLGSV,3,2,10,78,23,031,,80,19,281,22,88,18,062,,82,07,162,*67$GNGGA,022419.000,2257.0626,N,11353.8247,E,1,7,1.49,-47.7,M,-3.6,M,,*481494411841 113.897078 22.951043 -47.-70 1.49 0.87 12 41 35 34 34
speed:0.000000, dis=0.000000
$GPGSA,A,3,26,14,16,22,32,03,23,,,,,,1.73,1.49,0.87*01$GLGSA,A,3,,,,,,,,,,,,,1.73,1.49,0.87*18$GPGSV,3,1,12,26,72,337,41,14,61,117,35,16,61,251,34,50,45,122,*7C$GPGSV,3,2,12,31,43,036,,32,38,134,24,22,33,260,35,193,26,170,20*48$GPGSV,3,3,12,03,24,290,31,27,22,182,16,29,18,050,,23,09,320,28*7B$GLGSV,3,1,10,69,52,296,31,68,50,199,26,79,39,348,31,81,24,115,21*6F$GLGSV,3,2,10,78,23,031,,80,19,281,22,88,18,062,,82,07,162,*67$GLGSV,3,05,167,20*60$GNGGA,022420.000,2257.0641,N,11353.8249,E,1,7,1.50,-44.5,M,-3.6,M,,*441494411842 113.897081 22.951068 -44.-50 1.50 0.87 12 41 35 35 34
speed:0.000000, dis=0.000000
$GPGSA,A,3,26,14,16,22,32,03,23,,,,,,1.73,1.50,0.87*09$GLGSA,A,3,,,,,,,,,,,,,1.73,1.50,0.87*10$GPGSV,3,1,12,26,72,337,41,14,61,117,35,16,61,251,33,50,45,122,*7B$GPGSV,3,2,12,31,43,036,,32,38,134,26,22,33,260,35,193,26,170,21*4B$GPGSV,3,3,12,03,24,290,31,27,22,182,18,29,17,050,,23,09,320,29*7B$GLGSV,3,1,10,69,52,296,32,68,50,199,28,79,39,348,32,81,24,115,21*61$GLGSV,3,2,10,78,23,031,,80,19,281,21,88,18,062,,82,07,162,18*6D$GLGSV,3,3,10,70,06,332,23,67,05,167,20*60$GNRMC,022420.000,A,2257.0641,N,11353.8249,E,0.34,150.21,100517,,,A*77$GNVTG,150.21,T,,M,0.34,N,0.62,K,A*27$GNGGA,022421.000,2257.0644,N,11353.8250,E,1,7,1.50,-44.3,M,-3.6,M,,*4E1494411843 113.897083 22.951073 -44.-30 1.50 0.87 12 41 35 35 33
speed:0.000000, dis=0.000000
$GPGSA,A,3,26,14,16,22,32,03,23,,,,,,1.73,1.50,0.87*09$GLGSA,A,3,,,,,,,,,,,,,1.73,1.50,0.87*10$GPGSV,3,1,12,26,72,337,40,14,61,117,35,16,61,251,33,50,45,122,*7A$GPGSV,3,2,12,31,43,036,,32,38,134,27,22,33,260,33,193,26,170,22*4F$GPGSV,3,3,12,03,24,290,30,27,22,182,17,29,17,050,,23,09,320,28*74$GLGSV,3,1,10,69,52,296,31,68,50,199,29,79,39,348,30,81,24,115,21*61$GLGSV,3,2,10,78,23,031,,80,19,281,20,88,18,062,,82,07,162,*65$GLGSV,3,3,10,70,06,332,22,67,05,167,19*6B$GNRMC,022421.000,A,2257.0644,N,11353.8250,E,0.34,150.21,100517,,,A*7B$GNVTG,150.21,T,,M,0.34,N,0.64,K,A*21$GNGGA,022422.000,2257.0652,N,11353.8250,E,1,7,1.50,-43.4,M,-3.6,M,,*4A1494411844 113.897083 22.951086 -43.-40 1.50 0.87 12 40 35 33 33
speed:0.000000, dis=0.000000
$GPGSA,A,3,26,14,16,22,32,03,23,,,,,,1.73,1.50,0.87*09$GLGSA,A,3,,,,,,,,,,,,,1.73,1.50,0.87*10$GPGSV,3,1,12,26,72,337,40,14,61,117,35,16,61,251,33,50,45,122,*7A$GPGSV,3,2,12,31,43,036,,32,38,134,26,22,33,260,32,193,26,170,21*4C$GPGSV,3,3,12,03,24,290,29,27,22,182,17,29,17,050,,23,09,320,27*73$GLGSV,3,1,10,69,52,296,31,68,50,199,29,79,39,348,30,81,24,115,21*61$GLGSV,3,2,10,78,23,031,,80,19,281,19,88,18,062,,82,07,162,*6F$GLGSV,3,3,10,70,06,332,22,67,05,167,*63$GNRMC,022422.000,A,2257.0652,N,11353.8250,E,0.48,150.21,100517,,,A*74$GNVTG,150.21,T,,M,0.48,N,0.89,K,A*29$GNGGA,022423.000,2257.0655,N,11353.8247,E,1,7,1.50,-42.7,M,-3.6,M,,*481494411845 113.897078 22.951091 -42.-70 1.50 0.87 12 40 35 33 32
speed:0.000000, dis=0.000000
$GPGSA,A,3,26,14,16,22,32,03,23,,,,,,1.73,1.50,0.87*09$GLGSA,A,3,,,,,,,,,,,,,1.73,1.50,0.87*10$GPGSV,3,1,12,26,72,337,40,14,61,117,35,16,61,251,32,50,45,122,*7B$GPGSV,3,2,12,31,43,036,,32,38,134,26,22,33,260,33,193,26,170,20*4C$GPGSV,3,3,12,03,24,290,31,27,22,182,18,29,17,050,,23,09,320,28*7A$GLGSV,3,1,10,69,52,296,31,68,50,199,29,79,39,348,31,81,24,115,29*68$GLGSV,3,2,10,78,23,031,,80,19,281,21,88,18,062,,82,07,162,*64$GLGSV,3,3,10,70,06,332,21,67,05,167,*60$GNRMC,022423.000,A,2257.0655,N,11353.8247,E,0.38,150.21,100517,,,A*73$GNVTG,150.21,T,,M,0.38,N,0.71,K,A*29$GNGGA,022424.000,2257.0658,N,11353.8245,E,1,7,1.49,-42.1,M,-3.6,M,,*4E1494411846 113.897075 22.951096 -42.-10 1.49 0.87 12 40 35 33 32
speed:0.000000, dis=0.000000
$GPGSA,A,3,26,14,16,22,32,03,23,,,,,,1.73,1.49,0.87*01$GLGSA,A,3,,,,,,,,,,,,,1.73,1.49,0.87*18$GPGSV,3,1,12,26,72,337,40,14,61,117,35,16,61,251,31,50,45,122,27*7D$GPGSV,3,2,12,31,43,036,,32,38,134,35,22,33,260,33,193,25,170,*4F$GPGSV,3,3,12,03,24,290,32,27,22,182,18,29,17,050,,23,09,320,28*79$GLGSV,3,1,10,69,52,296,30,68,50,199,27,79,39,348,31,81,24,115,28*66$GLGSV,3,2,10,78,23,031,,80,19,281,22,88,18,062,,82,07,162,*67$GLGSV,3,3,10,70,06,332,21,67,05,167,*60$GNRMC,022424.000,A,2257.0658,N,11353.8245,E,0.35,150.21,100517,,,A*76$GNVTG,150.21,T,,M,0.35,N,0.64,K,A*20$GNGGA,022425.000,2257.0660,N,11353.8243,E,1,7,1.49,-41.9,M,-3.6,M,,*491494411847 113.897071 22.951100 -41.-90 1.49 0.87 12 40 35 35 33
speed:0.000000, dis=0.000000
$GPGSA,A,3,26,14,16,22,32,03,23,,,,,,1.73,1.49,0.87*01$GLGSA,A,3,,,,,,,,,,,,,1.73,1.49,0.87*18$GPGSV,3,1,12,26,72,337,39,14,61,117,35,16,61,251,30,50,45,122,27*72$GPGSV,3,2,12,31,43,036,,32,38,134,34,22,33,260,34,193,25,170,19*41$GPGSV,3,3,12,03,24,290,32,27,22,182,19,29,17,050,,23,09,320,28*78$GLGSV,3,1,10,69,52,296,28,68,50,199,26,79,39,348,30,81,24,115,29*6E$GLGSV,3,2,10,78,23,031,,80,19,281,22,88,18,062,,82,07,162,*67$GLGSV,3,3,10,70,06,332,22,67,05,167,*63$GNRMC,022425.000,A,2257.0660,N,11353.8243,E,0.48,150.21,100517,,,A*70$GNVTG,150.21,T,,M,0.$GNGGA,022426.000,2257.0664,N,11353.8243,E,1,7,1.49,-41.8,M,-3.6,M,,*4F1494411848 113.897071 22.951106 -41.-80 1.49 0.87 12 39 35 34 34
speed:0.000000, dis=0.000000
$GPGSA,A,3,26,14,16,22,32,03,23,,,,,,1.73,1.49,0.87*01$GLGSA,A,3,,,,,,,,,,,,,1.73,1.49,0.87*18$GPGSV,3,1,12,26,72,337,40,14,61,117,35,16,61,251,31,50,45,122,27*7D$GPGSV,3,2,12,31,43,036,,32,38,134,34,22,33,260,33,193,25,170,18*47$GPGSV,3,3,12,03,24,290,24,27,22,182,21,29,17,050,,23,09,320,21*7D$GLGSV,3,1,10,69,52,296,28,68,50,199,24,79,39,348,29,81,24,115,29*64$GLGSV,3,2,10,78,23,031,,80,19,281,20,88,18,062,,82,07,162,*65$GLGSV,3,3,10,70,06,332,21,67,05,167,*60$GNRMC,022426.000,A,2257.0664,N,11353.8243,E,0.41,150.21,100517,,,A*7E$GNVTG,150.21,T,,M,0.41,N,0.75,K,A*23$GNGGA,022427.000,2257.0667,N,11353.8241,E,1,7,1.49,-41.1,M,-3.6,M,,*461494411849 113.897068 22.951111 -41.-10 1.49 0.87 12 40 35 34 33
speed:0.000000, dis=0.000000
$GPGSA,A,3,26,14,16,22,32,03,23,,,,,,1.73,1.49,0.87*01$GLGSA,A,3,,,,,,,,,,,,,1.73,1.49,0.87*18$GPGSV,3,1,12,26,72,337,40,14,61,117,34,16,61,251,21,50,45,122,26*7C$GPGSV,3,2,12,31,43,036,,32,38,134,32,22,33,260,32,193,25,170,22*49$GPGSV,3,3,12,03,24,290,35,27,22,182,20,29,17,050,,23,09,320,29*74$GLGSV,3,1,10,69,52,296,27,68,50,199,23,79,39,348,31,81,24,115,29*65$GLGSV,3,2,10,78,23,031,,80,19,281,22,88,18,062,,82,07,162,*67$GLGSV,3,3,10,70,06,332,22,67,05,167,*63$GNRMC,022427.000,A,2257.0667,N,11353.8241,E,0.34,150.21,100517,,,A*7C$GNVTG,150.21,T,,M,0.34,N,0.64,K,A*21$GNGGA,022428.000,2257.0668,N,11353.8241,E,1,7,1.49,-40.7,M,-3.6,M,,*411494411850 113.897068 22.951113 -40.-70 1.49 0.87 12 40 35 34 32
speed:0.000000, dis=0.000000
$GPGSA,A,3,26,14,16,22,32,03,23,,,,,,1.73,1.49,0.87*01$GLGSA,A,3,,,,,,,,,,,,,1.73,1.49,0.87*18$GPGSV,3,1,12,26,72,337,39,14,61,117,35,16,61,251,35,50,45,122,26*76$GPGSV,3,2,12,31,43,036,,32,38,134,34,22,33,260,31,193,25,170,22*4C$GPGSV,3,3,12,03,24,290,35,27,22,182,,29,17,050,,23,09,320,30*7E$GLGSV,3,1,10,69,52,296,36,68,50,199,30,79,39,348,29,81,24,115,37*61$GLGSV,3,2,10,78,23,031,,80,19,281,22,88,18,062,,82,07,162,*67$GLGSV,3,3,10,70,06,332,23,67,05,167,*62$GNRMC,022428.000,A,2257.0668,N,11353.8241,E,0.36,150.21,100517,,,A*7E$GNVTG,150.21,T,,M,0.36,N,0.66,K,A*21$GNGGA,022429.000,2257.0672,N,11353.8241,E,1,7,1.49,-40.1,M,-3.6,M,,*4D1494411851 113.897068 22.951120 -40.-10 1.49 0.87 12 39 35 35 35
speed:0.000000, dis=0.000000
$GPGSA,A,3,26,14,16,22,32,03,23,,,,,,1.73,1.49,0.87*01$GLGSA,A,3,,,,,,,,,,,,,1.73,1.49,0.87*18$GPGSV,3,1,12,26,72,337,39,14,61,117,35,16,61,251,36,50,45,122,26*75$GPGSV,3,2,12,31,43,036,,32,38,134,26,22,33,260,30,193,25,170,24*48$GPGSV,3,3,12,03,24,290,36,27,22,182,23,29,17,050,,23,09,320,30*7C$GLGSV,3,1,10,69,52,296,36,68,50,199,30,79,39,348,21,81,24,115,37*69$GLGSV,3,2,10,78,23,031,,80,19,281,21,88,18,062,,82,07,162,*64$GLGSV,3,3,10,70,06,332,22,67,05,167,*63$GNRMC,022429.000,A,2257.0672,N,11353.8241,E,0.32,150.21,100517,,,A*70$GNVTG,150.21,T,,M,0.$GNGGA,022430.000,2257.0674,N,11353.8241,E,1,8,1.14,-39.5,M,-3.6,M,,*4E1494411852 113.897068 22.951123 -39.-50 1.14 0.87 12 39 36 36 35
speed:0.000000, dis=0.000000
$GPGSA,A,3,26,14,16,22,32,31,03,23,,,,,1.43,1.14,0.87*08$GLGSA,A,3,,,,,,,,,,,,,1.43,1.14,0.87*13$GPGSV,3,1,12,26,72,337,39,14,61,117,35,16,61,251,37,31,43,036,14*70$GPGSV,3,2,12,32,38,134,27,22,33,260,32,44,30,250,,193,25,170,23*48$GPGSV,3,3,12,03,24,290,37,27,22,182,25,29,17,050,,23,09,320,30*7B$GLGSV,3,1,10,69,52,296,35,68,50,199,37,79,39,348,32,81,24,115,28*61$GLGSV,3,2,10,78,23,031,,80,19,281,29,88,18,062,,82,07,162,*6C$GLGSV,3,3,10,70,06,332,23,67,05,167,*62$GNRMC,022430.000,A,2257.0674,N,11353.8241,E,0.33,150.21,100517,,,A*7F$GNVTG,150.21,T,,M,0.33,N,0.62,K,A*20$GNGGA,022431.000,2257.0673,N,11353.8237,E,1,8,1.14,-38.0,M,-3.6,M,,*4D1494411853 113.897061 22.951121 -38.00 1.14 0.87 12 39 37 37 35
speed:0.000000, dis=0.000000
$GPGSA,A,3,26,14,16,22,32,31,03,23,,,,,1.43,1.14,0.87*08$GLGSA,A,3,,,,,,,,,,,,,1.43,1.14,0.87*13$GPGSV,3,1,12,26,72,337,40,14,61,117,33,16,61,251,29,31,43,036,14*77$GPGSV,3,2,12,32,38,134,29,22,33,260,25,44,30,250,,193,25,170,22*41$GPGSV,3,3,12,03,24,290,36,27,22,182,,29,17,050,,23,09,320,30*7D$GLGSV,3,1,10,69,52,296,27,68,50,199,23,79,39,348,33,81,24,115,30*6F$GLGSV,3,2,10,78,23,031,,80,19,281,27,88,18,062,,82,07,162,*62$GLGSV,3,3,10,70,06,332,22,67,05,167,*63$GNRMC,022431.000,A,2257.0673,N,11353.8237,E,0.28,150.21,100517,,,A*72$GNVTG,150.21,T,,M,0.28,N,0.51,K,A*2A$GNGGA,022432.000,2257.0672,N,11353.8231,E,1,8,1.14,-37.1,M,-3.6,M,,*471494411854 113.897051 22.951120 -37.-10 1.14 0.87 12 40 36 33 30
speed:0.000000, dis=0.000000
$GPGSA,A,3,26,14,16,22,32,31,03,23,,,,,1.43,1.14,0.87*08$GLGSA,A,3,,,,,,,,,,,,,1.43,1.14,0.87*13$GPGSV,3,1,12,26,72,337,39,14,61,117,34,16,61,251,28,31,43,036,16*7D$GPGSV,3,2,12,32,38,134,31,22,33,260,26,44,30,250,,193,25,170,23*4A$GPGSV,3,3,12,03,24,290,35,27,22,182,20,29,17,050,,23,09,320,30*7C$GLGSV,3,1,10,69,52,296,27,68,50,199,23,79,39,348,31,81,24,115,31*6C$GLGSV,3,2,10,78,23,031,,80,19,281,26,88,18,062,,82,07,162,*63$GLGSV,3,3,10,70,06,332,22,67,05,167,*63$GNRMC,022432.000,A,2257.0672,N,11353.8231,E,0.24,150.21,100517,,,A*7A$GNVTG,150.21,T,,M,0.24,N,0.44,K,A*22$GNGGA,022433.000,2257.0666,N,11353.8224,E,1,7,1.49,-36.2,M,-3.6,M,,*421494411855 113.897040 22.951110 -36.-20 1.49 0.87 12 39 35 34 31
speed:0.000000, dis=0.000000
$GPGSA,A,3,26,14,16,22,32,03,23,,,,,,1.73,1.49,0.87*01$GLGSA,A,3,,,,,,,,,,,,,1.73,1.49,0.87*18$GPGSV,3,1,12,26,72,337,37,14,61,117,34,16,61,251,28,31,43,036,17*72$GPGSV,3,2,12,32,38,134,32,22,33,260,38,44,30,250,,193,25,170,23*46$GPGSV,3,3,12,03,24,290,28,27,22,182,18,29,17,050,,23,09,320,31*7A$GLGSV,3,1,10,69,52,296,26,68,50,199,23,79,39,348,31,81,24,115,32*6E$GLGSV,3,2,10,78,23,031,,80,19,281,19,88,18,062,,82,07,162,*6F$GLGSV,3,3,10,70,06,332,23,67,05,167,*62$GNRMC,022433.000,A,2257.0666,N,11353.8224,E,0.09,150.21,100517,,,A*75$GNVTG,150.21,T,,M,0.09,N,0.17,K,A*2B$GNGGA,022434.000,2257.0661,N,11353.8222,E,1,8,1.14,-35.7,M,-3.6,M,,*451494411856 113.897036 22.951101 -35.-70 1.14 0.87 12 38 37 34 32
speed:0.000000, dis=0.000000
$GPGSA,A,3,26,14,16,22,32,31,03,23,,,,,1.43,1.14,0.87*08$GLGSA,A,3,,,,,,,,,,,,,1.43,1.14,0.87*13$GPGSV,3,1,12,26,72,337,28,14,61,117,32,16,61,251,27,31,43,036,18*7A$GPGSV,3,2,12,32,38,134,31,22,33,260,37,44,30,250,,193,25,170,22*4B$GPGSV,3,3,12,03,24,290,40,27,22,182,23,29,17,050,,23,09,320,32*7F$GLGSV,3,1,10,69,52,296,26,68,50,199,23,79,39,348,31,81,24,115,33*6F$GLGSV,3,2,10,78,23,031,,80,19,281,19,88,18,062,,82,07,162,*6F$GLGSV,3,3,10,70,06,332,25,67,05,167,*64$GNRMC,022434.000,A,2257.0661,N,11353.8222,E,0.09,150.21,100517,,,A*73$GNVTG,150.21,T,,M,0.09,N,0.17,K,A*2B$GNGGA,022435.000,2257.0660,N,11353.8220,E,1,8,1.14,-34.9,M,-3.6,M,,*481494411857 113.897033 22.951100 -34.-90 1.14 0.87 12 40 37 32 32
speed:0.000000, dis=0.000000
$GPGSA,A,3,26,14,16,22,32,31,03,23,,,,,1.43,1.14,0.87*08$GLGSA,A,3,,,,,,,,,,,,,1.43,1.14,0.87*13$GPGSV,3,1,12,26,72,337,30,14,61,117,31,16,61,251,26,31,43,036,17*7E$GPGSV,3,2,12,32,38,134,29,22,33,260,30,44,30,250,,193,25,170,21*46$GPGSV,3,3,12,03,24,290,33,27,22,182,21,29,17,050,,23,09,320,31*7A$GLGSV,3,1,10,69,52,296,26,68,50,199,22,79,39,348,32,81,24,115,34*6A$GLGSV,3,2,10,78,23,031,,80,19,281,20,88,18,062,,82,07,162,20*67$GLGSV,3,3,10,70,06,332,26,67,05,167,*67$GNRMC,022435.000,A,2257.0660,N,11353.8220,E,0.13,150.21,100517,,,A*7A$GNVTG,150.21,T,,M,0.13,N,0.25,K,A*21$GNGGA,022436.000,2257.0656,N,11353.8218,E,1,8,1.14,-34.8,M,-3.6,M,,*441494411858 113.897030 22.951093 -34.-80 1.14 0.87 12 33 31 31 30
speed:0.000000, dis=0.000000
$GPGSA,A,3,26,14,16,22,32,31,03,23,,,,,1.43,1.14,0.87*08$GLGSA,A,3,,,,,,,,,,,,,1.43,1.14,0.87*13$GPGSV,3,1,12,26,72,337,30,14,61,117,31,16,61,251,24,31,43,036,14*7F$GPGSV,3,2,12,32,38,134,29,22,33,260,28,44,30,250,,193,25,170,21*4F$GPGSV,3,3,12,03,24,290,34,27,22,182,19,29,17,050,,23,09,320,31*76$GLGSV,3,1,10,69,52,296,25,68,50,199,21,79,39,348,33,81,24,115,35*6A$GLGSV,3,2,10,78,23,031,,80,19,281,20,88,18,062,,82,07,162,19*6D$GLGSV,3,3,10,70,06,332,27,67,05,167,*66$GNRMC,022436.000,A,2257.0656,N,11353.8218,E,0.17,150.21,100517,,,A*73$GNVTG,150.21,T,,M,0.17,N,0.31,K,A*20$GNGGA,022437.000,2257.0653,N,11353.8218,E,1,7,1.18,-34.4,M,-3.6,M,,*4F1494411859 113.897030 22.951088 -34.-40 1.18 0.87 12 34 31 31 30
speed:0.000000, dis=0.000000
$GPGSA,A,3,26,16,22,32,31,03,23,,,,,,1.46,1.18,0.87*04$GLGSA,A,3,,,,,,,,,,,,,1.46,1.18,0.87*1A$GPGSV,3,1,12,26,72,337,30,14,61,117,31,16,61,251,22,31,43,036,17*7A$GPGSV,3,2,12,32,38,134,28,22,33,260,21,44,30,250,,193,25,170,20*46$GPGSV,3,3,12,03,24,290,33,27,22,182,18,29,17,050,,23,09,320,32*73$GLGSV,3,1,10,69,52,296,24,68,50,199,19,79,39,348,34,81,24,115,34*66$GLGSV,3,2,10,78,23,031,,80,19,281,19,88,18,062,,82,07,162,20*6D$GLGSV,3,3,10,70,06,332,27,67,05,167,*66$GNRMC,022437.000,A,2257.0653,N,11353.8218,E,0.14,150.21,100517,,,A*74$GNVTG,150.21,T,,M,0.14,N,0.26,K,A*25$GNGGA,022438.000,2257.0651,N,11353.8217,E,1,8,1.14,-34.0,M,-3.6,M,,*4A1494411860 113.897028 22.951085 -34.00 1.14 0.87 12 33 32 31 30
speed:0.000000, dis=0.000000
$GPGSA,A,3,26,14,16,22,32,31,03,23,,,,,1.43,1.14,0.87*08$GLGSA,A,3,,,,,,,,,,,,,1.43,1.14,0.87*13$GPGSV,3,1,12,26,72,337,31,14,61,117,31,16,61,251,22,31,43,036,17*7B$GPGSV,3,2,12,32,38,134,27,22,33,260,20,44,30,250,,193,25,170,19*42$GPGSV,3,3,12,03,24,290,32,27,22,182,16,29,17,050,,23,09,320,33*7D$GLGSV,3,1,10,69,52,296,23,68,50,199,19,79,39,348,35,81,24,115,33*67$GLGSV,3,2,10,78,23,031,,80,19,281,18,88,18,062,,82,07,162,18*67$GLGSV,3,3,10,70,06,332,28,67,05,167,*69$GNRMC,022438.000,A,2257.0651,N,1$GNGGA,022439.000,2257.0649,N,11353.8215,E,1,8,1.14,-33.3,M,-3.6,M,,*441494411861 113.897025 22.951081 -33.-30 1.14 0.87 12 33 32 31 31
speed:0.000000, dis=0.000000
$GPGSA,A,3,26,14,16,22,32,31,03,23,,,,,1.43,1.14,0.87*08$GLGSA,A,3,,,,,,,,,,,,,1.43,1.14,0.87*13$GPGSV,3,1,12,26,72,337,32,14,61,117,32,16,61,251,24,31,43,036,16*7C$GPGSV,3,2,12,32,38,134,29,22,33,260,20,44,30,250,,193,25,170,19*4C$GPGSV,3,3,12,03,24,290,34,27,22,182,16,29,17,050,,23,09,320,34*7C$GLGSV,3,1,10,69,52,296,24,68,50,199,28,79,39,348,36,81,24,115,32*60$GLGSV,3,2,10,78,23,031,,80,19,281,19,88,18,062,,82,07,162,18*66$GLGSV,3,3,10,70,06,332,29,67,05,167,*68$GNRMC,022439.000,A,2257.0649,N,1,,M,0.16,N,0.30,K,A*20$GNGGA,022440.000,2257.0638,N,11353.8195,E,1,9,1.04,-30.7,M,-3.6,M,,*401494411862 113.896991 22.951063 -30.-70 1.04 0.87 12 34 34 32 32
speed:0.000000, dis=0.000000
$GPGSA,A,3,26,14,16,22,32,31,03,23,,,,,1.35,1.04,0.86*09$GLGSA,A,3,79,,,,,,,,,,,,1.35,1.04,0.86*1C$GPGSV,3,1,12,26,72,337,41,14,61,117,34,16,61,251,34,31,43,036,16*7F$GPGSV,3,2,12,32,38,134,30,22,33,260,35,40,28,251,,193,25,170,20*46$GPGSV,3,3,12,03,24,290,25,27,22,182,17,29,17,050,,23,09,320,33*7A$GLGSV,3,1,10,69,52,296,31,68,50,199,28,79,39,348,37,81,24,115,31*66$GLGSV,3,2,10,78,23,031,,80,19,281,21,88,18,062,,82,07,162,16*63$GNVTG,150.21,T,,M,0.41,N,0.77,K,A*21$GNGGA,022441.000,2257.0637,N,11353.8189,E,1,9,1.04,-29.3,M,-3.6,M,,*4F1494411863 113.896981 22.951061 -29.-30 1.04 0.86 12 41 35 34 34
speed:0.000000, dis=0.000000
$GPGSA,A,3,26,14,16,22,32,31,03,23,,,,,1.35,1.04,0.86*09$GLGSA,A,3,79,,,,,,,,,,,,1.35,1.04,0.86*1C$GPGSV,3,1,12,26,72,337,42,14,61,117,35,16,61,251,32,31,43,036,16*7B$GPGSV,3,2,12,32,38,134,38,22,33,260,34,40,28,251,,193,25,170,21*4E$GPGSV,3,3,12,03,24,290,26,27,22,182,17,29,17,050,,23,09,320,32*78$GLGSV,3,1,10,69,52,296,29,68,50,199,28,79,39,348,36,81,24,115,32*6D$GLGSV,3,2,10,78,23,031,,80,19,281,22,88,18,062,,82,07,162,*67$GLGSV,3,3,10,70,06,332,28,67,05,167,21*6A$GNRMC,022441.000,A,2257.0637,N,11353.8189,E,0.33,150.21,100517,,,A*79$GNVTG,150.21,T,,M,0.33,N,0.60,K,A*22$GNGGA,022442.000,2257.0637,N,11353.8185,E,1,9,1.04,-28.5,M,-3.6,M,,*471494411864 113.896975 22.951061 -28.-50 1.04 0.86 12 42 38 35 34
speed:0.000000, dis=0.000000
$GPGSA,A,3,26,14,16,22,32,31,03,23,,,,,1.35,1.04,0.86*09$GLGSA,A,3,79,,,,,,,,,,,,1.35,1.04,0.86*1C$GPGSV,3,1,12,26,72,337,42,14,61,117,35,16,61,251,32,31,43,036,16*7B$GPGSV,3,2,12,32,38,134,38,22,33,260,34,40,28,251,,193,25,170,22*4D$GPGSV,3,3,12,03,24,290,26,27,22,182,18,29,17,050,,23,09,320,32*77$GLGSV,3,1,10,69,52,296,27,68,50,199,28,79,39,348,35,81,24,115,33*61$GLGSV,3,2,10,78,23,031,,80,19,281,23,88,18,062,,82,07,162,*66$GLGSV,3,3,10,70,06,332,27,67,05,167,20*64$GNRMC,022442.000,A,2257.0637,N,11353.8185,E,0.30,150.21,100517,,,A*75$GNVTG,150.21,T,,M,0.30,N,0.55,K,A*27$GNGGA,022443.000,2257.0636,N,11353.8184,E,1,9,1.04,-28.1,M,-3.6,M,,*421494411865 113.896973 22.951060 -28.-10 1.04 0.86 12 42 38 35 34
speed:0.000000, dis=0.000000
$GPGSA,A,3,26,14,16,22,32,31,03,23,,,,,1.35,1.04,0.86*09$GLGSA,A,3,79,,,,,,,,,,,,1.35,1.04,0.86*1C$GPGSV,3,1,12,26,72,337,42,14,61,117,28,16,61,251,23,31,43,036,16*77$GPGSV,3,2,12,32,38,134,36,22,33,260,32,40,28,251,,193,25,170,23*44$GPGSV,3,3,12,03,24,290,27,27,22,182,20,29,17,050,,23,09,320,31*7E$GLGSV,3,1,10,69,52,296,28,68,50,199,27,79,39,348,25,81,24,115,32*61$GLGSV,3,2,10,78,23,031,,80,19,281,23,88,18,062,,82,07,162,*66$GLGSV,3,3,10,70,06,332,26,67,05,167,23*66$GNRMC,022443.000,A,2257.0636,N,11353.8184,E,0.26,150.21,100517,,,A*73$GNVTG,150.21,T,,M,0.26,N,0.47,K,A*23$GNGGA,022444.000,2257.0634,N,11353.8185,E,1,8,1.21,-27.8,M,-3.6,M,,*461494411866 113.896975 22.951056 -27.-80 1.21 0.86 12 42 36 32 31
speed:0.000000, dis=0.000000
$GPGSA,A,3,26,14,16,22,32,03,23,,,,,,1.49,1.21,0.86*07$GLGSA,A,3,79,,,,,,,,,,,,1.49,1.21,0.86*10$GPGSV,3,1,12,26,72,337,41,14,61,117,20,16,61,251,21,31,43,036,15*7D$GPGSV,3,2,12,32,38,134,27,22,33,260,30,40,28,251,,193,25,170,22*47$GPGSV,3,3,12,03,24,290,34,27,22,182,21,29,17,050,,23,09,320,31*7D$GLGSV,3,1,10,69,52,296,26,68,50,199,26,79,39,348,24,81,24,115,18*67$GLGSV,3,2,10,78,23,031,,80,19,281,,88,18,062,,82,07,162,*67$GLGSV,3,3,10,70,06,332,26,67,05,167,20*65$GNRMC,022444.000,A,2257.0634,N,11353.8185,E,0.16,150.21,100517,,,A*74$GNVTG,150.21,T,,M,0.16,N,0.30,K,A*20$GNGGA,022445.000,2257.0635,N,11353.8186,E,1,8,1.21,-27.5,M,-3.6,M,,*481494411867 113.896976 22.951058 -27.-50 1.21 0.86 12 41 34 31 30
speed:0.000000, dis=0.000000
$GPGSA,A,3,26,14,16,22,32,03,23,,,,,,1.49,1.21,0.86*07$GLGSA,A,3,79,,,,,,,,,,,,1.49,1.21,0.86*10$GPGSV,3,1,12,26,72,337,40,14,61,117,19,16,61,251,21,31,43,036,15*76$GPGSV,3,2,12,32,38,134,25,22,33,260,29,40,28,251,,193,25,170,21*4E$GPGSV,3,3,12,03,24,290,34,27,22,182,21,29,17,050,,23,09,320,29*74$GLGSV,3,1,10,69,52,296,26,68,50,199,19,79,39,348,26,81,24,115,29*6B$GLGSV,3,2,10,78,23,031,,80,19,281,,88,18,062,,82,07,162,*67$GLGSV,3,3,10,70,06,332,26,67,05,167,14*62$GNRMC,022445.000,A,2257.0635,N,11353.8186,E,0.15,150.21,100517,,,A*74$GNVTG,150.21,T,,M,0.15,N,0.28,K,A*2A$GNGGA,022446.000,2257.0636,N,11353.8188,E,1,8,1.21,-27.1,M,-3.6,M,,*421494411868 113.896980 22.951060 -27.-10 1.21 0.86 12 40 34 29 29
speed:0.000000, dis=0.000000
$GPGSA,A,3,26,14,16,22,32,03,23,,,,,,1.49,1.21,0.86*07$GLGSA,A,3,79,,,,,,,,,,,,1.49,1.21,0.86*10$GPGSV,3,1,12,26,72,337,39,14,61,117,18,16,61,251,22,31,43,036,14*7B$GPGSV,3,2,12,32,38,134,18,22,33,260,29,40,28,251,,193,25,170,21*40$GPGSV,3,3,12,03,24,290,34,27,22,182,21,29,17,050,,23,09,320,28*75$GLGSV,3,1,10,69,52,296,24,68,50,199,19,79,39,348,27,81,24,115,29*68$GLGSV,3,2,10,78,23,031,,80,19,281,15,88,18,062,,82,07,162,*63$GLGSV,3,3,10,70,06,332,26,67,05,167,15*63$GNRMC,022446.000,A,2257.0636,N,11353.8188,E,0.19,150.21,100517,,,A*76$GNVTG,150.21,T,,M,0.19,N,0.35,K,A*2A$GNGGA,022447.000,2257.0637,N,11353.8189,E,1,8,1.21,-26.9,M,-3.6,M,,*4A1494411869 113.896981 22.951061 -26.-90 1.21 0.86 12 39 34 29 28
speed:0.000000, dis=0.000000
$GPGSA,A,3,26,14,16,22,32,03,23,,,,,,1.49,1.21,0.86*07$GLGSA,A,3,79,,,,,,,,,,,,1.49,1.21,0.86*10$GPGSV,3,1,12,26,72,337,37,14,61,117,19,16,61,251,23,31,43,036,13*72$GPGSV,3,2,12,32,38,134,20,22,33,260,29,40,28,251,,193,25,170,20*4A$GPGSV,3,3,12,03,24,290,34,27,22,182,,29,17,050,,23,09,320,28*76$GLGSV,3,1,10,69,52,296,23,68,50,199,21,79,39,348,29,81,24,115,27*64$GLGSV,3,2,10,78,23,031,,80,19,281,,88,18,062,,82,07,162,*67$GLGSV,3,3,10,70,06,332,26,67,05,167,14*62$GNRMC,022447.000,A,2257.0637,N,11353.8189,E,0.18,150.21,100517,,,A*76$GNVTG,150.21,T,,M,0.18,N,0.33,K,A*2D$GNGGA,022448.000,2257.0638,N,11353.8191,E,1,8,1.21,-26.6,M,-3.6,M,,*4C1494411870 113.896985 22.951063 -26.-60 1.21 0.86 12 37 34 29 28
speed:0.000000, dis=0.000000
$GPGSA,A,3,26,14,16,22,32,03,23,,,,,,1.49,1.21,0.86*07$GLGSA,A,3,79,,,,,,,,,,,,1.49,1.21,0.86*10$GPGSV,3,1,12,26,72,337,36,14,61,117,18,16,61,251,23,31,43,036,16*77$GPGSV,3,2,12,32,38,134,21,22,33,260,29,40,28,251,,193,25,170,20*4B$GPGSV,3,3,12,03,24,290,34,27,22,182,,29,17,050,,23,09,320,29*77$GLGSV,3,1,10,69,52,296,21,68,50,199,21,79,39,348,29,81,24,115,26*67$GLGSV,3,2,10,78,23,031,,80,19,281,,88,18,062,,82,07,162,*67$GLGSV,3,3,10,70,06,332,26,67,05,167,*67$GNRMC,022448.000,A,2257.0638,N,11353.8191,E,0.12,150.21,100517,,,A*75$GNVTG,150.21,T,,M,0.12,N,0.21,K,A*24$GNGGA,022449.000,2257.0630,N,11353.8199,E,1,9,1.04,-25.4,M,-3.6,M,,*4A1494411871 113.896998 22.951050 -25.-40 1.04 0.86 12 36 34 29 29
speed:0.000000, dis=0.000000
$GPGSA,A,3,26,14,16,22,32,31,03,23,,,,,1.35,1.04,0.86*09$GLGSA,A,3,79,,,,,,,,,,,,1.35,1.04,0.86*1C$GPGSV,3,1,12,26,72,337,36,14,61,117,19,16,61,251,25,41,46,236,*77$GPGSV,3,2,12,31,43,036,17,32,38,134,21,22,33,260,30,193,25,170,20*4D$GPGSV,3,3,12,03,24,290,34,27,22,182,,29,17,050,,23,09,320,30*7F$GLGSV,3,1,10,69,52,296,21,68,50,199,22,79,39,348,30,81,24,115,24*6E$GLGSV,3,2,10,78,23,031,,80,19,281,,88,18,062,,82,07,162,*67$GLGSV,3,3,10,70,06,332,26,67,05,167,*67$GNRMC,022449.000,A,2257.0630,N,11353.8199,E,0.22,150.21,100517,,,A*77$GNVTG,150.21,T,,M,0.22,N,0.42,K,A*22$GNGGA,022450.000,2257.0629,N,11353.8201,E,1,9,1.04,-24.7,M,-3.6,M,,*4A1494411872 113.897001 22.951048 -24.-70 1.04 0.86 12 36 34 30 30
speed:0.000000, dis=0.000000
$GPGSA,A,3,26,14,16,22,32,31,03,23,,,,,1.35,1.04,0.86*09$GLGSA,A,3,79,,,,,,,,,,,,1.35,1.04,0.86*1C$GPGSV,3,1,12,26,72,337,36,14,61,117,26,16,61,251,26,41,46,236,*78$GPGSV,3,2,12,31,43,036,17,32,38,134,23,22,33,260,29,193,25,170,19*4D$GPGSV,3,3,12,03,24,290,34,27,22,182,16,29,17,050,,23,09,320,29*70$GLGSV,3,1,10,69,52,296,21,68,50,199,24,79,39,348,31,81,24,115,17*69$GLGSV,3,2,10,78,23,031,,80,19,281,,88,18,062,,82,07,162,*67$GLGSV,3,3,10,70,06,332,25,67,05,167,*64$GNRMC,022450.000,A,2257.0629,N,11353.8201,E,0.22,150.21,100517,,,A*75$GNVTG,150.21,T,,M,0.22,N,0.40,K,A*20$GNGGA,022451.000,2257.0628,N,11353.8205,E,1,9,1.04,-24.0,M,-3.6,M,,*491494411873 113.897008 22.951046 -24.00 1.04 0.86 12 36 34 29 29
speed:0.000000, dis=0.000000
$GPGSA,A,3,26,14,16,22,32,31,03,23,,,,,1.35,1.04,0.86*09$GLGSA,A,3,79,,,,,,,,,,,,1.35,1.04,0.86*1C$GPGSV,3,1,12,26,72,337,36,14,61,117,25,16,61,251,26,41,46,236,*7B$GPGSV,3,2,12,31,43,036,18,32,38,134,24,22,33,260,28,193,25,170,*4C$GPGSV,3,3,12,03,24,290,34,27,22,182,20,29,17,050,,23,09,320,28*74$GLGSV,3,1,10,69,52,296,21,68,50,199,26,79,39,348,32,81,24,115,27*6B$GLGSV,3,2,10,78,23,031,,80,19,281,,88,18,062,,82,07,162,*67$GLGSV,3,3,10,70,06,332,24,67,05,167,*65$GNRMC,022451.000,A,2257.0628,N,11353.8205,E,0.30,150.21,100517,,,A*72$GNVTG,150.21,T,,M,0.30,N,0.56,K,A*24$GNGGA,022452.000,2257.0627,N,11353.8207,E,1,9,1.04,-23.5,M,-3.6,M,,*451494411874 113.897011 22.951045 -23.-50 1.04 0.86 12 36 34 28 28
speed:0.000000, dis=0.000000
$GPGSA,A,3,26,14,16,22,32,31,03,23,,,,,1.35,1.04,0.86*09$GLGSA,A,3,79,,,,,,,,,,,,1.35,1.04,0.86*1C$GPGSV,3,1,12,26,72,337,36,14,61,117,26,16,61,251,28,41,46,236,*76$GPGSV,3,2,12,31,43,036,18,32,38,134,25,22,33,260,28,193,25,170,*4D$GPGSV,3,3,12,03,24,290,33,27,22,182,20,29,17,050,,23,09,320,27*7C$GLGSV,3,1,10,69,52,296,21,68,50,199,27,79,39,348,33,81,24,115,28*64$GLGSV,3,2,10,78,23,031,,80,19,281,,88,18,062,,82,07,162,*67$GLGSV,3,3,10,70,06,332,23,67,05,167,*62$GNRMC,022452.000,A,2257.0627,N,11353.8207,E,0.36,150.21,100517,,,A*7A$GNVTG,150.21,T,,M,0.36,N,0.66,K,A*21$GNGGA,022453.000,2257.0625,N,11353.8209,E,1,8,1.21,-23.1,M,-3.6,M,,*4A1494411875 113.897015 22.951041 -23.-10 1.21 0.86 12 36 33 28 28
speed:0.000000, dis=0.000000
$GPGSA,A,3,26,14,16,22,32,03,23,,,,,,1.49,1.21,0.86*07$GLGSA,A,3,79,,,,,,,,,,,,1.49,1.21,0.86*10$GPGSV,3,1,12,26,72,337,37,14,61,117,30,16,61,251,28,41,46,236,*70$GPGSV,3,2,12,31,43,036,,32,38,134,38,22,33,260,20,193,25,170,21*43$GPGSV,3,3,12,03,24,290,33,27,22,182,,29,17,050,,23,09,320,26*7F$GLGSV,3,1,10,69,52,296,21,68,50,199,26,79,39,348,34,81,24,115,29*63$GLGSV,3,2,10,78,23,031,,80,19,281,,88,18,062,,82,07,162,*67$GLGSV,3,3,10,70,06,332,22,67,05,167,*63$GNRMC,022453.000,A,2257.0625,N,11353.8209,E,0.23,150.21,100517,,,A*73$GNVTG,150.21,T,,M,0.23,N,0.42,K,A*23$GNGGA,022454.000,2257.0627,N,11353.8208,E,1,9,1.04,-23.4,M,-3.6,M,,*4D1494411876 113.897013 22.951045 -23.-40 1.04 0.86 12 38 37 33 30
speed:0.000000, dis=0.000000
$GPGSA,A,3,26,14,16,22,32,03,23,31,,,,,1.35,1.04,0.86*09$GLGSA,A,3,79,,,,,,,,,,,,1.35,1.04,0.86*1C$GPGSV,3,1,12,26,72,337,44,14,61,117,31,16,61,251,36,41,46,236,*7A$GPGSV,3,2,12,31,43,036,21,32,38,134,37,22,33,260,27,193,25,170,29*40$GPGSV,3,3,12,03,24,290,35,27,22,182,32,29,17,050,,23,09,320,26*78$GLGSV,3,1,10,69,52,296,32,68,50,199,33,79,39,348,36,81,24,115,29*67$GLGSV,3,2,10,78,23,031,,80,19,281,,88,18,062,,82,07,162,*67$GLGSV,3,3,10,70,06,332,21,67,05,167,*60$GNRMC,022454.000,A,2257.0627,N,11353.8208,E,0.35,150.21,100517,,,A*70$GNVTG,150.21,T,,M,0.35,N,0.65,K,A*21$GNGGA,022455.000,2257.0626,N,11353.8209,E,1,9,1.04,-23.2,M,-3.6,M,,*4A1494411877 113.897015 22.951043 -23.-20 1.04 0.86 12 44 37 36 35
speed:0.000000, dis=0.000000
$GPGSA,A,3,26,14,16,22,32,03,23,31,,,,,1.35,1.04,0.86*09$GLGSA,A,3,79,,,,,,,,,,,,1.35,1.04,0.86*1C$GPGSV,3,1,12,26,72,337,44,14,61,117,31,16,61,251,36,41,46,236,34*7D$GPGSV,3,2,12,31,43,036,21,32,38,134,36,22,33,260,26,193,25,170,32*4A$GPGSV,3,3,12,03,24,290,36,27,22,182,31,29,17,050,,23,09,320,25*7B$GLGSV,3,1,10,69,52,296,33,68,50,199,33,79,39,348,37,81,24,115,30*6F$GLGSV,3,2,10,78,23,031,,80,19,281,23,88,18,062,,82,07,162,*66$GLGSV,3,3,10,70,06,332,20,67,05,167,*61$GNRMC,022455.000,A,2257.0626,N,11353.8209,E,0.06,150.21,100517,,,A*71$GNVTG,150.1,T,,M$GNGGA,022456.000,2257.0626,N,11353.8208,E,1,9,1.04,-23.2,M,-3.6,M,,*481494411878 113.897013 22.951043 -23.-20 1.04 0.86 12 44 36 36 36
speed:0.000000, dis=0.000000
$GPGSA,A,3,26,14,16,22,32,03,23,31,,,,,1.35,1.04,0.86*09$GLGSA,A,3,79,,,,,,,,,,,,1.35,1.04,0.86*1C$GPGSV,3,1,12,26,72,337,44,14,61,117,31,16,61,251,35,41,46,236,33*79$GPGSV,3,2,12,31,43,036,19,32,38,134,34,22,33,260,26,193,25,170,31*40$GPGSV,3,3,12,03,24,290,36,27,22,182,28,29,17,050,,23,09,320,24*72$GLGSV,3,1,10,69,52,296,33,68,50,199,33,79,39,348,37,81,24,115,31*6E$GLGSV,3,2,10,78,23,031,,80,19,281,25,88,18,062,,82,07,162,*60$GLGSV,3,3,10,70,06,332,20,67,05,167,*61$GNRMC,022456.000,A,2257.0626,N,11353.8208,E,0.05,150.21,100517,,,A*70$GNVTG,150.21,T,,M,0.05,N,0.10,K,A*20$GNGGA,022457.000,2257.0626,N,11353.8208,E,1,9,1.04,-23.2,M,-3.6,M,,*491494411879 113.897013 22.951043 -23.-20 1.04 0.86 12 44 36 35 34
speed:0.000000, dis=0.000000
$GPGSA,A,3,26,14,16,22,32,03,23,31,,,,,1.35,1.04,0.86*09$GLGSA,A,3,79,,,,,,,,,,,,1.35,1.04,0.86*1C$GPGSV,3,1,12,26,72,337,44,14,61,117,31,16,61,251,33,41,46,236,31*7D$GPGSV,3,2,12,31,43,036,20,32,38,134,34,22,33,260,28,193,25,170,24*40$GPGSV,3,3,12,03,24,290,36,27,22,182,23,29,17,050,,23,09,320,25*78$GLGSV,3,1,10,69,52,296,33,68,50,199,32,79,39,348,35,81,24,115,32*6E$GLGSV,3,2,10,78,23,031,,80,19,281,26,88,18,062,,82,07,162,*63$GLGSV,3,3,10,70,06,332,21,67,05,167,23*61$GNRMC,022457.000,A,2257.0626,N,11353.8208,E,0.08,150.21,100517,,,A*7C$GNVTG,150.21,T,,M,0.08,N,0.14,K,A*29$GNGGA,022458.000,2257.0626,N,11353.8208,E,1,9,1.04,-23.1,M,-3.6,M,,*451494411880 113.897013 22.951043 -23.-10 1.04 0.86 12 44 36 34 33
speed:0.000000, dis=0.000000
$GPGSA,A,3,26,14,16,22,32,03,23,31,,,,,1.35,1.04,0.86*09$GLGSA,A,3,79,,,,,,,,,,,,1.35,1.04,0.86*1C$GPGSV,3,1,12,26,72,337,42,14,61,117,30,16,61,251,20,41,46,236,30*79$GPGSV,3,2,12,31,43,036,16,32,38,134,33,22,33,260,30,193,25,170,23*4C$GPGSV,3,3,12,03,24,290,36,27,22,182,18,29,17,050,,23,09,320,32*76$GLGSV,3,1,10,69,52,296,32,68,50,199,31,79,39,348,33,81,24,115,18*62$GLGSV,3,2,10,78,23,031,,80,19,281,21,88,18,062,,82,07,162,*64$GLGSV,3,3,10,70,06,332,23,67,05,167,23*63$GNRMC,022458.000,A,2257.0626,N,11353.8208,E,0.20,150.21,100517,,,A*79$GNVTG,150.21,T,,M,0.20,N,0.37,K,A*22$GNGGA,022459.000,2257.0626,N,11353.8209,E,1,9,1.04,-23.1,M,-3.6,M,,*451494411881 113.897015 22.951043 -23.-10 1.04 0.86 12 42 36 33 32
speed:0.000000, dis=0.000000
$GPGSA,A,3,26,14,16,22,32,03,23,31,,,,,1.35,1.04,0.86*09$GLGSA,A,3,79,,,,,,,,,,,,1.35,1.04,0.86*1C$GPGSV,3,1,12,26,72,337,42,14,61,117,30,16,61,251,21,41,46,236,30*78$GPGSV,3,2,12,31,43,036,14,32,38,134,32,22,33,260,30,193,25,170,22*4E$GPGSV,3,3,12,03,24,290,37,27,22,182,14,29,17,050,,23,09,320,32*7B$GLGSV,3,1,10,69,52,296,32,68,50,199,32,79,39,348,33,81,24,115,*68$GLGSV,3,2,10,78,23,031,,80,19,281,22,88,18,062,,82,07,162,*67$GLGSV,3,3,10,70,06,332,24,67,04,167,22*64$GNRMC,022459.000,A,2257.0626,N,11353.8209,E,0.38,150.21,100517,,,A*70$GNVTG,150.21,T,,M,0.38,N,0.70,K,A*28$GNGGA,022500.000,2257.0626,N,11353.8210,E,1,8,1.21,-23.1,M,-3.6,M,,*461494411882 113.897016 22.951043 -23.-10 1.21 0.86 12 42 37 32 32
speed:0.000000, dis=0.000000
$GPGSA,A,3,26,14,16,22,32,03,23,,,,,,1.49,1.21,0.86*07$GLGSA,A,3,79,,,,,,,,,,,,1.49,1.21,0.86*10$GPGSV,3,1,12,26,72,337,42,14,61,117,31,16,61,251,31,41,46,236,30*78$GPGSV,3,2,12,31,43,036,11,32,38,134,32,22,33,260,31,193,25,170,21*49$GPGSV,3,3,12,03,24,290,37,27,22,182,11,29,17,050,,23,09,320,32*7E$GLGSV,3,1,10,69,52,296,33,68,50,199,31,79,39,348,33,81,24,115,30*69$GLGSV,3,2,10,78,23,031,,80,19,281,23,88,18,062,,82,07,162,*66$GLGSV,3,3,10,70,06,332,25,67,04,167,23*64$GNRMC,022500.000,A,2257.0626,N,11353.8210,E,0.24,150.21,100517,,,A*78$GNVTG,150.21,T,,M,0.24,N,0.44,K,A*22$GNGGA,022501.000,2257.0626,N,11353.8210,E,1,8,1.21,-23.1,M,-3.6,M,,*471494411883 113.897016 22.951043 -23.-10 1.21 0.86 12 42 37 32 32
speed:0.000000, dis=0.000000
$GPGSA,A,3,26,14,16,22,32,03,23,,,,,,1.49,1.21,0.86*07$GLGSA,A,3,79,,,,,,,,,,,,1.49,1.21,0.86*10$GPGSV,3,1,12,26,72,337,42,14,61,117,35,16,61,251,32,41,46,236,30*7F$GPGSV,3,2,12,31,43,036,13,32,38,134,32,22,33,260,31,193,25,170,19*40$GPGSV,3,3,12,03,24,290,38,27,22,182,,29,17,050,,23,09,320,32*71$GLGSV,3,1,10,69,53,295,33,68,50,199,30,79,39,348,33,81,24,115,34*6E$GLGSV,3,2,10,78,23,031,,80,19,281,24,88,18,062,,82,07,162,*61$GLGSV,3,3,10,70,06,332,26,67,04,167,20*64$GNRMC,022501.000,A,2257.0626,N,11353.8210,E,0.06,150.21,100517,,,A*79$GNVTG,150.21,T,,M,0.06,N,0.11,K,A*22$GNGGA,022502.000,2257.0626,N,11353.8209,E,1,8,1.21,-23.1,M,-3.6,M,,*4C1494411884 113.897015 22.951043 -23.-10 1.21 0.86 12 42 38 35 32
speed:0.000000, dis=0.000000
$GPGSA,A,3,26,14,16,22,32,03,23,,,,,,1.49,1.21,0.86*07$GLGSA,A,3,79,,,,,,,,,,,,1.49,1.21,0.86*10$GPGSV,3,1,12,26,72,337,41,14,61,117,33,16,61,251,23,41,46,236,29*72$GPGSV,3,2,12,31,43,036,,32,38,134,32,22,33,260,32,193,25,170,18*40$GPGSV,3,3,12,03,24,290,37,27,22,182,,29,17,050,,23,09,320,32*7E$GLGSV,3,1,10,69,53,295,32,68,50,199,30,79,39,348,25,81,24,115,29*64$GLGSV,3,2,10,78,23,031,,80,19,281,24,88,18,062,,82,07,162,*61$GLGSVNVTG,150.21,T,,M,0.09,N,0.17,K,A*2B$GNGGA,022503.000,2257.0627,N,11353.8210,E,1,8,1.21,-23.0,M,-3.6,M,,*451494411885 113.897016 22.951045 -23.00 1.21 0.86 12 41 37 33 32
speed:0.000000, dis=0.000000
$GPGSA,A,3,26,14,16,22,32,03,23,,,,,,1.49,1.21,0.86*07$GLGSA,A,3,79,,,,,,,,,,,,1.49,1.21,0.86*10$GPGSV,3,1,12,26,72,337,40,14,61,117,32,16,61,251,21,41,46,236,29*70$GPGSV,3,2,12,31,43,036,,32,38,134,31,22,33,260,33,193,25,170,18*42$GPGSV,3,3,12,03,24,290,37,27,22,182,,29,17,050,,23,09,320,32*7E$GLGSV,3,1,10,69,53,295,31,68,50,199,30,79,39,348,24,81,24,115,29*66$GLGSV,3,2,10,78,23,031,,80,19,281,23,88,18,062,,82,07,162,18*6F$GLGSV,3,3,10,70,06,332,27,67,04,167,19*6F$GNRMC,022503.000,A,2257.0627,N,11353.8210,E,0.41,150.21,100517,,,A*79$GNVTG,150.21,T,,M,0.41,N,0.76,K,A*20$GNGGA,022504.000,2257.0626,N,11353.8210,E,1,8,1.21,-23.0,M,-3.6,M,,*431494411886 113.897016 22.951043 -23.00 1.21 0.86 12 40 37 33 32
speed:0.000000, dis=0.000000
$GPGSA,A,3,26,14,16,22,32,03,23,,,,,,1.49,1.21,0.86*07$GLGSA,A,3,79,,,,,,,,,,,,1.49,1.21,0.86*10$GPGSV,3,1,12,26,72,337,40,14,61,117,32,16,61,251,20,41,46,236,29*71$GPGSV,3,2,12,31,43,036,,32,38,134,31,22,33,260,34,193,25,170,18*45$GPGSV,3,3,12,03,24,290,37,27,22,182,19,29,17,050,,23,09,320,32*76$GLGSV,3,1,10,69,53,295,30,68,50,199,30,79,39,348,24,81,24,115,22*6C$GLGSV,3,2,10,78,23,031,,80,19,281,23,88,18,062,,82,07,162,17*60$GLGSV,3,3,10,70,06,332,26,67,04,167,18*6F$GNRMC,022504.000,A,2257.0626,N,11353.8210,E,0.13,150.21,100517,,,A*78$GNVTG,150.21,T,,M,0.13,N,0.23,K,A*27$GNGGA,022505.000,2257.0627,N,11353.8210,E,1,8,1.21,-23.0,M,-3.6,M,,*431494411887 113.897016 22.951045 -23.00 1.21 0.86 12 40 37 34 32
speed:0.000000, dis=0.000000
$GPGSA,A,3,26,14,16,22,32,03,23,,,,,,1.49,1.21,0.86*07$GLGSA,A,3,79,,,,,,,,,,,,1.49,1.21,0.86*10$GPGSV,3,1,12,26,72,337,38,14,61,117,32,16,61,251,20,41,46,236,28*7F$GPGSV,3,2,12,31,43,036,,32,38,134,31,22,33,260,34,193,25,170,19*44$GPGSV,3,3,12,03,24,290,38,27,22,182,18,29,17,050,,23,09,320,32*78$GLGSV,3,1,10,69,53,295,31,68,50,199,29,79,39,348,24,81,24,115,22*65$GLGSV,3,2,10,78,23,031,,80,19,281,25,88,18,062,,82,07,162,*60$GLGSV,3,3,10,70,06,332,27,67,04,167,18*6E$GNRMC,022505.000,A,2257.0627,N,11353.8210,E,0.09,150.21,100517,,,A*73$GNVTG,150.21,T,,M,0.09,N,0.16,K,A*2A$GNGGA,022506.000,2257.0626,N,11353.8210,E,1,8,1.21,-23.0,M,-3.6,M,,*411494411888 113.897016 22.951043 -23.00 1.21 0.86 12 38 38 34 32
speed:0.000000, dis=0.000000
