YF_GPS:5:10:11:27
1494415619 0.000000 0.000000 0.00 0.00 0.00 0 0 0 0 0
speed:-1.000000, dis=0.000000
$GPGSA,A,1,,,,,,,,,,,,,,,*1E
$GLGSA,A,1,,,,,,,,,,,,,,,*02
$GPGSV,4,1,13,16,63,326,,27,52,173,,26,49,017,,31,36,072,*71
$GPGSV,4,2,13,14,35,147,,23,32,317,,08,21,197,,03,21,259,*73
$GPGSV,4,3,13,22,20,231,,193,18,167,,32,13,148,,21,06,088,*47
$GPGSV,4,4,13,09,01,323,*41
$GLGSV,3,1,10,69,44,239,,81,37,076,,82,34,142,,79,31,027,*6E
$GLGSV,3,2,10,80,27,317,,70,26,309,,68,17,188,,78,11,062,*66
$GLGSV,3,3,10,88,07,032,,83,01,182,*63
$GNRMC,032717.696,V,,,,,0.00,0.00,100517,,,N*58
$GNVTG,0.00,T,,M,0.00,N,0.00,K,N*2C
$GNGGA,032718.696,,,,,0,0,,,M,,M,,*50
1494415620 0.000000 0.000000 0.00 0.00 0.00 13 0 0 0 0
speed:-1.000000, dis=0.000000
$GPGSA,A,1,,,,,,,,,,,,,,,*1E
$GLGSA,A,1,,,,,,,,,,,,,,,*02
$GPGSV,4,1,13,16,63,326,,27,52,173,37,26,49,017,,31,36,072,*75
$GPGSV,4,2,13,14,35,147,,23,32,317,,08,21,197,,03,21,259,*73
$GPGSV,4,3,13,22,20,231,,193,18,167,,32,13,148,,21,06,088,*47
$GPGSV,4,4,13,09,01,323,*41
$GLGSV,3,1,10,69,44,239,,81,37,076,,82,34,142,31,79,31,027,*6C
$GLGSV,3,2,10,80,27,317,,70,26,309,,68,17,188,26,78,11,062,*62
$GLGSV,3,3,10,88,07,032,,83,01,182,*63
$GNRMC,032718.696,V,,,,,0.10,0.00,100517,,,N*56
$GNVTG,0.00,T,,M,0.10,N,0.19,K,N*25
$GNGGA,032719.694,2257.0798,N,11353.8119,E,1,9,1.29,24.3,M,-3.6,M,,*69
1494415621 113.896865 22.951330 24.30 1.29 0.00 13 37 0 0 0
speed:-1.000000, dis=0.000000
$GPGSA,A,3,16,27,14,23,03,193,32,,,,,,1.57,1.29,0.89*35
$GLGSA,A,3,82,68,,,,,,,,,,,1.57,1.29,0.89*12
$GPGSV,4,1,13,16,63,326,35,27,52,173,35,26,49,017,,31,36,072,*71
$GPGSV,4,2,13,14,35,147,28,23,32,317,25,08,21,197,22,03,21,259,23*7F
$GPGSV,4,3,13,22,20,231,,193,18,167,26,32,13,148,35,21,06,088,*45
$GPGSV,4,4,13,09,01,323,*41
$GLGSV,3,1,10,69,44,239,,81,37,076,,82,34,142,33,79,31,027,*6E
$GLGSV,3,2,10,80,27,317,,70,26,309,,68,17,188,31,78,11,062,*64
$GLGSV,3,3,10,88,07,032,,83,01,182,*63
$GNRMC,032719.694,A,2257.0798,N,11353.8119,E,4.59,263.40,100517,,,A*7C
$GNVTG,263.40,T,,M,4.59,N,8.50,K,A*25
$GNGGA,032720.692,2257.0782,N,11353.8117,E,1,10,1.17,24.2,M,-3.6,M,,*54
1494415622 113.896861 22.951303 24.20 1.17 0.89 13 35 35 35 28
speed:0.000000, dis=0.000000
$GPGSA,A,3,16,27,14,23,08,03,193,32,,,,,1.47,1.17,0.89*31
$GLGSA,A,3,82,68,,,,,,,,,,,1.47,1.17,0.89*1E
$GPGSV,4,1,13,16,63,326,34,27,52,173,29,26,49,017,,31,36,072,*7D
$GPGSV,4,2,13,14,35,147,24,23,32,317,29,08,21,197,25,03,21,259,19*71
$GPGSV,4,3,13,22,20,231,,193,18,167,22,32,13,148,35,21,06,088,*41
$GPGSV,4,4,13,09,01,323,*41
$GLGSV,3,1,10,69,44,239,,81,37,076,,82,34,142,30,79,31,027,*6D
$GLGSV,3,2,10,80,27,317,,70,26,309,,68,17,188,29,78,11,062,*6D
$GLGSV,3,3,10,88,07,032,,83,01,182,*63
$GNRMC,032720.692,A,2257.0782,N,11353.8117,E,3.72,262.54,100517,,,A*7F
$GNVTG,262.54,T,,M,3.72,N,6.90,K,A*2D
$GNGGA,032721.692,2257.0779,N,11353.8098,E,1,10,1.17,24.3,M,-3.6,M,,*56
1494415623 113.896830 22.951298 24.30 1.17 0.89 13 35 34 29 29
speed:0.000000, dis=0.000000
$GPGSA,A,3,16,27,14,23,08,03,193,32,,,,,1.47,1.17,0.89*31
$GLGSA,A,3,82,68,,,,,,,,,,,1.47,1.17,0.89*1E
$GPGSV,4,1,13,16,63,326,34,27,52,173,31,26,49,017,,31,36,072,*74
$GPGSV,4,2,13,14,35,147,31,23,32,317,26,08,21,197,24,03,21,259,24*75
$GPGSV,4,3,13,22,20,231,,193,18,167,27,32,13,148,33,21,06,088,*42
$GPGSV,4,4,13,09,01,323,*41
$GLGSV,3,1,10,69,44,239,,81,37,076,,82,34,142,27,79,31,027,*6B
$GLGSV,3,2,10,80,27,317,,70,26,309,,68,17,188,22,78,11,062,*66
$GLGSV,3,3,10,88,07,032,,83,01,182,*63
$GNRMC,032721.692,A,2257.0779,N,11353.8098,E,3.52,256.59,100517,,,A*74
$GNVTG,256.59,T,,M,3.52,N,6.52,K,A*2B
$GNGGA,032722.695,2257.0796,N,11353.8164,E,1,10,1.17,24.3,M,-3.6,M,,*51
1494415624 113.896940 22.951326 24.30 1.17 0.89 13 34 33 31 31
speed:0.000000, dis=0.000000
$GPGSA,A,3,16,27,14,23,08,03,193,32,,,,,1.47,1.17,0.89*31
$GLGSA,A,3,82,68,,,,,,,,,,,1.47,1.17,0.89*1E
$GPGSV,4,1,13,16,63,326,32,27,52,173,38,26,49,017,,31,36,072,*7B
$GPGSV,4,2,13,14,35,147,36,23,32,317,29,08,21,197,20,03,21,259,31*7D
$GPGSV,4,3,13,22,20,231,,193,18,167,24,32,13,148,33,21,06,088,*41
$GPGSV,4,4,13,09,01,323,*41
$GLGSV,3,1,10,69,44,239,,81,37,076,,82,34,142,31,79,31,027,*6C
$GLGSV,3,2,10,80,27,317,,70,26,309,,68,17,188,20,78,11,062,*64
$GLGSV,3,3,10,88,07,032,,83,01,182,*63
$GNRMC,032722.695,A,2257.0796,N,11353.8164,E,3.02,253.98,100517,,,A*7E
$GNVTG,253.98,T,,M,3.02,N,5.60,K,A*24
$GNGGA,032723.698,2257.0798,N,11353.8185,E,1,11,1.05,24.3,M,-3.6,M,,*5E
1494415625 113.896975 22.951330 24.30 1.05 0.89 13 38 36 33 32
speed:0.000000, dis=0.000000
$GPGSA,A,3,16,27,22,14,23,08,03,193,32,,,,1.38,1.05,0.89*3A
$GLGSA,A,3,82,68,,,,,,,,,,,1.38,1.05,0.89*15
$GPGSV,4,1,13,16,63,326,34,27,52,173,35,26,49,017,,31,36,072,*70
$GPGSV,4,2,13,14,35,147,33,23,32,317,29,08,21,197,21,03,21,259,27*7E
$GPGSV,4,3,13,22,20,231,19,193,18,167,25,32,13,148,32,21,06,088,*49
$GPGSV,4,4,13,09,01,323,*41
$GLGSV,3,1,10,69,44,239,,81,37,076,,82,34,142,29,79,31,027,*65
$GLGSV,3,2,10,80,27,317,,70,26,309,,68,17,188,20,78,11,062,*64
$GLGSV,3,3,10,88,07,032,,83,01,182,*63
$GNGGA,032724.699,2257.0800,N,11353.8203,E,1,11,0.85,24.3,M,-3.6,M,,*52
1494415626 113.897005 22.951333 24.30 0.85 0.89 13 35 34 33 32
speed:0.000000, dis=0.000000
$GPGSA,A,3,16,27,14,23,08,03,193,26,,,,,1.24,0.85,0.90*33
$GLGSA,A,3,81,82,68,,,,,,,,,,1.24,0.85,0.90*10
$GPGSV,4,1,14,16,63,326,34,27,52,173,35,26,49,017,16,41,46,236,*72
$GPGSV,4,2,14,31,36,072,,14,35,147,33,23,32,317,28,08,21,197,22*72
$GPGSV,4,3,14,03,21,259,25,22,20,231,,193,18,167,23,32,13,148,32*4C
$GPGSV,4,4,14,21,06,088,,09,01,323,*73
$GLGSV,3,1,10,69,44,239,,81,37,076,17,82,34,142,28,79,31,027,*62
$GLGSV,3,2,10,80,27,317,,70,26,309,,68,17,188,20,78,11,062,*64
$GLGSV,3,3,10,88,07,032,,83,01,182,*63
$GNRMC,032724.699,A,2257.0800,N,11353.8203,E,1.56,251.88,100517,,,A*76
$GNVTG,251.88,T,,M,1.56,N,2.89,$GNGGA,032725.700,2257.0805,N,11353.8213,E,1,12,0.84,24.2,M,-3.6,M,,*55
1494415627 113.897021 22.951341 24.20 0.84 0.90 14 35 34 33 32
speed:0.000000, dis=0.000000
$GPGSA,A,3,16,27,22,14,23,08,03,193,32,,,,1.22,0.84,0.88*38
$GLGSA,A,3,81,82,68,,,,,,,,,,1.22,0.84,0.88*1E
$GPGSV,4,1,14,16,63,326,33,27,52,173,36,26,49,017,,41,46,236,*71
$GPGSV,4,2,14,31,36,072,,14,35,147,34,23,32,317,27,08,21,197,23*7B
$GPGSV,4,3,14,03,21,259,26,22,20,231,19,193,18,167,28,32,13,148,31*4F
$GPGSV,4,4,14,21,06,088,,09,01,323,*73
$GLGSV,3,1,10,69,44,239,,81,37,076,21,82,34,142,29,79,31,027,*66
$GLGSV,3,2,10,80,27,317,,70,26,309,,68,17,188,20,78,11,062,*64
$GLGSV,3,3,10,88,07,032,,83,01,182,*63
$GNRMC,032725.700,A,2257.0805,N,11353.8213,E,1.03,261.02D
$GNGGA,032726.700,2257.0809,N,11353.8221,E,1,12,0.84,24.1,M,-3.6,M,,*58
1494415628 113.897035 22.951348 24.10 0.84 0.88 14 36 34 33 31
speed:0.000000, dis=0.000000
$GPGSA,A,3,16,27,22,14,23,08,03,193,32,,,,1.22,0.84,0.88*38
$GLGSA,A,3,81,82,68,,,,,,,,,,1.22,0.84,0.88*1E
$GPGSV,4,1,14,16,63,326,33,27,52,173,36,26,49,017,,41,46,236,*71
$GPGSV,4,2,14,31,36,072,,14,35,147,34,23,32,317,28,08,21,197,22*75
$GPGSV,4,3,14,03,21,259,27,22,20,231,20,193,18,167,29,32,13,148,30*44
$GPGSV,4,4,14,21,06,088,,09,01,323,*73
$GLGSV,3,1,10,69,44,239,,81,37,076,21,82,34,142,30,79,31,027,*6E
$GLGSV,3,2,10,80,27,317,,70,26,309,,68,17,188,20,78,11,062,*64
$GLGSV,3,3,10,88,07,032,,83,01,182,*63
$GNRMC,032726.700,A,2257.0809,N,11353.8221,E,0.70,277.60,100517,,,A*7B
$GNVTG,277.60,T,,M,0.70,N,1.30,$GNGGA,032727.701,2257.0811,N,11353.8222,E,1,13,0.79,24.0,M,-3.6,M,,*50
1494415629 113.897036 22.951351 24.00 0.79 0.88 14 36 34 33 30
speed:0.000000, dis=0.000000
$GPGSA,A,3,16,27,22,14,23,08,03,193,32,,,,1.18,0.79,0.87*3C
$GLGSA,A,3,80,81,82,68,,,,,,,,,1.18,0.79,0.87*12
$GPGSV,4,1,14,16,63,326,33,27,52,173,36,26,49,017,,41,46,236,*71
$GPGSV,4,2,14,31,36,072,,14,35,147,34,23,32,317,29,08,21,197,21*77
$GPGSV,4,3,14,03,21,259,27,22,20,231,20,193,18,167,29,32,13,148,30*44
$GPGSV,4,4,14,21,06,088,,09,01,323,*73
$GLGSV,3,1,10,69,44,239,,81,37,076,20,82,34,142,30,79,31,027,*6F
$GLGSV,3,2,10,80,27,317,18,70,26,309,,68,17,188,20,78,11,062,*6D
$GLGSV,3,3,10,88,07,032,,83,01,182,*63
$GNRMC,032727.701,A,2257.0811,N,11353.8222,E,0.68,286.10,100517,,,A*71
$GNVTG,286.10,T,,M,0.68,N,1.2$GNGGA,032728.702,2257.0816,N,11353.8235,E,1,13,0.79,23.9,M,-3.6,M,,*53
1494415630 113.897058 22.951360 23.90 0.79 0.87 14 36 34 33 30
speed:0.000000, dis=0.000000
$GPGSA,A,3,16,27,22,14,23,08,03,193,32,,,,1.18,0.79,0.87*3C
$GLGSA,A,3,80,81,82,68,,,,,,,,,1.18,0.79,0.87*12
$GPGSV,4,1,14,16,63,326,34,27,52,173,29,26,49,017,,41,46,236,*78
$GPGSV,4,2,14,31,36,072,,14,35,147,32,23,32,317,30,08,21,197,22*7A
$GPGSV,4,3,14,03,21,259,29,22,20,231,17,193,18,167,29,32,13,148,29*46
$GPGSV,4,4,14,21,06,088,,09,01,323,*73
$GLGSV,3,1,10,69,44,239,,81,37,076,18,82,34,142,28,79,31,027,*6D
$GLGSV,3,2,10,80,27,317,26,70,26,309,,68,17,188,20,78,11,062,*60
$GLGSV,3,3,10,88,07,032,,83,01,182,*63
$GNRMC,032728.702,A,2257.0816,N,11353.8235,E,0.43,2K,A*27
$GNGGA,032729.703,2257.0816,N,11353.8245,E,1,12,0.98,23.9,M,-3.6,M,,*5A
1494415631 113.897075 22.951360 23.90 0.98 0.87 14 34 32 30 29
speed:0.000000, dis=0.000000
$GPGSA,A,3,16,27,22,14,23,08,03,193,32,,,,1.31,0.98,0.88*37
$GLGSA,A,3,80,82,68,,,,,,,,,,1.31,0.98,0.88*10
$GPGSV,4,1,14,16,63,326,35,27,52,173,29,26,49,017,,41,46,236,*79
$GPGSV,4,2,14,31,36,072,,14,35,147,31,23,32,317,31,08,21,197,24*7E
$GPGSV,4,3,14,03,21,259,29,22,20,231,17,193,18,167,28,32,13,148,29*47
$GPGSV,4,4,14,21,06,088,,09,01,323,*73
$GLGSV,3,1,10,69,44,239,,81,37,076,,82,34,142,29,79,31,027,*65
$GLGSV,3,2,10,80,27,317,25,70,26,309,,68,17,188,20,78,11,062,*63
$GLGSV,3,3,10,88,07,032,,83,01,182,*63
$GNRMC,032729.703,A,2257.0816,N,11353.8245,E,0.32,286.10,100517,,,A*74
$GNVTG,286.10,T,,M,0.32,N,0.59,$GNGGA,032730.703,2257.0818,N,11353.8252,E,1,12,0.98,23.9,M,-3.6,M,,*5A
1494415632 113.897086 22.951363 23.90 0.98 0.88 14 35 31 31 29
speed:0.000000, dis=0.000000
$GPGSA,A,3,16,27,22,14,23,08,03,193,32,,,,1.31,0.98,0.87*38
$GLGSA,A,3,80,82,68,,,,,,,,,,1.31,0.98,0.87*1F
$GPGSV,4,1,14,16,63,326,35,27,52,173,29,26,49,017,,41,46,236,*79
$GPGSV,4,2,14,31,36,072,,14,35,147,31,23,32,317,32,08,21,197,25*7C
$GPGSV,4,3,14,03,21,259,30,22,20,231,17,193,18,167,28,32,13,148,28*4E
$GPGSV,4,4,14,21,06,088,,09,01,323,*73
$GLGSV,3,1,10,69,44,239,,81,37,076,,82,34,142,30,79,31,027,*VTG,286.10,T,,M,0.31,N,0.58,K,A*21
$GNGGA,032731.696,2257.0816,N,11353.8239,E,1,12,0.98,24.0,M,-3.6,M,,*5B
1494415633 113.897065 22.951360 24.00 0.98 0.87 14 35 32 31 30
speed:0.000000, dis=0.000000
$GPGSA,A,3,16,27,22,14,23,08,03,193,32,,,,1.31,0.98,0.87*38
$GLGSA,A,3,80,82,68,,,,,,,,,,1.31,0.98,0.87*1F
$GPGSV,4,1,14,16,63,326,36,27,52,173,29,26,49,017,,41,46,236,*7A
$GPGSV,4,2,14,31,36,072,,14,35,147,30,23,32,317,33,08,21,197,26*7F
$GPGSV,4,3,14,03,21,259,30,22,20,231,17,193,18,167,28,32,13,148,27*41
$GPGSV,4,4,14,21,06,088,,09,01,323,*73
$GLGSV,3,1,10,69,44,239,,81,37,076,,82,34,142,30,79,31,027,*6D
$GLGSV,3,2,10,80,27,317,25,$GNGGA,032733.000,2257.0817,N,11353.8243,E,1,12,0.98,24.0,M,-3.6,M,,*5C
1494415635 113.897071 22.951361 24.00 0.98 0.87 14 36 33 30 30
speed:0.000000, dis=0.000000
$GPGSA,A,3,16,27,22,14,23,08,03,193,32,,,,1.31,0.98,0.88*37
$GLGSA,A,3,80,82,68,,,,,,,,,,1.31,0.98,0.88*10
$GPGSV,4,1,14,16,63,326,36,27,52,173,30,26,49,017,,41,46,236,*72
$GPGSV,4,2,14,31,36,072,,14,35,147,30,23,32,317,33,08,21,197,26*7F
$GPGSV,4,3,14,03,21,259,31,22,20,231,17,193,18,167,27,32,13,148,27*4F
$GPGSV,4,4,14,21,06,088,,09,01,323,*73
$GLGSV,3,1,10,69,44,239,,81,37,076,,82,34,142,29,79,31,027,*65
$GLGSV,3,2,10,80,27,317,25,70,26,309,22,68,17,188,20,78,11,062,*63
$GLGSV,3,3,10,88,07,032,,83,01,182,*63
$GNRMC,032733.000,A,2257.0817,N,11353.8243,E,0.26,286.10,100517,,,A*79
$GNVTG,286.10,T,,M,0.26,N,0.4$GNGGA,032734.000,2257.0817,N,11353.8247,E,1,12,0.98,24.0,M,-3.6,M,,*5F
1494415636 113.897078 22.951361 24.00 0.98 0.88 14 36 33 31 30
speed:0.000000, dis=0.000000
$GPGSA,A,3,16,27,22,14,23,08,03,193,32,,,,1.31,0.98,0.87*38
$GLGSA,A,3,80,82,68,,,,,,,,,,1.31,0.98,0.87*1F
$GPGSV,4,1,14,16,63,326,36,27,52,173,30,26,49,017,,50,46,122,*74
$GPGSV,4,2,14,31,36,072,,14,35,147,31,23,32,317,33,08,21,197,26*7E
$GPGSV,4,3,14,03,21,259,31,22,20,231,17,193,18,167,25,32,13,148,27*4D
$GPGSV,4,4,14,21,06,088,,09,01,323,*73
$GLGSV,3,1,10,69,44,239,,81,37,076,,82,34,142,28,79,31,027,*64
$GLGSV,3,2,10,80,27,317,24,70,26,309,25,68,17,188,21,78,11,062,*64
$GLGSV,3,3,10,88,07,032,,83,01,182,*63
$GNRMC,032734.000,A,2257.0817,N,11353.8247,E,0.35,286A*2B
$GNGGA,032735.000,2257.0817,N,11353.8246,E,1,12,0.98,24.0,M,-3.6,M,,*5F
1494415637 113.897076 22.951361 24.00 0.98 0.87 14 36 33 31 31
speed:0.000000, dis=0.000000
$GPGSA,A,3,16,27,22,14,23,08,03,193,32,,,,1.31,0.98,0.88*37
$GLGSA,A,3,80,82,68,,,,,,,,,,1.31,0.98,0.88*10
$GPGSV,4,1,14,16,63,326,36,27,52,173,30,26,49,017,,50,46,122,*74
$GPGSV,4,2,14,31,36,072,,14,35,147,31,23,32,317,33,08,21,197,25*7D
$GPGSV,4,3,14,03,21,259,30,22,20,231,17,193,18,167,24,32,13,148,27*4D
$GPGSV,4,4,14,21,06,088,,09,01,323,*73
$GLGSV,3,1,10,69,44,239,,81,37,076,,82,34,142,21,79,31,027,*6D
$GLGSV,3,2,10,80,27,317,23,70,26,309,23,68,17,188,21,78,11,062,*65
$GLGSV,3,3,10,88,07,032,,83,01,182,*63
$GNRMC,032735.000,A,2257.0817,N,11353.8246,E,0.27,286.10,100517,,,A*7B
$GNVTG,286.10,T,,M,0.27,N,0.5$GNGGA,032736.000,2257.0817,N,11353.8248,E,1,13,0.78,24.0,M,-3.6,M,,*5D
1494415638 113.897080 22.951361 24.00 0.78 0.88 14 36 33 31 30
speed:0.000000, dis=0.000000
$GPGSA,A,3,16,27,22,14,23,08,03,193,32,31,,,1.17,0.78,0.87*30
$GLGSA,A,3,80,82,68,,,,,,,,,,1.17,0.78,0.87*15
$GPGSV,4,1,14,16,63,326,36,27,52,173,30,26,49,017,,50,46,122,*74
$GPGSV,4,2,14,31,36,072,17,14,35,147,31,23,32,317,34,08,21,197,19*73
$GPGSV,4,3,14,03,21,259,29,22,20,231,18,193,18,167,24,32,13,148,26*4B
$GPGSV,4,4,14,21,06,088,,09,01,323,*73
$GLGSV,3,1,10,69,44,239,,81,37,076,,82,34,142,28,79,31,027,*64
$GLGSV,3,2,10,80,27,317,22,70,26,309,23,68,17,188,21,78,11,062,*64
$GLGSV,3,3,10,88,07,032,,83,01,182,*63
$GNRMC,032736.000,A,2257.0817,N,11353.8248,E,.25,286,K,A*2B
$GNGGA,032737.000,2257.0818,N,11353.8251,E,1,13,0.78,24.1,M,-3.6,M,,*5A
1494415639 113.897085 22.951363 24.10 0.78 0.87 14 36 34 31 30
speed:0.000000, dis=0.000000
$GPGSA,A,3,16,27,22,14,23,08,03,193,32,31,,,1.17,0.78,0.87*30
$GLGSA,A,3,80,82,68,,,,,,,,,,1.17,0.78,0.87*15
$GPGSV,4,1,14,16,63,326,36,27,52,173,31,26,49,017,,50,46,122,*75
$GPGSV,4,2,14,31,36,072,18,14,35,147,32,23,32,317,33,08,21,197,20*72
$GPGSV,4,3,14,03,21,259,29,22,20,231,20,193,18,167,23,32,13,148,27*46
$GPGSV,4,4,14,21,06,088,,09,01,323,*73
$GLGSV,3,1,10,69,44,239,,81,37,076,18,82,34,142,28,79,31,027,*6D
$GLGSV,3,2,10,80,27,317,21,70,26,309,23,68,17,188,22,78,11,062,*64
$GLGSV,3,3,10,88,07,032,,83,01,182,*63
$GNRMC,032737.000,A,2257.0818,N,11353.8251,E,0.20,286.10,100517,,,A*77
$GNVTG,286.10,T,,M,0.20,N
$GNGGA,032738.000,2257.0813,N,11353.8243,E,1,14,0.71,24.1,M,-3.6,M,,*53
1494415640 113.897071 22.951355 24.10 0.71 0.87 14 36 33 32 31
speed:0.000000, dis=0.000000
$GPGSA,A,3,16,27,22,14,23,08,03,193,32,31,,,1.12,0.71,0.87*3C
$GLGSA,A,3,80,82,68,81,,,,,,,,,1.12,0.71,0.87*10
$GPGSV,4,1,14,16,63,326,35,27,52,173,39,26,49,017,,50,46,122,*7E
$GPGSV,4,2,14,31,36,072,20,14,35,147,34,23,32,317,31,08,21,197,30*7C
$GPGSV,4,3,14,03,21,259,28,22,20,231,20,193,18,167,37,32,13,148,38*4C
$GPGSV,4,4,14,21,06,088,,09,01,323,*73
$GLGSV,3,1,10,69,44,239,,81,37,076,18,82,34,142,36,79,31,027,*62
$GLGSV,3,2,10,80,27,317,21,70,26,309,22,68,17,188,32,78,11,062,*64
$GLGSV,3,3,10,88,07,032,$GNGGA,032739.000,2257.0804,N,11353.8227,E,1,14,0.71,24.2,M,-3.6,M,,*55
1494415641 113.897045 22.951340 24.20 0.71 0.87 14 39 38 37 35
speed:0.000000, dis=0.000000
$GPGSA,A,3,16,27,22,14,23,08,03,193,32,31,,,1.12,0.71,0.87*3C
$GLGSA,A,3,80,82,68,81,,,,,,,,,1.12,0.71,0.87*10
$GPGSV,4,1,14,16,63,326,35,27,52,173,38,26,49,017,,50,46,122,*7F
$GPGSV,4,2,14,31,36,072,18,14,35,147,38,23,32,317,29,08,21,197,30*72
$GPGSV,4,3,14,03,21,259,28,22,20,230,21,193,18,167,37,32,13,148,39*4D
$GPGSV,4,4,14,21,06,088,,09,01,323,*73
$GNGGA,032740.000,2257.0797,N,11353.8214,E,1,14,0.71,24.2,M,-3.6,M,,*5E
1494415642 113.897023 22.951328 24.20 0.71 0.87 14 39 38 38 37
speed:0.000000, dis=0.000000
$GPGSA,A,3,16,27,22,14,23,08,03,193,32,31,,,1.12,0.71,0.87*3C
$GLGSA,A,3,80,82,68,81,,,,,,,,,1.12,0.71,0.87*10
$GPGSV,4,1,14,16,63,326,35,27,52,173,37,26,49,017,,50,46,122,*70
$GPGSV,4,2,14,31,36,072,18,14,35,147,38,23,32,317,28,08,21,197,30*73
$GPGSV,4,3,14,03,21,259,30,22,20,230,21,193,18,167,37,32,13,148,40*4A
$GPGSV,4,4,14,21,06,088,,09,01,323,*73
$GLGSV,3,1,10,69,44,239,,81,37,076,21,82,34,142,37,79,31,027,*69
$GLGSV,3,2,10,80,27,317,20,70,26,309,20,68,17,188,32,78,11,062,*67
$GLGSV,3,3,10,88,07,032,,83,01,182,*63
$GNRMC,032740.000,A,2257.0797,N,11353.8214,E,0.0.57,K,A*2E
$GNGGA,032741.000,2257.0788,N,11353.8197,E,1,14,0.71,24.2,M,-3.6,M,,*59
1494415643 113.896995 22.951313 24.20 0.71 0.87 14 40 38 37 37
speed:0.000000, dis=0.000000
$GPGSA,A,3,16,27,22,14,23,08,03,193,32,31,,,1.12,0.71,0.87*3C
$GLGSA,A,3,80,82,68,81,,,,,,,,,1.12,0.71,0.87*10
$GPGSV,4,1,14,16,63,326,35,27,52,173,35,26,49,017,,50,46,122,31*70
$GPGSV,4,2,14,31,36,072,18,14,35,147,38,23,32,317,28,08,21,197,30*73
$GPGSV,4,3,14,03,21,259,31,22,20,230,21,193,18,167,36,32,13,148,40*4A
$GPGSV,4,4,14,21,06,088,20,09,01,323,*71
$GLGSV,3,1,10,69,44,239,,81,37,076,21,82,34,142,38,79,31,027,*66
$GLGSV,3,2,10,80,27,317,21,70,26,309,18,68,17,188,31,78,11,062,*6E
$GLGSV,3,3,10,88,07,032,24,83,01,182,*65
$GNRMC,032741.000,A,2257.0788,N,11353.8197,E,0.47,286.10,100517,,,A*78
$GNVTG,286.10,T,,M,0.47,N,0.88,K,A*2D
$GNGGA,032742.000,2257.0785,N,11353.8190,E,1,14,0.71,24.2,M,-3.6,M,,*50
1494415644 113.896983 22.951308 24.20 0.71 0.87 14 40 38 36 35
speed:0.000000, dis=0.000000
$GPGSA,A,3,16,27,22,14,23,08,03,193,32,31,,,1.12,0.71,0.87*3C
$GLGSA,A,3,80,82,68,81,,,,,,,,,1.12,0.71,0.87*10
$GPGSV,4,1,14,16,63,326,36,27,52,173,24,26,49,017,,50,46,122,30*72
$GPGSV,4,2,14,31,36,072,18,14,35,147,38,23,32,317,30,08,21,197,29*72
$GPGSV,4,3,14,03,21,259,31,22,20,230,21,193,18,167,25,32,13,148,38*47
$GPGSV,4,4,14,21,06,088,19,09,01,323,*7B
$GLGSV,3,1,10,69,44,239,,81,37,076,21,82,34,142,38,79,31,027,*66
$GLGSV,3,2,10,80,27,317,23,70,26,309,19,68,17,188,22,78,11,062,*6F
$GLGSV,3,3,10,88,07,032,19,83,01,182,*6B
$GNRMC,032742.000,A,2257.0785,N,11353.8190,E,0.49,286.10,100517,,,A*7F
$GNVTG,286.10T,,M,0.49,N,0.91,K,A*2B
$GNGGA,032743.000,2257.0784,N,11353.8190,E,1,12,0.71,24.2,M,-3.6,M,,*56
1494415645 113.896983 22.951306 24.20 0.71 0.87 14 38 38 36 31
speed:0.000000, dis=0.000000
$GPGSA,A,3,16,27,14,23,08,03,193,32,,,,,1.12,0.71,0.87*3E
$GLGSA,A,3,80,82,68,81,,,,,,,,,1.12,0.71,0.87*10
$GPGSV,4,1,14,16,63,326,36,27,52,173,25,26,49,017,,50,46,122,28*7A
$GPGSV,4,2,14,31,36,072,17,14,35,147,36,23,32,317,31,08,21,197,28*73
$GPGSV,4,3,14,03,21,259,32,22,20,230,19,193,18,167,24,32,13,148,38*4E
$GPGSV,4,4,14,21,06,088,19,09,01,323,*7B
$GLGSV,3,1,10,69,44,239,,81,37,076,21,82,34,142,37,79,31,027,*69
$GLGSV,3,2,10,80,27,317,24,70,26,309,19,68,17,188,21,78,11,062,*6B
$GLGSV,3,3,10,88,07,032,18,83,01,182,*6A
$GNRMC,032743.000,A,2257.0784,N,11353.8190,E,0.25,286.10,100517,,,A*75
$GNVTG,286.10T,,M,05,N,0.46,K,A*2B
$GNGGA,032744.000,2257.0785,N,11353.8189,E,1,12,0.71,24.2,M,-3.6,M,,*58
1494415646 113.896981 22.951308 24.20 0.71 0.87 14 38 36 36 32
speed:0.000000, dis=0.000000
$GPGSA,A,3,16,27,14,23,08,03,193,32,,,,,1.12,0.71,0.87*3E
$GLGSA,A,3,80,82,68,81,,,,,,,,,1.12,0.71,0.87*10
$GPGSV,4,1,14,16,63,326,36,27,52,173,27,26,49,017,,50,46,122,27*77
$GPGSV,4,2,14,31,36,072,17,14,35,147,37,23,32,317,31,08,21,197,27*7D
$GPGSV,4,3,14,03,21,259,31,22,20,230,20,193,18,167,24,32,13,148,38*47
$GPGSV,4,4,14,21,06,088,18,09,01,323,*7A
$GLGSV,3,1,10,69,44,239,,81,37,076,21,82,34,142,37,79,31,027,*69
$GLGSV,3,2,10,80,27,317,25,70,26,309,19,68,17,188,22,78,11,062,*69
$GLGSV,3,3,10,88,07,032,,83,01,182,*63
$GNRMC,032744.000,A,2257.0785,N,11353.8189,E,0.13,286.10,100517,,,A*7E
$GNVTG,286.10,T,,M,0.,0.24,K,A*2A
$GNGGA,032745.000,2257.0785,N,11353.8189,E,1,12,0.71,24.2,M,-3.6,M,,*59
1494415647 113.896981 22.951308 24.20 0.71 0.87 14 38 37 36 31
speed:0.000000, dis=0.000000
$GPGSA,A,3,16,27,14,23,08,03,193,32,,,,,1.12,0.71,0.87*3E
$GLGSA,A,3,80,82,68,81,,,,,,,,,1.12,0.71,0.87*10
$GPGSV,4,1,14,16,63,326,36,27,52,173,28,26,49,017,,50,46,122,27*78
$GPGSV,4,2,14,31,36,072,17,14,35,147,37,23,32,317,31,08,21,197,26*7C
$GPGSV,4,3,14,03,21,259,30,22,20,230,20,193,18,167,24,32,13,148,38*46
$GPGSV,4,4,14,21,06,088,18,09,01,323,*7A
$GLGSV,3,1,10,69,44,239,,81,37,076,21,82,34,142,37,79,31,027,*69
$GLGSV,3,2,10,80,27,317,26,70,26,309,19,68,17,188,23,78,11,062,*6B
$GLGSV,3,3,10,88,07,032,,83,01,182,*63
$GNRMC,032745.000,A,2257.0785,N,11353.8189,E,0.06,286.10,100517,,,A*7B
$GNVTG,286.10,T,,M,0.,0.11,K,A*28
$GNGGA,032746.000,2257.0784,N,11353.8187,E,1,12,0.98,24.2,M,-3.6,M,,*52
1494415648 113.896978 22.951306 24.20 0.98 0.87 14 38 37 36 31
speed:0.000000, dis=0.000000
$GPGSA,A,3,16,27,22,14,23,08,03,193,32,,,,1.31,0.98,0.87*38
$GLGSA,A,3,80,82,68,,,,,,,,,,1.31,0.98,0.87*1F
$GPGSV,4,1,14,16,63,326,35,27,52,173,29,26,49,018,,50,46,122,28*7A
$GPGSV,4,2,14,31,36,072,,14,35,147,37,23,32,317,32,08,21,197,25*7A
$GPGSV,4,3,14,03,21,259,29,22,20,230,21,193,18,167,32,32,13,148,39*49
$GPGSV,4,4,14,21,06,088,17,09,01,323,*75
$GLGSV,3,1,10,69,44,239,,81,37,076,20,82,34,142,37,79,31,027,*68
$GLGSV,3,2,10,80,27,317,27,70,26,309,19,68,17,188,25,78,11,062,*6C
$GLGSV,3,3,10,88,07,032,,83,01,182,*63
$GNRMC,032746.000,A,2257.0784,N,11353.8187,E,0.07,286.10,100517,,,A*76
$GNVTG,286.10,T,,M,0.07.12,K,A*2A
$GNGGA,032747.000,2257.0784,N,11353.8186,E,1,12,0.98,24.2,M,-3.6,M,,*52
1494415649 113.896976 22.951306 24.20 0.98 0.87 14 39 37 35 32
speed:0.000000, dis=0.000000
$GPGSA,A,3,16,27,22,14,23,08,03,193,32,,,,1.31,0.98,0.87*38
$GLGSA,A,3,80,82,68,,,,,,,,,,1.31,0.98,0.87*1F
$GPGSV,4,1,14,16,63,326,34,27,52,173,30,26,49,018,,50,46,122,28*73
$GPGSV,4,2,14,31,36,072,,14,35,147,37,23,32,317,33,08,21,197,25*7B
$GPGSV,4,3,14,03,21,259,28,22,20,230,21,193,18,167,32,32,13,148,40*46
$GPGSV,4,4,14,21,06,088,17,09,01,323,*75
$GLGSV,3,1,10,69,44,239,,81,37,076,20,82,34,142,37,79,31,027,*68
$GLGSV,3,2,10,80,27,317,28,70,26,309,19,68,17,188,26,78,11,062,*60
$GLGSV,3,3,10,88,07,032,,83,01,182,*63
$GNRMC,032747.000,A,2257.0784,N,11353.8186,E,0.05,286.10,100517,,,A*74
$GNVTG,286.10,T,,M,0.05.09,K,A*22
$GNGGA,032748.000,2257.0780,N,11353.8183,E,1,12,0.98,24.2,M,-3.6,M,,*5C
1494415650 113.896971 22.951300 24.20 0.98 0.87 14 40 37 34 33
speed:0.000000, dis=0.000000
$GPGSA,A,3,16,27,22,14,23,08,03,193,32,,,,1.31,0.98,0.87*38
$GLGSA,A,3,80,82,68,,,,,,,,,,1.31,0.98,0.87*1F
$GPGSV,4,1,14,16,63,326,34,27,52,173,32,26,49,018,,50,46,122,28*71
$GPGSV,4,2,14,31,36,072,18,14,35,147,36,23,32,317,32,08,21,197,27*70
$GPGSV,4,3,14,03,21,259,28,22,20,230,23,193,18,167,34,32,13,148,41*43
$GPGSV,4,4,14,21,06,088,,09,01,323,*73
$GLGSV,3,1,10,69,44,239,,81,37,076,20,82,34,142,37,79,31,027,*68
$GLGSV,3,2,10,80,27,317,28,70,26,309,19,68,17,188,28,78,11,062,*6E
$GLGSV,3,3,10,88,07,032,,83,01,182,*63
$GNRMC,032748.000,A,2257.0780,N,11353.8183,E,0.36,286.10,100517,,,A*7A
$GNVTG,286.10,T,,M,0.36.67,K,A*2A
$GNGGA,032749.000,2257.0777,N,11353.8180,E,1,12,0.98,24.2,M,-3.6,M,,*56
1494415651 113.896966 22.951295 24.20 0.98 0.87 14 41 36 34 34
speed:0.000000, dis=0.000000
$GPGSA,A,3,16,27,22,14,23,08,03,193,32,,,,1.31,0.98,0.87*38
$GLGSA,A,3,80,82,68,,,,,,,,,,1.31,0.98,0.87*1F
$GPGSV,4,1,14,16,63,326,34,27,52,173,33,26,49,018,,50,46,122,28*70
$GPGSV,4,2,14,31,36,072,18,14,35,147,36,23,32,317,31,08,21,197,28*7C
$GPGSV,4,3,14,03,21,259,28,22,20,230,23,193,18,167,35,32,13,148,41*42
$GPGSV,4,4,14,21,06,088,,09,01,323,*73
$GLGSV,3,1,10,69,44,239,,81,37,076,20,82,34,142,37,79,31,027,*68
$GLGSV,3,2,10,80,27,317,28,70,26,309,19,68,17,188,29,78,11,062,*6F
$GLGSV,3,3,10,88,07,032,,83,01,182,*63
$GNRMC,032749.000,A,2257.0777,N,11353.8180,E,0.50,286.10,100517,,,A*70
$GNVTG,286.10,T,,M,0.50.92,K,A*20
$GNGGA,032750.000,2257.0774,N,11353.8178,E,1,12,0.98,24.2,M,-3.6,M,,*5A
1494415652 113.896963 22.951290 24.20 0.98 0.87 14 41 36 35 34
speed:0.000000, dis=0.000000
$GPGSA,A,3,16,27,22,14,23,08,03,193,32,,,,1.31,0.98,0.87*38
$GLGSA,A,3,80,82,68,,,,,,,,,,1.31,0.98,0.87*1F
$GPGSV,4,1,14,16,63,326,35,27,52,173,33,26,49,018,,50,46,122,28*71
$GPGSV,4,2,14,31,36,072,18,14,35,147,37,23,32,317,30,08,21,197,29*7D
$GPGSV,4,3,14,03,21,259,29,22,20,230,23,193,18,167,35,32,13,148,41*43
$GPGSV,4,4,14,21,06,088,,09,01,323,*73
$GLGSV,3,1,10,69,44,239,,81,37,076,19,82,34,142,37,79,31,027,*62
$GLGSV,3,2,10,80,27,317,28,70,26,309,19,68,17,188,30,78,11,062,*67
$GLGSV,3,3,10,88,07,032,,83,01,182,*63
$GNRMC,032750.000,A,2257.0774,N,11353.8178,E,0.M,0.65,N,1.20,K,A*26
$GNGGA,032751.000,2257.0771,N,11353.8176,E,1,12,0.98,24.3,M,-3.6,M,,*51
1494415653 113.896960 22.951285 24.30 0.98 0.87 14 41 37 35 35
speed:0.000000, dis=0.000000
$GPGSA,A,3,16,27,22,14,23,08,03,193,32,,,,1.31,0.98,0.87*38
$GLGSA,A,3,80,82,68,,,,,,,,,,1.31,0.98,0.87*1F
$GPGSV,4,1,14,16,63,326,35,27,52,173,33,26,49,018,,50,46,122,28*71
$GPGSV,4,2,14,31,36,072,18,14,35,147,37,23,32,317,29,08,21,197,29*75
$GPGSV,4,3,14,03,21,259,30,22,20,230,23,193,18,167,35,32,13,148,41*4B
$GPGSV,4,4,14,21,06,088,,09,01,323,*73
$GLGSV,3,1,10,69,44,239,,81,37,076,19,82,34,142,37,79,31,027,*62
$GLGSV,3,2,10,80,27,317,28,70,26,309,19,68,17,188,31,78,11,062,*66
$GLGSV,3,3,10,88,07,032,,83,01,182,*63
$GNRMC,032751.000,A,2257.0771,N,11353.8176,E,0.68,207.04,100517,,,A*71
$GNVTG,207.04,T,,M,0.68.27,K,A*28
$GNGGA,032752.000,2257.0769,N,11353.8174,E,1,10,0.98,24.3,M,-3.6,M,,*5B
1494415654 113.896956 22.951281 24.30 0.98 0.87 14 41 37 35 35
speed:0.000000, dis=0.000000
$GPGSA,A,3,16,27,22,14,23,03,193,32,,,,,1.31,0.98,0.87*30
$GLGSA,A,3,82,68,,,,,,,,,,,1.31,0.98,0.87*17
$GPGSV,4,1,14,16,63,326,35,27,52,173,33,26,49,018,,50,46,122,37*7F
$GPGSV,4,2,14,31,36,072,18,14,35,147,37,23,32,317,22,08,21,197,24*73
$GPGSV,4,3,14,03,21,259,29,22,20,230,23,193,18,167,34,32,13,148,40*43
$GPGSV,4,4,14,21,06,088,,09,01,323,*73
$GLGSV,3,1,10,69,44,239,,81,37,076,25,82,34,142,37,79,31,027,*6D
$GLGSV,3,2,10,80,27,317,23,70,26,309,19,68,17,188,30,78,11,062,*6C
$GLGSV,3,3,10,88,07,032,,83,01,182,*63
$GNRMC,032752.000,A,2257.0769,N,11353.8174,E,0.76.76,N,1.41,K,A*20
$GNGGA,032753.000,2257.0767,N,11353.8171,E,1,10,0.98,24.3,M,-3.6,M,,*51
1494415655 113.896951 22.951278 24.30 0.98 0.87 14 40 37 37 35
speed:0.000000, dis=0.000000
$GPGSA,A,3,16,27,22,14,23,03,193,32,,,,,1.31,0.98,0.87*30
$GLGSA,A,3,82,68,,,,,,,,,,,1.31,0.98,0.87*17
$GPGSV,4,1,14,16,63,326,35,27,52,173,33,26,49,018,,50,46,122,37*7F
$GPGSV,4,2,14,31,36,072,18,14,35,147,37,23,32,317,22,08,21,197,24*73
$GPGSV,4,3,14,03,21,259,28,22,20,230,23,193,18,167,33,32,13,148,40*45
$GPGSV,4,4,14,21,06,088,,09,01,323,*73
$GLGSV,3,1,10,69,44,239,,81,37,076,25,82,34,142,37,79,31,027,*6D
$GLGSV,3,2,10,80,27,317,23,70,26,309,19,68,17,188,29,78,11,062,*64
$GLGSV,3,3,10,88,07,032,,83,01,182,*63
$GNRMC,032753.000,A,2257.0767,N,11353.8171,E,0.78,208.80,100517,,,A*71
$GNVTG,208.80,T,,M,0.78,K,A*2F
$GNGGA,032754.000,2257.0764,N,11353.8168,E,1,9,1.29,24.3,M,-3.6,M,,*6E
1494415656 113.896946 22.951273 24.30 1.29 0.87 14 40 37 37 35
speed:0.000000, dis=0.000000
$GPGSA,A,3,16,27,14,23,03,193,32,,,,,,1.57,1.29,0.89*35
$GLGSA,A,3,82,68,,,,,,,,,,,1.57,1.29,0.89*12
$GPGSV,4,1,14,16,63,326,34,27,52,173,34,26,49,018,,42,45,122,*7D
$GPGSV,4,2,14,31,36,072,,14,35,147,35,23,32,317,22,08,21,197,24*78
$GPGSV,4,3,14,03,21,259,27,22,20,230,20,193,18,167,33,32,13,148,28*47
$GPGSV,4,4,14,21,06,088,,09,01,323,*73
$GLGSV,3,1,10,69,44,239,,81,37,076,24,82,34,142,37,79,31,027,*6C
$GLGSV,3,2,10,80,27,317,21,70,26,309,,68,17,188,30,78,11,062,*66
$GLGSV,3,3,10,88,07,032,,83,01,182,*63
$GNRMC,032754.000,A,2257.0764,N,11353.8168,E,0.99,216.10,100517,,,A*74
$GNVTG,216.10,T,,M,0.99,N,1.8$GNGGA,032755.000,2257.0761,N,11353.8164,E,1,9,1.29,24.3,M,-3.6,M,,*66
1494415657 113.896940 22.951268 24.30 1.29 0.89 14 35 34 34 33
speed:0.000000, dis=0.000000
$GPGSA,A,3,16,27,14,23,03,193,32,,,,,,1.57,1.29,0.89*35
$GLGSA,A,3,82,68,,,,,,,,,,,1.57,1.29,0.89*12
$GPGSV,4,1,14,16,63,326,33,27,52,173,35,26,49,018,,42,45,122,*7B
$GPGSV,4,2,14,31,36,072,,14,35,147,34,23,32,317,22,08,21,197,24*79
$GPGSV,4,3,14,03,21,259,27,22,20,230,20,193,18,167,33,32,13,148,28*47
$GPGSV,4,4,14,21,06,088,,09,01,323,*73
$GLGSV,3,1,10,69,44,239,,81,37,076,24,82,34,142,37,79,31,027,*6C
$GLGSV,3,2,10,80,27,317,21,70,26,309,,68,17,188,31,78,11,062,*67
$GLGSV,3,3,10,88,07,032,,83,01,182,*63
$GNRMC,032755.000,A,2257.0761,N,11353.8164,E,1.04,225.26,100517,,,A*7C
$GNVTG,225.26,T,,M,1.04,N,1.9$GNGGA,032756.000,2257.0760,N,11353.8162,E,1,10,1.29,24.3,M,-3.6,M,,*5A
1494415658 113.896936 22.951266 24.30 1.29 0.89 14 35 34 33 33
speed:0.000000, dis=0.000000
$GPGSA,A,3,16,27,14,23,08,03,193,32,,,,,1.57,1.29,0.89*3D
$GLGSA,A,3,82,68,,,,,,,,,,,1.57,1.29,0.89*12
$GPGSV,4,1,14,16,63,326,32,27,52,173,35,26,49,018,,42,45,122,*7A
$GPGSV,4,2,14,31,36,072,,14,35,147,34,23,32,317,21,08,21,197,21*7F
$GPGSV,4,3,14,03,21,259,27,22,20,230,20,193,18,167,34,32,13,148,28*40
$GPGSV,4,4,14,21,06,088,,09,01,323,*73
$GLGSV,3,1,10,69,44,239,,81,37,076,19,82,34,142,35,79,31,027,*60
$GLGSV,3,2,10,80,27,317,18,70,26,309,,68,17,188,31,78,11,062,*6D
$GLGSV,3,3,10,88,07,032,,83,01,182,*63
$GNRMC,032756.000,A,2257.0760,N,11353.8162,E,1.00,224.73,100517,,,A*7D
$GNVTG,224.73,T,,M,1.00,N,1.8$GNGGA,032757.000,2257.0760,N,11353.8161,E,1,10,1.29,24.3,M,-3.6,M,,*58
1494415659 113.896935 22.951266 24.30 1.29 0.89 14 35 34 34 32
speed:0.000000, dis=0.000000
$GPGSA,A,3,16,27,14,23,08,03,193,32,,,,,1.57,1.29,0.89*3D
$GLGSA,A,3,82,68,,,,,,,,,,,1.57,1.29,0.89*12
$GPGSV,4,1,14,16,63,326,31,27,52,173,35,26,49,018,,42,45,122,*79
$GPGSV,4,2,14,31,36,072,,14,35,147,34,23,32,317,21,08,21,197,21*7F
$GPGSV,4,3,14,03,21,259,27,22,20,230,20,193,18,167,34,32,13,148,28*40
$GPGSV,4,4,14,21,06,088,,09,01,323,*73
$GLGSV,3,1,10,69,44,239,,81,37,076,19,82,34,142,34,79,31,027,*61
$GLGSV,3,2,10,80,27,317,18,70,26,309,,68,17,188,31,78,11,062,*6D
$GLGSV,3,3,10,88,07,032,,83,01,182,*
$GNGGA,032758.000,2257.0760,N,11353.8159,E,1,11,1.05,24.3,M,-3.6,M,,*53
1494415660 113.896931 22.951266 24.30 1.05 0.89 14 35 34 34 31
speed:0.000000, dis=0.000000
$GPGSA,A,3,16,27,22,14,23,08,03,193,32,,,,1.38,1.05,0.89*3A
$GLGSA,A,3,82,68,,,,,,,,,,,1.38,1.05,0.89*15
$GPGSV,4,1,14,16,63,326,31,27,52,173,35,26,49,018,,42,45,122,*79
$GPGSV,4,2,14,31,36,072,,14,35,147,38,23,32,317,31,08,21,197,27*74
$GPGSV,4,3,14,03,21,259,26,22,20,230,21,193,18,167,35,32,13,148,40*4F
$GPGSV,4,4,14,21,06,088,,09,01,323,*73
$GLGSV,3,1,10,69,44,239,,81,37,076,17,82,34,142,35,79,31,027,*6E
$GLGSV,3,2,10,80,27,317,20,70,26,309,20,68,17,188,30,78,11,062,*65
$GLGSV,3,3,10,88,07,032,,83,01,182,*63
$GNRMC,032758.000,A,2257.0760,N,11353.8159,E,0.60,237.78,100517,,,A*75
$GNVTG,237.78,T,,M,0.60,N,1$GNGGA,032759.000,2257.0761,N,11353.8157,E,1,11,1.05,24.3,M,-3.6,M,,*5D
1494415661 113.896928 22.951268 24.30 1.05 0.89 14 40 38 35 35
speed:0.000000, dis=0.000000
$GPGSA,A,3,16,27,22,14,23,08,03,193,32,,,,1.38,1.05,0.89*3A
$GLGSA,A,3,82,68,,,,,,,,,,,1.38,1.05,0.89*15
$GPGSV,4,1,14,16,63,326,31,27,52,173,35,26,49,018,,42,45,122,*79
$GPGSV,4,2,14,31,36,072,,14,35,147,38,23,32,317,31,08,21,197,27*74
$GPGSV,4,3,14,03,21,259,26,22,20,230,21,193,18,167,35,32,13,148,40*4F
$GPGSV,4,4,14,21,06,088,,09,01,323,*73
$GLGSV,3,1,10,69,44,239,,81,37,076,17,82,34,142,36,79,31,027,*6D
$GNGGA,032800.000,2257.0760,N,11353.8155,E,1,11,1.05,24.4,M,-3.6,M,,*5A
1494415662 113.896925 22.951266 24.40 1.05 0.89 14 40 38 35 35
speed:0.000000, dis=0.000000
$GPGSA,A,3,16,27,14,23,08,03,193,32,,,,,1.38,1.05,0.89*3A
$GLGSA,A,3,80,82,68,,,,,,,,,,1.38,1.05,0.89*1D
$GPGSV,4,1,14,16,63,326,31,27,52,173,35,26,49,018,,42,45,122,*79
$GPGSV,4,2,14,31,36,072,,14,35,147,38,23,32,317,31,08,21,197,27*74
$GPGSV,4,3,14,03,21,259,25,22,20,230,20,193,18,167,35,32,13,148,40*4D
$GPGSV,4,4,14,21,06,088,,09,01,323,*73
$GLGSV,3,1,10,69,44,239,,81,37,076,17,82,34,142,37,79,31,027,*6C
$GLGSV,3,2,10,80,27,317,22,70,26,309,21,68,17,188,28,78,11,062,*6F
$GLGSV,3,3,10,88,07,032,,83,01,182,*63
$GNRMC,032800.000,A,2257.0760,N,11353.8155,E,0.48,237.78,100517,,,A*71
$GNVTG,237.78,T,,M,0.48,N,0A*27
$GNGGA,032801.000,2257.0759,N,11353.8153,E,1,11,1.05,24.4,M,-3.6,M,,*57
1494415663 113.896921 22.951265 24.40 1.05 0.89 14 40 38 35 35
speed:0.000000, dis=0.000000
$GPGSA,A,3,16,27,14,23,08,03,193,32,,,,,1.38,1.05,0.89*3A
$GLGSA,A,3,80,82,68,,,,,,,,,,1.38,1.05,0.89*1D
$GPGSV,4,1,14,16,63,326,31,27,52,173,35,26,49,018,,42,45,122,*79
$GPGSV,4,2,14,31,36,072,,14,35,147,38,23,32,317,31,08,21,197,27*74
$GPGSV,4,3,14,03,21,259,25,22,20,230,20,193,18,167,35,32,13,148,40*4D
$GPGSV,4,4,14,21,06,088,,09,01,323,*73
$GLGSV,3,1,10,69,44,239,,81,37,076,17,82,34,142,38,79,31,027,*63
$GLGSV,3,2,10,80,27,317,22,70,26,309,21,68,17,188,27,78,11,062,*60
$GLGSV,3,3,10,88,07,032,,83,01,182,*63
$GNRMC,032801.000,A,2257.0759,N,11353.8153,E,0.45,237.78,100517,,,A*71
$GNVTG,237.78,T,,M,0.45,N,0.84,K,A*27
$GNGGA,032802.000,2257.0758,N,11353.8151,E,1,11,1.11,24.4,M,-3.6,M,,*52
1494415664 113.896918 22.951263 24.40 1.11 0.89 14 40 38 35 35
speed:0.000000, dis=0.000000
$GPGSA,A,3,16,27,14,23,08,03,193,32,,,,,1.41,1.11,0.87*3F
$GLGSA,A,3,80,82,68,,,,,,,,,,1.41,1.11,0.87*18
$GPGSV,4,1,14,16,63,326,32,27,52,173,36,26,49,018,,42,45,122,*79
$GPGSV,4,2,14,31,36,072,,14,35,147,38,23,32,317,33,08,21,197,28*79
$GPGSV,4,3,14,03,21,259,25,22,20,230,20,193,18,167,35,32,13,148,39*43
$GPGSV,4,4,14,21,06,088,,09,01,323,*73
$GLGSV,3,1,10,69,44,239,,81,37,076,,82,34,142,39,79,31,027,*64
$GLGSV,3,2,10,80,27,317,23,70,26,309,23,68,17,188,27,78,11,062,*63
$GLGSV,3,3,10,88,07,032,,83,01,182,*63
$GNRMC,032802.000,A,2257.0758,N,11353.8151,E,0.47,237.78,100517,,,A*73
$GNVTG,237.78,T,,M,0.47,N,0.826
$GNGGA,032803.000,2257.0760,N,11353.8153,E,1,11,1.11,24.4,M,-3.6,M,,*5A
1494415665 113.896921 22.951266 24.40 1.11 0.87 14 39 38 36 35
speed:0.000000, dis=0.000000
$GPGSA,A,3,16,27,14,23,08,03,193,32,,,,,1.41,1.11,0.87*3F
$GLGSA,A,3,80,82,68,,,,,,,,,,1.41,1.11,0.87*18
$GPGSV,4,1,14,16,63,326,33,27,52,173,36,26,49,018,,42,45,122,*78
$GPGSV,4,2,14,31,36,072,,14,35,147,38,23,32,317,34,08,21,197,28*7E
$GPGSV,4,3,14,03,21,259,25,22,20,230,20,193,18,167,35,32,13,148,39*43
$GPGSV,4,4,14,21,06,088,,09,01,323,*73
$GLGSV,3,1,10,69,44,239,,81,37,076,,82,34,142,39,79,31,027,*64
$GLGSV,3,2,10,80,27,317,23,70,26,309,23,68,17,188,27,78,11,062,*63
$GLGSV,3,3,10,88,07,032,,83,01,182,*63
$GNRMC,032803.000,A,2257.0760,N,11353.8153,E,0.06,237.78,100517,,,A*7E
$GNVTG,237.78,T,,M,0.06,N,0.12C
$GNGGA,032804.000,2257.0762,N,11353.8155,E,1,11,1.11,24.4,M,-3.6,M,,*59
1494415666 113.896925 22.951270 24.40 1.11 0.87 14 39 38 36 35
speed:0.000000, dis=0.000000
$GPGSA,A,3,16,27,14,23,08,03,193,32,,,,,1.41,1.11,0.87*3F
$GLGSA,A,3,80,82,68,,,,,,,,,,1.41,1.11,0.87*18
$GPGSV,4,1,14,16,63,326,32,27,52,173,36,26,49,018,,42,45,122,*79
$GPGSV,4,2,14,31,36,072,,14,35,147,38,23,32,317,35,08,21,197,28*7F
$GPGSV,4,3,14,03,21,259,25,22,20,230,20,193,18,167,35,32,13,148,39*43
$GPGSV,4,4,14,21,06,088,,09,01,323,*73
$GLGSV,3,1,10,69,44,239,,81,37,076,,82,34,142,39,79,31,027,*64
$GLGSV,3,2,10,80,27,317,23,70,26,309,23,68,17,188,27,78,11,062,*63
$GLGSV,3,3,10,88,07,032,,83,01,182,*63
$GNRMC,032804.000,A,2257.0762,N,11353.8155,E,1.19,55..21,K,A*1A
$GNGGA,032805.000,2257.0765,N,11353.8159,E,1,11,1.11,24.3,M,-3.6,M,,*54
1494415667 113.896931 22.951275 24.30 1.11 0.87 14 39 38 36 35
speed:0.000000, dis=0.000000
$GPGSA,A,3,16,27,14,23,08,03,193,32,,,,,1.41,1.11,0.87*3F
$GLGSA,A,3,80,82,68,,,,,,,,,,1.41,1.11,0.87*18
$GPGSV,4,1,14,16,63,326,31,27,52,173,36,26,49,018,,42,45,122,*7A
$GPGSV,4,2,14,31,36,072,,14,35,147,38,23,32,317,35,08,21,197,28*7F
$GPGSV,4,3,14,03,21,259,25,22,20,230,20,193,18,167,35,32,13,148,39*43
$GPGSV,4,4,14,21,06,088,,09,01,323,*73
$GLGSV,3,1,10,69,44,239,,81,37,076,,82,34,142,39,79,31,027,*64
$GLGSV,3,2,10,80,27,317,23,70,26,309,23,68,17,188,27,78,11,062,*63
$GLGSV,3,3,10,88,07,032,,83,01,182,*63
$GNRMC,032805.000,A,2257.0765,N,11353.8159,E,1.53,51.74,100517,,,A*48
$GNVTG,51.74,T,,M,1.53,N,2.83,
$GNGGA,032806.000,2257.0767,N,11353.8162,E,1,11,1.11,24.3,M,-3.6,M,,*5D
1494415668 113.896936 22.951278 24.30 1.11 0.87 14 39 38 36 35
speed:0.000000, dis=0.000000
$GPGSA,A,3,16,27,14,23,08,03,193,32,,,,,1.41,1.11,0.87*3F
$GLGSA,A,3,80,82,68,,,,,,,,,,1.41,1.11,0.87*18
$GPGSV,4,1,14,16,63,326,31,27,52,173,36,26,49,018,,42,45,122,*7A
$GPGSV,4,2,14,31,36,072,,14,35,147,37,23,32,317,35,08,21,197,28*70
$GPGSV,4,3,14,03,21,259,25,22,20,230,20,193,18,167,35,32,13,148,39*43
$GPGSV,4,4,14,21,06,088,,09,01,323,*73
$GLGSV,3,1,10,69,44,239,,81,37,076,,82,34,142,39,79,31,027,*64
$GLGSV,3,2,10,80,27,317,22,70,26,309,24,68,17,188,27,78,11,062,*65
$GLGSV,3,3,10,88,07,032,,83,01,182,*63
$GNRMC,032806.000,A,2257.0767,N,11353.8162,E,1.52,58.15,100517,,,A*4E
$GNVTG,58.15,T,,M,1.52,N,2.81,
$GNGGA,032807.000,2257.0770,N,11353.8167,E,1,11,1.11,24.3,M,-3.6,M,,*5F
1494415669 113.896945 22.951283 24.30 1.11 0.87 14 39 37 36 35
speed:0.000000, dis=0.000000
$GPGSA,A,3,16,27,14,23,08,03,193,32,,,,,1.41,1.11,0.87*3F
$GLGSA,A,3,80,82,68,,,,,,,,,,1.41,1.11,0.87*18
$GPGSV,4,1,14,16,63,326,31,27,52,173,36,26,49,018,,42,45,122,*7A
$GPGSV,4,2,14,31,36,072,,14,35,147,37,23,32,317,35,08,21,197,28*70
$GPGSV,4,3,14,03,21,259,25,22,20,230,20,193,18,167,35,32,13,148,39*43
$GPGSV,4,4,14,21,06,088,,09,01,323,*73
$GLGSV,3,1,10,69,44,239,,81,37,076,,82,34,142,39,79,31,027,*64
$GLGSV,3,2,10,80,27,317,22,70,26,309,24,68,17,188,27,78,11,062,*65
$GLGSV,3,3,10,88,07,032,,83,01,182,*63
$GNRMC,032807.000,A,2257.0770,N,11353.8167,E,1.76,60.37,100517,,,A*41
$GNVTG,60.37,T,,M,1.76,N,3.26,$GNGGA,032808.000,2257.0771,N,11353.8169,E,1,11,1.11,24.2,M,-3.6,M,,*5E
1494415670 113.896948 22.951285 24.20 1.11 0.87 14 39 37 36 35
speed:0.000000, dis=0.000000
$GPGSA,A,3,16,27,14,23,08,03,193,32,,,,,1.41,1.11,0.87*3F
$GLGSA,A,3,80,82,68,,,,,,,,,,1.41,1.11,0.87*18
$GPGSV,4,1,14,16,63,326,32,27,52,173,36,26,49,018,,42,45,122,*79
$GPGSV,4,2,14,31,36,072,,14,35,147,35,23,32,317,35,08,21,197,29*73
$GPGSV,4,3,14,03,21,259,26,22,20,230,19,193,18,167,35,32,13,148,38*4B
$GPGSV,4,4,14,21,06,088,,09,01,323,*73
$GLGSV,3,1,10,69,44,239,,81,37,076,,82,34,142,39,79,31,027,*64
$GLGSV,3,2,10,80,27,317,24,70,26,309,23,68,17,188,27,78,11,062,*64
$GLGSV,3,3,10,88,07,032,,83,01,182,*63
$GNRMC,032808.000,A,2257.0771,N,11353.8169,E,1.55,56.73,100517,,,A*45
$GNVTG,56.73,T,,M,1.55,N,2.87,
$GNGGA,032809.000,2257.0773,N,11353.8172,E,1,11,1.11,24.2,M,-3.6,M,,*57
1494415671 113.896953 22.951288 24.20 1.11 0.87 14 38 36 35 35
speed:0.000000, dis=0.000000
$GPGSA,A,3,16,27,14,23,08,03,193,32,,,,,1.41,1.11,0.87*3F
$GLGSA,A,3,80,82,68,,,,,,,,,,1.41,1.11,0.87*18
$GPGSV,4,1,14,16,63,326,32,27,52,173,36,26,49,018,,42,45,122,*79
$GPGSV,4,2,14,31,36,072,,14,35,147,35,23,32,317,35,08,21,197,29*73
$GPGSV,4,3,14,03,21,259,26,22,20,230,19,193,18,167,35,32,13,148,38*4B
$GPGSV,4,4,14,21,06,088,,09,01,323,*73
$GLGSV,3,1,10,69,44,239,,81,37,076,,82,34,142,39,79,31,027,*64
$GLGSV,3,2,10,80,27,317,24,70,26,309,23,68,17,188,27,78,11,062,*64
$GLGSV,3,3,10,88,07,032,,83,01,182,*63
$GNRMC,032809.000,A,2257.0773,N,11353.8172,E,1.50,53.25,100517,,,A*4F
$GNVTG,53.25,T,,M,1.50,N,2.78,
$GNGGA,032810.000,2257.0772,N,11353.8172,E,1,11,1.11,24.1,M,-3.6,M,,*5D
1494415672 113.896953 22.951286 24.10 1.11 0.87 14 38 36 35 35
speed:0.000000, dis=0.000000
$GPGSA,A,3,16,27,14,23,08,03,193,32,,,,,1.41,1.11,0.87*3F
$GLGSA,A,3,80,82,68,,,,,,,,,,1.41,1.11,0.87*18
$GPGSV,4,1,14,16,63,326,32,27,52,173,36,26,49,018,,42,45,122,*79
$GPGSV,4,2,14,31,36,072,,14,35,147,35,23,32,317,35,08,21,197,28*72
$GPGSV,4,3,14,03,21,259,27,22,20,230,19,193,18,167,35,32,12,148,38*4B
$GPGSV,4,4,14,21,06,088,,09,01,323,*73
$GLGSV,3,1,10,69,44,239,,81,37,076,,82,34,142,39,79,31,027,*64
$GLGSV,3,2,10,80,27,317,24,70,26,309,23,68,17,188,27,78,11,062,*64
$GLGSV,3,3,10,88,07,032,,83,01,182,*63
$GNRMC,032810.000,A,2257.0772,N,11353.8172,E,1.12,60.63,100517,,,A*42
$GNVTG,60.63,T,,M,1.12,N,2.08,
$GNGGA,032811.000,2257.0772,N,11353.8172,E,1,11,1.11,24.1,M,-3.6,M,,*5C
1494415673 113.896953 22.951286 24.10 1.11 0.87 14 38 36 35 35
speed:0.000000, dis=0.000000
$GPGSA,A,3,16,27,14,23,08,03,193,32,,,,,1.41,1.11,0.87*3F
$GLGSA,A,3,80,82,68,,,,,,,,,,1.41,1.11,0.87*18
$GPGSV,4,1,14,16,63,326,32,27,52,173,36,26,49,018,,42,45,122,*79
$GPGSV,4,2,14,31,36,072,,14,35,147,35,23,32,317,35,08,21,197,28*72
$GPGSV,4,3,14,03,21,259,27,22,20,230,19,193,18,167,35,32,12,148,38*4B
$GPGSV,4,4,14,21,06,088,,09,01,323,*73
$GLGSV,3,1,10,69,44,239,,81,37,076,,82,34,142,39,79,31,027,*64
$GLGSV,3,2,10,80,27,317,24,70,26,309,23,68,17,188,27,78,11,062,*64
$GLGSV,3,3,10,88,07,032,,83,01,182,*63
$GNRMC,032811.000,A,2257.0772,N,11353.8172,E,0.89,62..65,K,A*19
$GNGGA,032812.000,2257.0772,N,11353.8171,E,1,10,1.11,24.1,M,-3.6,M,,*5D
1494415674 113.896951 22.951286 24.10 1.11 0.87 14 38 36 35 35
speed:0.000000, dis=0.000000
$GPGSA,A,3,16,27,14,23,03,193,32,,,,,,1.41,1.11,0.87*37
$GLGSA,A,3,80,82,68,,,,,,,,,,1.41,1.11,0.87*18
$GPGSV,4,1,14,16,63,326,32,27,52,173,36,26,49,018,,42,45,122,*79
$GPGSV,4,2,14,31,36,072,,14,35,147,35,23,32,317,35,08,21,197,28*72
$GPGSV,4,3,14,03,21,259,28,22,20,230,19,193,18,167,35,32,12,148,38*44
$GPGSV,4,4,14,21,06,088,,09,01,323,*73
$GLGSV,3,1,10,69,44,239,,81,37,076,,82,34,142,39,79,31,027,*64
$GLGSV,3,2,10,80,27,317,24,70,26,309,22,68,17,188,27,78,11,062,*65
$GLGSV,3,3,10,88,07,032,,83,01,182,*63
$GNRMC,032812.000,A,2257.0772,N,11353.8171,E,0.61,65.09,100517,,,A*4F
$GNVTG,65.09,T,,M,0.61,N,1.13,$GNGGA,032813.000,2257.0772,N,11353.8171,E,1,10,1.11,24.0,M,-3.6,M,,*5D
1494415675 113.896951 22.951286 24.00 1.11 0.87 14 38 36 35 35
speed:0.000000, dis=0.000000
$GPGSA,A,3,16,27,14,23,03,193,32,,,,,,1.41,1.11,0.87*37
$GLGSA,A,3,80,82,68,,,,,,,,,,1.41,1.11,0.87*18
$GPGSV,4,1,14,16,63,326,32,27,52,173,36,26,49,018,,42,45,122,31*7B
$GPGSV,4,2,14,31,36,072,,14,35,147,35,23,32,317,35,08,21,197,28*72
$GPGSV,4,3,14,03,21,259,28,22,20,230,19,193,18,167,35,32,12,148,38*44
$GPGSV,4,4,14,21,06,088,,09,01,323,*73
$GLGSV,3,1,10,69,44,239,,81,37,076,,82,34,142,39,79,31,027,*64
$GLGSV,3,2,10,80,27,317,24,70,26,309,22,68,17,188,27,78,11,062,*65
$GLGSV,3,3,10,88,07,032,,83,01,182,*63
$GNRMC,032813.000,A,2257.0772,N,11353.8171,E,0.57,6.05,K,A*1F
$GNGGA,032814.000,2257.0771,N,11353.8169,E,1,11,1.11,23.9,M,-3.6,M,,*5F
1494415676 113.896948 22.951285 23.90 1.11 0.87 14 38 36 35 35
speed:0.000000, dis=0.000000
$GPGSA,A,3,16,27,14,23,08,03,193,32,,,,,1.41,1.11,0.87*3F
$GLGSA,A,3,80,82,68,,,,,,,,,,1.41,1.11,0.87*18
$GPGSV,4,1,14,16,63,326,32,27,52,173,37,26,49,018,,31,36,072,*7C
$GPGSV,4,2,14,14,35,147,36,23,32,317,35,44,30,250,,08,21,197,33*7D
$GPGSV,4,3,14,03,21,259,28,22,20,230,19,193,18,167,35,32,12,148,39*45
$GPGSV,4,4,14,21,06,088,,09,01,323,*73
$GLGSV,3,1,10,69,44,239,,81,37,076,,82,34,142,39,79,31,027,*64
$GLGSV,3,2,10,80,27,317,22,70,26,309,20,68,17,188,28,78,11,062,*6E
$GLGSV,3,3,10,88,07,032,,83,01,182,*63
$GNRMC,032814.000,A,2257.0771,N,11353.8169,E,0.56,65.09,100517,,,A*47
$GNVTG,65.09,T,,M,0.56,N,1.04,
$GNGGA,032815.000,2257.0770,N,11353.8167,E,1,11,1.11,23.9,M,-3.6,M,,*51
1494415677 113.896945 22.951283 23.90 1.11 0.87 14 39 37 36 35
speed:0.000000, dis=0.000000
$GPGSA,A,3,16,27,14,23,08,03,193,32,,,,,1.41,1.11,0.87*3F
$GLGSA,A,3,80,82,68,,,,,,,,,,1.41,1.11,0.87*18
$GPGSV,4,1,14,16,63,326,32,27,52,173,38,26,49,018,,31,36,072,*73
$GPGSV,4,2,14,14,35,147,38,23,32,317,35,44,30,250,,08,21,197,33*73
$GPGSV,4,3,14,03,21,259,28,22,20,230,19,193,18,167,35,32,12,148,39*45
$GPGSV,4,4,14,21,06,088,,09,01,323,*73
$GLGSV,3,1,10,69,44,239,,81,37,076,,82,34,142,39,79,31,027,*64
$GLGSV,3,2,10,80,27,317,22,70,26,309,20,68,17,188,28,78,11,062,*6E
$GLGSV,3,3,10,88,07,032,,83,01,182,*63
$GNRMC,032815.000,A,2257.0770,N,11353.8167,E,0.55,65.09,100517,,,A*4A
$GNVTG,65.09,T,,M,0.55,N,1.01,
$GNGGA,032816.000,2257.0769,N,11353.8163,E,1,11,1.11,23.8,M,-3.6,M,,*5F
1494415678 113.896938 22.951281 23.80 1.11 0.87 14 39 38 38 35
speed:0.000000, dis=0.000000
$GPGSA,A,3,16,27,14,23,08,03,193,32,,,,,1.41,1.11,0.87*3F
$GLGSA,A,3,80,82,68,,,,,,,,,,1.41,1.11,0.87*18
$GPGSV,4,1,14,16,63,326,32,27,52,173,38,26,49,018,,31,36,072,*73
$GPGSV,4,2,14,14,35,147,38,23,32,317,35,44,30,250,,08,21,197,34*74
$GPGSV,4,3,14,03,21,259,29,22,20,230,20,193,18,167,35,32,12,148,39*4E
$GPGSV,4,4,14,21,06,088,,09,01,323,*73
$GLGSV,3,1,10,69,44,239,,81,37,076,,82,34,142,39,79,31,027,*64
$GLGSV,3,2,10,80,27,317,21,70,26,309,19,68,17,188,29,78,11,062,*66
$GLGSV,3,3,10,88,07,032,,83,01,182,*63
$GNRMC,032816.000,A,2257.0769,N,11353.8163,E,0.47,65..87,K,A*15
$GNGGA,032817.000,2257.0768,N,11353.8161,E,1,11,1.11,23.8,M,-3.6,M,,*5D
1494415679 113.896935 22.951280 23.80 1.11 0.87 14 39 38 38 35
speed:0.000000, dis=0.000000
$GPGSA,A,3,16,27,14,23,08,03,193,32,,,,,1.41,1.11,0.87*3F
$GLGSA,A,3,80,82,68,,,,,,,,,,1.41,1.11,0.87*18
$GPGSV,4,1,14,16,63,326,32,27,52,173,38,26,49,018,,31,36,072,*73
$GPGSV,4,2,14,14,35,147,38,23,32,317,35,44,30,250,,08,21,197,34*74
$GPGSV,4,3,14,03,21,259,30,22,20,230,20,193,18,167,35,32,12,148,39*46
$GPGSV,4,4,14,21,06,088,,09,01,323,*73
$GLGSV,3,1,10,69,44,239,,81,37,076,,82,34,142,39,79,31,027,*64
$GLGSV,3,2,10,80,27,317,21,70,26,309,19,68,17,188,29,78,11,062,*66
$GLGSV,3,3,10,88,07,032,,83,01,182,*63
$GNRMC,032817.000,A,2257.0768,N,11353.8161,E,0.30,65.09,100517,,,A*44
$GNVTG,65.09,T,,M,0.30,N,0.56,
$GNGGA,032818.000,2257.0767,N,11353.8159,E,1,12,0.98,23.9,M,-3.6,M,,*54
1494415680 113.896931 22.951278 23.90 0.98 0.87 14 39 38 38 35
speed:0.000000, dis=0.000000
$GPGSA,A,3,16,27,22,14,23,08,03,193,32,,,,1.31,0.98,0.87*38
$GLGSA,A,3,80,82,68,,,,,,,,,,1.31,0.98,0.87*1F
$GPGSV,4,1,14,16,63,326,32,27,52,173,38,26,49,018,,31,36,072,*73
$GPGSV,4,2,14,14,35,147,38,23,32,317,34,44,30,250,,08,21,197,33*72
$GPGSV,4,3,14,03,21,259,29,22,20,230,20,193,18,167,35,32,12,148,39*4E
$GPGSV,4,4,14,21,06,088,,09,01,323,*73
$GLGSV,3,1,10,69,44,239,,81,37,076,,82,34,142,39,79,31,027,*64
$GLGSV,3,2,10,80,27,317,22,70,26,309,,68,17,188,29,78,11,062,*6D
$GNGGA,032819.000,2257.0766,N,11353.8157,E,1,12,0.98,23.9,M,-3.6,M,,*5A
1494415681 113.896928 22.951276 23.90 0.98 0.87 14 39 38 38 35
speed:0.000000, dis=0.000000
$GPGSA,A,3,16,27,22,14,23,08,03,193,32,,,,1.31,0.98,0.87*38
$GLGSA,A,3,80,82,68,,,,,,,,,,1.31,0.98,0.87*1F
$GPGSV,4,1,14,16,63,326,32,27,52,173,38,26,49,018,,31,36,072,*73
$GPGSV,4,2,14,14,35,147,38,23,32,317,33,44,30,250,,08,21,197,33*75
$GPGSV,4,3,14,03,21,259,29,22,20,230,20,193,18,167,35,32,12,148,39*4E
$GPGSV,4,4,14,21,06,088,,09,01,323,*$GNGGA,032820.000,2257.0763,N,11353.8154,E,1,12,0.98,23.9,M,-3.6,M,,*56
$GNGGA,032820.000,2257.0763,N,11353.8154,E,1,12,0.98,23.9,M,-3.6,M,,*56
1494415682 113.896923 22.951271 23.90 0.98 0.87 14 39 38 38 35
speed:0.000000, dis=0.000000
$GPGSA,A,3,16,27,22,14,23,08,03,193,32,,,,1.31,0.98,0.87*38
$GLGSA,A,3,80,82,68,,,,,,,,,,1.31,0.98,0.87*1F
$GPGSV,4,1,14,16,63,326,31,27,52,173,38,26,49,018,,31,36,072,*70
$GPGSV,4,2,14,14,35,147,38,23,32,317,33,44,30,250,,08,21,197,33*75
$GPGSV,4,3,14,03,21,259,29,22,20,230,21,193,18,167,35,32,12,148,39*4F
$GPGSV,4,4,14,21,06,088,,09,01,323,*73
$GLGSV,3,1,10,69,44,239,,81,37,076,,82,34,142,39,79,31,027,*64
$GLGSV,3,2,10,80,27,317,22,70,26,309,,68,17,188,30,78,11,062,*65
$GLGSV,3,3,10,88,07,032,,83,01,182,*63
$GNRMC,032820.000,A,2257.0763,N,11353.8154,E,0.13,65.09,K,A*1C
$GNGGA,032821.000,2257.0762,N,11353.8151,E,1,12,0.98,23.9,M,-3.6,M,,*53
1494415683 113.896918 22.951270 23.90 0.98 0.87 14 39 38 38 35
speed:0.000000, dis=0.000000
$GPGSA,A,3,16,27,22,14,23,08,03,193,32,,,,1.31,0.98,0.87*38
$GLGSA,A,3,80,82,68,,,,,,,,,,1.31,0.98,0.87*1F
$GPGSV,4,1,14,16,63,326,31,27,52,173,38,26,49,018,,31,36,072,*70
$GPGSV,4,2,14,14,35,147,38,23,32,317,33,44,30,250,,08,21,197,33*75
$GPGSV,4,3,14,03,21,259,29,22,20,230,21,193,18,167,35,32,12,148,39*4F
$GPGSV,4,4,14,21,06,088,,09,01,323,*73
$GLGSV,3,1,10,69,44,239,,81,37,076,,82,34,142,39,79,31,027,*64
$GLGSV,3,2,10,80,27,317,22,70,26,309,,68,17,188,31,78,11,062,*64
$GLGSV,3,3,10,88,07,032,,83,01,182,*63
$GNRMC,032821.000,A,2257.0762,N,11353.8151,E,0.19,65.09,100517,,,A*43
$GNVTG,65.09,T,,M,0.19,N,0.35,K,
$GNGGA,032822.000,2257.0763,N,11353.8153,E,1,12,0.98,23.9,M,-3.6,M,,*53
1494415684 113.896921 22.951271 23.90 0.98 0.87 14 39 38 38 35
speed:0.000000, dis=0.000000
$GPGSA,A,3,16,27,22,14,23,08,03,193,32,,,,1.31,0.98,0.87*38
$GLGSA,A,3,80,82,68,,,,,,,,,,1.31,0.98,0.87*1F
$GPGSV,4,1,14,16,63,326,31,27,52,173,37,26,49,018,,31,36,072,*7F
$GPGSV,4,2,14,14,35,147,38,23,32,317,32,44,30,250,,08,21,197,32*75
$GPGSV,4,3,14,03,21,259,29,22,20,230,21,193,18,167,35,32,12,148,39*4F
$GPGSV,4,4,14,21,06,088,,09,01,323,*73
$GLGSV,3,1,10,69,44,239,,81,37,076,,82,34,142,39,79,31,027,*64
$GLGSV,3,2,10,80,27,317,23,$GNGGA,032823.000,2257.0763,N,11353.8152,E,1,12,0.98,23.9,M,-3.6,M,,*53
1494415685 113.896920 22.951271 23.90 0.98 0.87 14 39 38 37 35
speed:0.000000, dis=0.000000
$GPGSA,A,3,16,27,22,14,23,08,03,193,32,,,,1.31,0.98,0.87*38
$GLGSA,A,3,80,82,68,,,,,,,,,,1.31,0.98,0.87*1F
$GPGSV,4,1,14,16,63,326,31,27,52,173,37,26,49,018,,31,36,072,*7F
$GPGSV,4,2,14,14,35,147,38,23,32,317,32,44,30,250,,08,21,197,32*75
$GPGSV,4,3,14,03,21,259,29,22,20,230,21,193,18,167,35,32,12,148,39*4F
$GPGSV,4,4,14,21,06,088,,09,01,323,*73
$GLGSV,3,1,10,69,44,239,,81,37,076,,82,34,142,39,79,31,027,*64
$GLGSV,3,2,10,80,27,317,23,70,26,309,,68,17,188,31,78,11,062,*65
$GLGSV,3,3,10,88,07,032,,83,01,182,*63
$GNRMC,032823.000,A,2257.0763,N,11353.8152,E,0.11,65.09.19,K,A*11
$GNGGA,032824.000,2257.0763,N,11353.8152,E,1,12,0.98,23.9,M,-3.6,M,,*54
1494415686 113.896920 22.951271 23.90 0.98 0.87 14 39 38 37 35
speed:0.000000, dis=0.000000
$GPGSA,A,3,16,27,22,14,23,08,03,193,32,,,,1.31,0.98,0.87*38
$GLGSA,A,3,80,82,68,,,,,,,,,,1.31,0.98,0.87*1F
$GPGSV,4,1,14,16,63,326,31,27,52,173,37,26,49,018,,31,36,072,*7F
$GPGSV,4,2,14,14,35,147,37,23,32,317,32,44,30,250,,08,21,197,33*7B
$GPGSV,4,3,14,03,21,259,28,22,20,230,20,193,18,167,35,32,12,148,39*4F
$GPGSV,4,4,14,21,06,088,,09,01,323,*73
$GLGSV,3,1,10,69,44,239,,81,37,076,,82,34,142,39,79,31,027,*64
$GLGSV,3,2,10,80,27,317,23,70,26,309,,68,17,188,31,78,11,062,*65
$GLGSV,3,3,10,88,07,032,,83,01,182,*63
$GNRMC,032824.000,A,2257.0763,N,11353.8152,E,0.0965.09,.16,K,A*17
$GNGGA,032825.000,2257.0763,N,11353.8151,E,1,12,0.98,23.8,M,-3.6,M,,*57
1494415687 113.896918 22.951271 23.80 0.98 0.87 14 39 37 37 35
speed:0.000000, dis=0.000000
$GPGSA,A,3,16,27,22,14,23,08,03,193,32,,,,1.31,0.98,0.87*38
$GLGSA,A,3,80,82,68,,,,,,,,,,1.31,0.98,0.87*1F
$GPGSV,4,1,14,16,63,326,31,27,52,173,37,26,49,018,,31,36,072,*7F
$GPGSV,4,2,14,14,35,147,37,23,32,317,32,44,30,250,,08,21,197,33*7B
$GPGSV,4,3,14,03,21,259,28,22,20,230,20,193,18,167,35,32,12,148,39*4F
$GPGSV,4,4,14,21,06,088,,09,01,323,*73
$GLGSV,3,1,10,69,44,239,,81,37,076,,82,34,142,39,79,31,027,*64
$GLGSV,3,2,10,80,27,317,23,70,26,309,,68,17,188,31,78,11,062,*65
$GLGSV,3,3,10,88,07,032,,83,01,182,*63
$GNRMC,032825.000,A,2257.0763,N,11353.8151,E,0.14,65.09,100517,,,A*4B
$GNVTG,65.09,T,,M,0.14,N,0.26,K,
$GNGGA,032826.000,2257.0763,N,11353.8151,E,1,12,0.98,23.8,M,-3.6,M,,*54
1494415688 113.896918 22.951271 23.80 0.98 0.87 14 39 37 37 35
speed:0.000000, dis=0.000000
$GPGSA,A,3,16,27,22,14,23,08,03,193,32,,,,1.31,0.98,0.87*38
$GLGSA,A,3,80,82,68,,,,,,,,,,1.31,0.98,0.87*1F
$GPGSV,4,1,14,16,63,326,31,27,52,173,37,26,49,018,,31,36,072,*7F
$GPGSV,4,2,14,14,35,147,37,23,32,317,32,40,28,251,,08,21,197,34*70
$GPGSV,4,3,14,03,21,259,28,22,20,230,21,193,18,167,35,32,12,148,39*4E
$GPGSV,4,4,14,21,06,088,,09,01,323,*73
$GLGSV,3,1,10,69,44,239,,81,37,076,,82,34,142,39,79,31,027,*64
$GLGSV,3,2,10,80,27,317,23,70,26,309,,68,17,188,31,78,11,062,*65
$GLGSV,3,3,10,88,07,032,,83,01,182,*63
$GNRMC,032826.000,A,2257.0763,N,11353.8151,E,0.11,65.09,100517,,,A*4D
$GNVTG,65.09,T,,M,0.11,N,0.20,K,$GNGGA,032827.000,2257.0764,N,11353.8152,E,1,12,0.98,23.8,M,-3.6,M,,*51
1494415689 113.896920 22.951273 23.80 0.98 0.87 14 39 37 37 35
speed:0.000000, dis=0.000000
$GPGSA,A,3,16,27,22,14,23,08,03,193,32,,,,1.31,0.98,0.87*38
$GLGSA,A,3,80,82,68,,,,,,,,,,1.31,0.98,0.87*1F
$GPGSV,4,1,14,16,63,326,31,27,52,173,37,26,49,018,,31,36,072,*7F
$GPGSV,4,2,14,14,35,147,37,23,32,317,32,40,28,251,,08,21,197,34*70
$GPGSV,4,3,14,03,21,259,28,22,20,230,21,193,18,167,35,32,12,148,39*4E
$GPGSV,4,4,14,21,06,088,,09,01,323,*73
$GLGSV,3,1,10,69,44,239,,81,37,076,,82,34,142,39,79,31,027,*64
$GLGSV,3,2,10,80,27,317,23,70,26,309,,68,17,188,31,78,11,062,*65
$GLGSV,3,3,10,88,07,032,,83,01,182,*63
$GNRMC,032827.000,A,2257.0764,N,11353.8152,E,0.22,65.0941,K,A*1C
$GNGGA,032828.000,2257.0764,N,11353.8153,E,1,11,0.98,23.8,M,-3.6,M,,*5C
1494415690 113.896921 22.951273 23.80 0.98 0.87 14 39 37 37 35
speed:0.000000, dis=0.000000
$GPGSA,A,3,16,27,14,23,08,03,193,32,,,,,1.31,0.98,0.87*38
$GLGSA,A,3,80,82,68,,,,,,,,,,1.31,0.98,0.87*1F
$GPGSV,4,1,14,16,63,326,32,27,52,173,37,26,49,018,,31,36,072,*7C
$GPGSV,4,2,14,14,35,147,37,23,32,317,32,40,28,251,,08,21,197,32*76
$GPGSV,4,3,14,03,21,259,27,22,20,230,20,193,18,167,35,32,12,148,39*40
$GPGSV,4,4,14,21,06,088,,09,01,323,*73
$GLGSV,3,1,10,69,44,239,,81,37,076,,82,34,142,39,79,31,027,*64
$GLGSV,3,2,10,80,27,317,25,70,26,309,,68,17,188,31,78,11,062,*63
$GLGSV,3,3,10,88,07,032,,83,01,182,*63
$GNRMC,032828.000,A,2257.0764,N,11353.8153,E,0.20,65.09,100517,,,A*44
$GNVTG,65.09,T,,M,0.20,N,0.37,K,$GNGGA,032829.000,2257.0764,N,11353.8153,E,1,11,0.98,23.8,M,-3.6,M,,*5D
1494415691 113.896921 22.951273 23.80 0.98 0.87 14 39 37 37 35
speed:0.000000, dis=0.000000
$GPGSA,A,3,16,27,14,23,08,03,193,32,,,,,1.31,0.98,0.87*38
$GLGSA,A,3,80,82,68,,,,,,,,,,1.31,0.98,0.87*1F
$GPGSV,4,1,14,16,63,326,32,27,52,173,37,26,49,018,,31,36,072,*7C
$GPGSV,4,2,14,14,35,147,37,23,32,317,32,40,28,251,,08,21,197,32*76
$GPGSV,4,3,14,03,21,259,26,22,20,230,20,193,18,167,35,32,12,148,39*41
$GPGSV,4,4,14,21,06,088,,09,01,323,*73
$GLGSV,3,1,10,69,44,239,,81,37,076,,82,34,142,39,79,31,027,*64
$GLGSV,3,2,10,80,27,317,25,70,26,309,,68,17,188,31,78,11,062,*63
$GLGSV,3,3,10,88,07,032,,83,01,182,*63
$GNRMC,032829.000,A,2257.0764,N,11353.8153,E,0.20,65.098,K,A*10
$GNGGA,032830.000,2257.0765,N,11353.8155,E,1,11,1.11,23.8,M,-3.6,M,,*52
1494415692 113.896925 22.951275 23.80 1.11 0.87 14 39 37 37 35
speed:0.000000, dis=0.000000
$GPGSA,A,3,16,27,14,23,08,03,193,32,,,,,1.41,1.11,0.87*3F
$GLGSA,A,3,80,82,68,,,,,,,,,,1.41,1.11,0.87*18
$GPGSV,4,1,14,16,63,326,32,27,52,173,36,26,49,018,,31,36,072,*7D
$GPGSV,4,2,14,14,35,147,37,23,32,317,32,40,28,251,,08,21,197,33*77
$GPGSV,4,3,14,03,21,259,27,22,20,230,29,193,18,167,34,32,12,148,38*49
$GPGSV,4,4,14,21,06,088,,09,01,323,*73
$GLGSV,3,1,10,69,44,239,,81,37,076,,82,34,142,39,79,31,027,*64
$GLGSV,3,2,10,80,27,317,25,70,26,309,,68,17,188,31,78,11,062,*63
$GLGSV,3,3,10,88,07,032,,83,01,182,*63
$GNRMC,032830.000,A,2257.0765,N,11353.8155,E,0.47,65.09,100517,,,A*4B
$GNVTG,65.09,T,,M,0.47,N,0.87,K,A*15
$GNGGA,032831.000,2257.0765,N,11353.8157,E,1,11,1.11,23.8,M,-3.6,M,,*51
1494415693 113.896928 22.951275 23.80 1.11 0.87 14 38 37 36 34
speed:0.000000, dis=0.000000
$GPGSA,A,3,16,27,22,14,23,03,193,32,,,,,1.41,1.11,0.87*37
$GLGSA,A,3,80,82,68,,,,,,,,,,1.41,1.11,0.87*18
$GPGSV,4,1,14,16,63,326,32,27,52,173,36,26,49,018,,31,36,072,*7D
$GPGSV,4,2,14,14,35,147,37,23,32,317,32,40,28,251,,08,21,197,33*77
$GPGSV,4,3,14,03,21,259,27,22,20,230,29,193,18,167,33,32,12,148,37*41
$GPGSV,4,4,14,21,06,088,,09,01,323,*73
$GLGSV,3,1,10,69,44,239,,81,37,076,,82,34,142,39,79,31,027,*64
$GLGSV,3,2,10,80,27,317,25,70,26,309,,68,17,188,31,78,11,062,*63
$GLGSV,3,3,10,88,07,032,,83,01,182,*63
$GNRMC,032831.000,A,2257.0765,N,11353.8157,E,0.68,88.69,100517,,,A*40
$GNVTG,88.69,T,,M,0.68,N,1.27,K,$GNGGA,032832.000,2257.0765,N,11353.8161,E,1,9,1.11,23.9,M,-3.6,M,,*6F
1494415694 113.896935 22.951275 23.90 1.11 0.87 14 37 37 36 33
speed:0.000000, dis=0.000000
$GPGSA,A,3,27,22,14,23,03,193,32,,,,,,1.41,1.11,0.87*30
$GLGSA,A,3,82,68,,,,,,,,,,,1.41,1.11,0.87*10
$GPGSV,4,1,14,16,63,326,24,27,52,173,35,26,49,018,,31,36,072,*79
$GPGSV,4,2,14,14,35,147,32,23,32,317,25,40,28,251,,08,21,197,25*73
$GPGSV,4,3,14,03,21,259,27,22,20,230,25,193,18,167,25,32,12,148,30*4D
$GPGSV,4,4,14,21,06,088,,09,01,323,*73
$GLGSV,3,1,10,69,44,239,,81,37,076,,82,34,142,38,79,31,027,*65
$GLGSV,3,2,10,80,27,317,21,70,26,309,,68,17,188,24,78,11,062,*63
$GLGSV,3,3,10,88,07,032,,83,01,182,*63
$GNRMC,032832.000,A,2257.0765,N,11353.8161,E,0.92,95.92,1*18
$GNGGA,032833.000,2257.0765,N,11353.8164,E,1,9,1.11,23.9,M,-3.6,M,,*6B
1494415695 113.896940 22.951275 23.90 1.11 0.87 14 35 32 30 27
speed:0.000000, dis=0.000000
$GPGSA,A,3,27,22,14,23,03,193,32,,,,,,1.41,1.11,0.87*30
$GLGSA,A,3,82,68,,,,,,,,,,,1.41,1.11,0.87*10
$GPGSV,4,1,14,16,63,326,24,27,52,173,34,26,49,018,,31,36,072,*78
$GPGSV,4,2,14,14,35,147,32,23,32,317,25,40,28,251,,08,21,197,25*73
$GPGSV,4,3,14,03,21,259,27,22,20,230,25,193,18,167,25,32,12,148,30*4D
$GPGSV,4,4,14,21,06,088,,09,01,323,*73
$GLGSV,3,1,10,69,44,239,,81,37,076,,82,34,142,37,79,31,027,*6A
$GLGSV,3,2,10,80,27,317,21,70,26,309,,68,17,188,24,78,11,062,*63
$GLGSV,3,3,10,88,07,032,,83,01,182,*63
$GNRMC,032833.000,A,2257.0765,N,11353.8164,E,1.11,95.18,100517,,,A*47
$GNVTG,95.18,T,,M,1.11,N,2.06,K,$GNGGA,032834.000,2257.0765,N,11353.8170,E,1,9,1.98,23.9,M,-3.6,M,,*68
1494415696 113.896950 22.951275 23.90 1.98 0.87 14 34 32 30 27
speed:0.000000, dis=0.000000
$GPGSA,A,3,27,22,14,08,03,193,32,,,,,,2.18,1.98,0.92*33
$GLGSA,A,3,82,68,,,,,,,,,,,2.18,1.98,0.92*1A
$GPGSV,4,1,14,16,63,326,,27,52,173,32,26,49,018,,31,36,072,*78
$GPGSV,4,2,14,14,35,147,32,23,32,317,19,40,28,251,,08,21,197,26*7F
$GPGSV,4,3,14,03,21,259,26,22,20,230,24,193,18,167,25,32,12,148,30*4D
$GPGSV,4,4,14,21,06,088,,09,01,323,*73
$GLGSV,3,1,10,69,44,239,,81,37,076,,82,34,142,27,79,31,027,*6B
$GLGSV,3,2,10,80,27,317,,70,26,309,,68,17,188,24,78,11,062,*60
$GLGSV,3,3,10,88,07,032,,83,01,182,*63
$GNRMC,032834.000,A,2257.0765,N,11353.8170,E,1.48,98.64,100517,,,A*4F
$GNVTG,98.64,T,,M,1.48,N,2.74,K,A*1C$GNGGA,032835.000,2257.0765,N,11353.8176,E,1,9,1.98,23.9,M,-3.6,M,,*6F
$GNGGA,032835.000,2257.0765,N,11353.8176,E,1,9,1.98,23.9,M,-3.6,M,,*6F
1494415697 113.896960 22.951275 23.90 1.98 0.92 14 32 32 30 26
speed:0.000000, dis=0.000000
$GPGSA,A,3,27,22,14,08,03,193,32,,,,,,2.18,1.98,0.92*33
$GLGSA,A,3,82,68,,,,,,,,,,,2.18,1.98,0.92*1A
$GPGSV,4,1,14,16,63,326,,27,52,173,31,26,49,018,,31,36,072,*7B
$GPGSV,4,2,14,14,35,147,32,23,32,317,19,40,28,251,,08,21,197,26*7F
$GPGSV,4,3,14,03,21,259,25,22,20,230,24,193,18,167,25,32,12,148,30*4E
$GPGSV,4,4,14,21,06,088,,09,01,323,*73
$GLGSV,3,1,10,69,44,239,,81,37,076,,82,34,142,27,79,31,027,*6B
$GLGSV,3,2,10,80,27,317,,70,26,309,,68,17,188,24,78,11,062,*60
$GLGSV,3,3,10,88,07,032,,83,01,182,*63
$GNGGA,032836.000,2257.0766,N,11353.8191,E,1,8,1.98,23.9,M,-3.6,M,,*67
1494415698 113.896985 22.951276 23.90 1.98 0.92 14 32 31 30 26
speed:0.000000, dis=0.000000
$GPGSA,A,3,27,14,08,03,193,32,,,,,,,2.18,1.98,0.92*33
$GLGSA,A,3,82,68,,,,,,,,,,,2.18,1.98,0.92*1A
$GPGSV,4,1,14,16,63,326,,27,52,173,31,26,49,018,,31,36,072,*7B
$GPGSV,4,2,14,14,35,147,30,23,32,317,,40,28,251,,08,21,197,30*72
$GPGSV,4,3,14,03,21,259,26,22,20,230,26,193,18,167,27,32,12,148,32*4F
$GPGSV,4,4,14,21,06,088,,09,01,323,*73
$GLGSV,3,1,10,69,44,239,,81,37,076,,82,34,142,28,79,31,027,*64
$GLGSV,3,2,10,80,27,317,,70,26,309,,68,17,188,25,78,11,062,*61
$GLGSV,3,3,10,88,07,032,,83,01,182,*63
$GNRMC,032836.000,A,2257.0766,N,11353.8191,E,5.05,90.08,100517,,,A*4E
$GNVTG,90.08,T,,M,5.05,N,9.36,K,A*1E
$GNGGA,032837.000,2257.0768,N,11353.8211,E,1,8,1.98,23.9,M,-3.6,M,,*63
1494415699 113.897018 22.951280 23.90 1.98 0.92 14 32 31 30 30
speed:0.000000, dis=0.000000
$GPGSA,A,3,27,14,08,03,193,32,,,,,,,2.18,1.98,0.92*33
$GLGSA,A,3,82,68,,,,,,,,,,,2.18,1.98,0.92*1A
$GPGSV,4,1,14,16,63,326,,27,52,173,31,26,49,018,,31,36,072,*7B
$GPGSV,4,2,14,14,35,147,29,23,32,317,,40,28,251,,08,21,197,30*7A
$GPGSV,4,3,14,03,21,259,26,22,20,230,26,193,18,167,28,32,12,148,33*41
$GPGSV,4,4,14,21,06,088,,09,01,323,*73
$GLGSV,3,1,10,69,44,239,,81,37,076,,82,34,142,28,79,31,027,*64
$GLGSV,3,2,10,80,27,317,,70,26,309,,68,17,188,26,78,11,062,*62
$GLGSV,3,3,10,88,07,032,,83,01,182,*63
$GNRMC,032837.000,A,2257.0768,N,11353.8211,E,5.95,87.53,100517,5.95,N,11.02,K,A*21
$GNGGA,032838.000,2257.0774,N,11353.8232,E,1,9,1.98,23.9,M,-3.6,M,,*61
1494415700 113.897053 22.951290 23.90 1.98 0.92 14 33 31 30 29
