YF_GPS:5:10:11:13
1494414771 0.000000 0.000000 0.00 0.00 0.00 0 0 0 0 0
speed:-1.000000, dis=0.000000
$GPGSA,A,1,,,,,,,,,,,,,,,*1E
$GLGSA,A,1,,,,,,,,,,,,,,,*02
$GPGSV,4,1,13,16,65,310,31,26,54,011,,27,44,175,,14,41,143,*7F
$GPGSV,4,2,13,31,38,064,,23,27,319,,22,24,237,,03,23,266,*79
$GPGSV,4,3,13,32,19,146,,193,19,168,,08,15,197,,29,04,036,*43
$GPGSV,4,4,13,21,04,094,*41
$GLGSV,3,1,09,69,49,249,,81,36,086,26,79,33,018,,82,28,147,*60
$GLGSV,3,2,09,80,25,309,,68,24,190,,70,23,316,,78,13,055,*67
$GLGSV,3,3,09,88,11,037,*58
$GNRMC,031309.019,V,,,,,0.03,86.23,100517,,,N*6D
$GNVTG,86.23,T,,M,0.03,N,0.05,K,N*15
$GNGGA,031310.019,,,,,0,0,,,M,,M,,*5E
1494414772 0.000000 0.000000 0.00 0.00 0.00 13 31 0 0 0
speed:-1.000000, dis=0.000000
$GPGSA,A,1,,,,,,,,,,,,,,,*1E
$GLGSA,A,1,,,,,,,,,,,,,,,*02
$GPGSV,4,1,13,16,65,310,32,26,54,011,,27,44,175,37,14,41,143,*78
$GPGSV,4,2,13,31,38,064,,23,27,319,29,22,24,237,,03,23,266,*72
$GPGSV,4,3,13,32,19,146,,193,19,168,,08,15,197,,29,04,036,*43
$GPGSV,4,4,13,21,04,094,*41
$GLGSV,3,1,09,69,49,249,,81,36,086,28,79,33,018,,82,28,147,*6E
$GLGSV,3,2,09,80,25,309,,68,24,190,,70,23,316,,78,13,055,*67
$GLGSV,3,3,09,88,11,037,*58
$GNRMC,031310.019,V,,,,,0.13,86.23,100517,,,N*64
$GNVTG,86.23,T,,M,0.13,N,0.23,K,N*10
$GNGGA,031311.008,2257.0736,N,11353.8069,E,1,4,1.55,33.7,M,-3.6,M,,*63
1494414773 113.896781 22.951226 33.70 1.55 0.00 13 37 32 29 0
speed:-1.000000, dis=0.000000
$GPGSA,A,3,16,23,27,,,,,,,,,,1.82,1.55,0.96*04
$GLGSA,A,3,81,,,,,,,,,,,,1.82,1.55,0.96*12
$GPGSV,4,1,13,16,65,310,33,26,54,011,,27,44,175,36,14,41,143,*78
$GPGSV,4,2,13,31,38,064,,23,27,319,32,22,24,237,,03,23,266,*78
$GPGSV,4,3,13,32,19,146,,193,19,168,,08,15,197,,29,04,036,*43
$GPGSV,4,4,13,21,04,094,*41
$GLGSV,3,1,09,69,49,249,,81,36,086,30,79,33,018,,82,28,147,*67
$GLGSV,3,2,09,80,25,309,,68,24,190,,70,23,316,,78,13,055,*67
$GLGSV,3,3,09,88,11,037,*58
$GNRMC,031311.008,A,2257.0736,N,11353.8069,E,0.13,86.23,100517,,,A*44
$GNVTG,86.23,T,,M,0.13,N,0.25,K,A*19
$GNGGA,031312.012,2257.0742,N,11353.8063,E,1,5,1.48,33.7,M,-3.6,M,,*6F
1494414774 113.896771 22.951236 33.70 1.48 0.96 13 36 33 32 0
speed:0.000000, dis=0.000000
$GPGSA,A,3,16,23,27,14,,,,,,,,,1.76,1.48,0.95*05
$GLGSA,A,3,81,,,,,,,,,,,,1.76,1.48,0.95*16
$GPGSV,4,1,13,16,65,310,35,26,54,011,,27,44,175,40,14,41,143,28*75
$GPGSV,4,2,13,31,38,064,,23,27,319,35,22,24,237,,03,23,266,*7F
$GPGSV,4,3,13,32,19,146,,193,19,168,,08,15,197,,29,04,036,*43
$GPGSV,4,4,13,21,04,094,*41
$GLGSV,3,1,09,69,49,249,,81,36,086,32,79,33,018,,82,28,147,*65
$GLGSV,3,2,09,80,25,309,,68,24,190,,70,23,316,,78,13,055,*67
$GLGSV,3,3,09,88,11,037,*58
$GNRMC,031312.012,A,2257.0742,N,11353.8063,E,0.25,86.23,100517,,,A*40
$GNVTG,86.23,T,,M,0.25,N,0.46,K,A*19
$GNGGA,031313.015,2257.0754,N,11353.8074,E,1,7,1.15,33.7,M,-3.6,M,,*62
1494414775 113.896790 22.951256 33.70 1.15 0.95 13 40 35 35 28
speed:0.000000, dis=0.000000
$GPGSA,A,3,16,23,27,14,193,,,,,,,,1.47,1.15,0.91*30
$GLGSA,A,3,69,81,,,,,,,,,,,1.47,1.15,0.91*17
$GPGSV,4,1,13,16,65,310,35,26,54,011,,27,44,175,28,14,41,143,36*74
$GPGSV,4,2,13,31,38,064,,23,27,319,32,22,24,237,,03,23,266,*78
$GPGSV,4,3,13,32,19,146,,193,19,168,22,08,15,197,,29,04,036,*43
$GPGSV,4,4,13,21,04,094,*41
$GLGSV,3,1,09,69,49,249,24,81,36,086,39,79,33,018,,82,28,147,*68
$GLGSV,3,2,09,80,25,309,,68,24,190,,70,23,316,,78,13,055,*67
$GLGSV,3,3,09,88,11,037,*58
$GNRMC,031313.015,A,2257.0754,N,11353.8074,E,0.65,283.32,100517,,,A*74
$GNVTG,283.32,T,,M,0.65,N,1.20,K,A*2B
$GNGGA,031314.013,2257.0746,N,11353.8074,E,1,11,0.92,33.7,M,-3.6,M,,*59
1494414776 113.896790 22.951243 33.70 0.92 0.91 13 36 35 32 28
speed:0.000000, dis=0.000000
$GPGSA,A,3,16,23,27,14,22,03,193,32,,,,,1.26,0.92,0.87*3C
$GLGSA,A,3,69,81,82,,,,,,,,,,1.26,0.92,0.87*13
$GPGSV,4,1,14,16,65,310,28,26,54,011,,41,46,236,,27,44,175,38*7D
$GPGSV,4,2,14,14,41,143,33,31,38,064,,23,27,319,23,22,24,237,26*7D
$GPGSV,4,3,14,03,23,266,23,32,19,146,37,193,19,168,31,08,15,197,32*48
$GPGSV,4,4,14,29,04,036,,21,04,094,*7C
$GLGSV,3,1,09,69,49,249,21,81,36,086,38,79,33,018,,82,28,147,35*6A
$GLGSV,3,2,09,80,25,309,,68,24,190,,70,23,316,,78,13,055,*67
$GLGSV,3,3,09,88,11,037,*58
$GNRMC,031314.013,A,2257.0746,N,11353.8074,E,0.55,283.32,100517,,,A*75
$GNVTG,283.32,T,,M,0.55,N,1.02,K,A*28
$GNGGA,031315.012,2257.0747,N,11353.8080,E,1,12,0.86,33.8,M,-3.6,M,,*5A
1494414777 113.896800 22.951245 33.80 0.86 0.87 14 38 37 33 32
speed:0.000000, dis=0.000000
$GPGSA,A,3,16,23,27,14,22,03,08,193,32,,,,1.22,0.86,0.86*34
$GLGSA,A,3,69,81,82,,,,,,,,,,1.22,0.86,0.86*13
$GPGSV,4,1,14,16,65,310,29,26,54,011,,41,46,236,,27,44,175,39*7D
$GPGSV,4,2,14,14,41,143,35,31,38,064,,23,27,319,24,22,24,237,30*7B
$GPGSV,4,3,14,03,23,266,21,32,19,146,38,193,19,168,33,08,15,197,37*42
$GPGSV,4,4,14,29,04,036,,21,04,094,*7C
$GLGSV,3,1,09,69,49,249,21,81,36,086,24,79,33,018,,82,28,147,37*65
$GLGSV,3,2,09,80,25,309,,68,24,190,,70,23,316,,78,13,055,*67
$GLGSV,3,3,09,88,11,037,*58
$GNRMC,031315.012,A,2257.0747,N,11353.8080,E,0.61,341.97,100517,,,A*78
$GNVTG,341.97,T,,M,0.61,N,1.13,K,A*2
$GNGGA,031316.012,2257.0743,N,11353.8083,E,1,13,0.79,33.7,M,-3.6,M,,*50
1494414778 113.896805 22.951238 33.70 0.79 0.86 14 39 38 37 35
speed:0.000000, dis=0.000000
$GPGSA,A,3,16,23,27,14,22,26,03,08,193,32,,,1.17,0.79,0.86*36
$GLGSA,A,3,69,81,82,,,,,,,,,,1.17,0.79,0.86*15
$GPGSV,4,1,14,16,65,310,30,26,54,011,17,41,46,236,,27,44,175,30*7A
$GPGSV,4,2,14,14,41,143,34,31,38,064,,23,27,319,25,22,24,237,40*7C
$GPGSV,4,3,14,03,23,266,32,32,19,146,38,193,19,168,35,08,15,197,29*49
$GPGSV,4,4,14,29,04,036,,21,04,094,*7C
$GLGSV,3,1,09,69,49,249,29,81,36,086,36,79,33,018,,82,28,147,35*6C
$GLGSV,3,2,09,80,25,309,,68,24,190,23,70,23,316,,78,13,055,*66
$GLGSV,3,3,09,88,11,037,*58
$GNRMC,031316.012,A,2257.0743,N,11353.8083,E,0.44,341.97,100517,,,A*7B
$GNVTG,341.97,T,,M,0.44,N,0.82,K,A*21
$GNGGA,031317.013,2257.0744,N,11353.8085,E,1,14,0.77,33.8,M,-3.6,M,,*57
1494414779 113.896808 22.951240 33.80 0.77 0.86 14 40 38 35 34
speed:0.000000, dis=0.000000
$GPGSA,A,3,16,23,27,14,22,26,03,08,193,32,,,1.15,0.77,0.86*3A
$GLGSA,A,3,69,81,82,68,,,,,,,,,1.15,0.77,0.86*17
$GPGSV,4,1,14,16,65,310,31,26,54,011,14,41,46,236,,27,44,175,37*7F
$GPGSV,4,2,14,14,41,143,35,31,38,064,,23,27,319,26,22,24,237,35*7C
$GPGSV,4,3,14,03,23,266,30,32,19,146,38,193,19,168,35,08,15,197,32*41
$GPGSV,4,4,14,29,04,036,,21,04,094,*7C
$GLGSV,3,1,09,69,49,249,26,81,36,086,35,79,33,018,,82,28,147,37*62
$GLGSV,3,2,09,80,25,309,,68,24,190,31,70,23,316,,78,13,055,*65
$GLGSV,3,3,09,88,11,037,*58
$GNRMC,031317.013,A,2257.0744,N,11353.8085,E,0.47,341.97,100517,,,A*79
$GNVTG,341.97,T,,M,0.47,N,0.87,K,A*27
$GNGGA,031318.013,2257.0745,N,11353.8083,E,1,14,0.77,33.8,M,-3.6,M,,*5F
1494414780 113.896805 22.951241 33.80 0.77 0.86 14 38 37 35 35
speed:0.000000, dis=0.000000
$GPGSA,A,3,16,23,27,14,22,26,03,08,193,32,,,1.15,0.77,0.86*3A
$GLGSA,A,3,69,81,82,68,,,,,,,,,1.15,0.77,0.86*17
$GPGSV,4,1,14,16,65,310,30,26,54,011,14,41,46,236,34,27,44,175,38*76
$GPGSV,4,2,14,14,41,143,36,31,38,064,,23,27,319,19,22,24,237,32*74
$GPGSV,4,3,14,03,23,266,26,32,19,146,37,193,19,168,34,08,15,197,31*4B
$GPGSV,4,4,14,29,04,036,,21,04,094,*7C
$GLGSV,3,1,09,69,49,249,26,81,36,086,36,79,33,018,,82,28,147,31*67
$GLGSV,3,2,09,80,25,309,,68,24,190,37,70,23,316,,78,13,055,*63
$GLGSV,3,3,09,88,11,037,*58
$GNRMC,031318.013,A,2257.0745,N,11353.8083,E,0.68,33.01,10.68,N,1.26,K,A*20
$GNGGA,031319.012,2257.0746,N,11353.8082,E,1,14,0.77,33.8,M,-3.6,M,,*5D
1494414781 113.896803 22.951243 33.80 0.77 0.86 14 38 37 36 34
speed:0.000000, dis=0.000000
$GPGSA,A,3,16,23,27,14,22,26,03,08,193,32,,,1.15,0.77,0.86*3A
$GLGSA,A,3,69,81,82,68,,,,,,,,,1.15,0.77,0.86*17
$GPGSV,4,1,14,16,65,310,28,26,54,011,14,41,46,236,34,27,44,175,39*7E
$GPGSV,4,2,14,14,41,143,37,31,38,064,,23,27,319,18,22,24,237,31*77
$GPGSV,4,3,14,03,23,266,26,32,19,146,37,193,19,168,35,08,15,197,36*4D
$GPGSV,4,4,14,29,04,036,,21,04,094,*7C
$GLGSV,3,1,09,69,49,249,24,81,36,086,36,79,33,018,,82,28,147,40*63
$GLGSV,3,2,09,80,25,309,,68,24,190,39,70,23,316,,78,13,055,*6D
$GLGSV,3,3,09,88,11,037,*58
$GNRMC,031319.012,A,2257.0746,N,11353.8082,E,0.65,329.57,1.65,N,1.20,K,A*29
$GNGGA,031320.016,2257.0743,N,11353.8086,E,1,14,0.77,33.7,M,-3.6,M,,*5D
1494414782 113.896810 22.951238 33.70 0.77 0.86 14 39 37 37 36
speed:0.000000, dis=0.000000
$GPGSA,A,3,16,23,27,14,22,26,03,08,193,32,,,1.15,0.77,0.86*3A
$GLGSA,A,3,69,81,82,68,,,,,,,,,1.15,0.77,0.86*17
$GPGSV,4,1,14,16,65,310,27,26,54,011,15,41,46,236,30,27,44,175,39*74
$GPGSV,4,2,14,14,41,143,38,31,38,064,,23,27,319,19,22,24,237,31*79
$GPGSV,4,3,14,03,23,266,25,32,19,146,37,193,19,168,36,08,15,197,36*4D
$GPGSV,4,4,14,29,04,036,,21,04,094,*7C
$GLGSV,3,1,09,69,49,249,23,81,36,086,36,79,33,018,,82,28,147,40*64
$GLGSV,3,2,09,80,25,309,,68,24,190,38,70,23,316,,78,13,055,*6C
$GLGSV,3,3,09,88,11,037,*58
$GNRMC,031320.016,A,2257.0743,N,11353.8086,E,0.46,329.57,100517,,,A*7F
$GNVTG,329.57,T,,M,0.46,N,0.85,K,A*26
$GNGGA,031322.000,2257.0749,N,11353.8087,E,1,13,0.84,33.7,M,-3.6,M,,*58
1494414784 113.896811 22.951248 33.70 0.84 0.86 14 39 38 37 36
speed:0.000000, dis=0.000000
$GPGSA,A,3,16,23,27,14,22,03,08,193,32,,,,1.20,0.84,0.86*34
$GLGSA,A,3,69,81,82,68,,,,,,,,,1.20,0.84,0.86*1D
$GPGSV,4,1,14,16,65,310,25,26,54,011,,41,46,236,29,27,44,175,39*7A
$GPGSV,4,2,14,14,41,143,37,31,38,064,,23,27,319,19,22,24,237,30*77
$GPGSV,4,3,14,03,23,266,25,32,19,146,36,193,19,168,36,08,15,197,35*4F
$GPGSV,4,4,14,29,04,036,,21,04,094,*7C
$GLGSV,3,1,09,69,49,249,21,81,36,086,34,79,33,018,,82,28,147,39*6A
$GLGSV,3,2,09,80,25,309,,68,24,190,37,70,23,316,,78,13,055,*63
$GLGSV,3,3,09,88,11,03,*58
$GNVTG$GNGGA,031323.000,2257.0754,N,11353.8089,E,1,13,0.84,33.7,M,-3.6,M,,*5B
1494414785 113.896815 22.951256 33.70 0.84 0.86 14 39 37 36 36
speed:0.000000, dis=0.000000
$GPGSA,A,3,16,23,27,14,22,03,08,193,32,,,,1.20,0.84,0.86*34
$GLGSA,A,3,69,81,82,68,,,,,,,,,1.20,0.84,0.86*1D
$GPGSV,4,1,14,16,65,310,26,26,54,011,,41,46,236,29,27,44,175,39*79
$GPGSV,4,2,14,14,41,143,37,31,38,064,,23,27,319,20,22,24,237,30*7D
$GPGSV,4,3,14,03,23,266,24,32,19,146,36,193,19,168,34,08,15,197,35*4C
$GPGSV,4,4,14,29,04,036,,21,04,094,*7C
$GLGSV,3,1,09,69,49,249,22,81,36,086,21,79,33,018,,82,28,147,38*6C
$GLGSV,3,2,09$GNGGA,031324.000,2257.0755,N,11353.8090,E,1,13,0.84,33.7,M,-3.6,M,,*55
1494414786 113.896816 22.951258 33.70 0.84 0.86 14 39 37 36 35
speed:0.000000, dis=0.000000
$GPGSA,A,3,16,23,27,14,22,03,08,193,32,,,,1.20,0.84,0.86*34
$GLGSA,A,3,69,81,82,68,,,,,,,,,1.20,0.84,0.86*1D
$GPGSV,4,1,14,16,65,310,27,26,54,011,,41,46,236,30,27,44,175,39*70
$GPGSV,4,2,14,14,41,143,38,31,38,064,,23,27,319,20,22,24,237,29*7A
$GPGSV,4,3,14,03,23,266,22,32,19,146,38,193,19,168,33,08,15,197,33*45
$GPGSV,4,4,14,29,04,036,,21,04,094,*7C
$GLGSV,3,1,09,69,49,249,24,81,36,086,28,79,33,018,,82,28,147,39*62
$GLGSV,3,2,09,80,25,309,,68,24,190,34,70,23,316,,78,13,055,*60
$GLGSV,3,3,09,88,11,037,*58
$GNRMC,031324.000,A,2257.0755,N,11353.8090,E,0.35,329.57,100N,0.65,K,A*2C
$GNGGA,031325.000,2257.0754,N,11353.8091,E,1,13,0.84,33.7,M,-3.6,M,,*54
1494414787 113.896818 22.951256 33.70 0.84 0.86 14 39 38 38 33
speed:0.000000, dis=0.000000
$GPGSA,A,3,16,23,27,14,22,03,08,193,32,,,,1.20,0.84,0.86*34
$GLGSA,A,3,69,81,82,68,,,,,,,,,1.20,0.84,0.86*1D
$GPGSV,4,1,14,16,65,310,28,26,54,011,,41,46,236,29,27,44,175,38*76
$GPGSV,4,2,14,14,41,143,38,31,38,064,,23,27,319,20,22,24,237,27*74
$GPGSV,4,3,14,03,23,266,23,32,19,146,38,193,19,168,33,08,15,197,33*44
$GPGSV,4,4,14,29,04,036,,21,04,094,*7C
$GLGSV,3,1,09,69,49,249,23,81,36,086,30,79,33,018,,82,28,147,39*6C
$GLGSV,3,2,09,80,25,309,17,68,24,190,34,70,23,316,,78,13,055,*66
$GLGSV,3,3,09,88,11,037,*58
$GNRMC,031325.000,A,2257.0754,N,11353.8091,E,0.46,329.57,100517,,,A*7D
$GNVTG,329.57,T,,M,0.46,N,0.86,K,A*25
$GNGGA,031326.000,2257.0754,N,11353.8092,E,1,14,0.79,33.7,M,-3.6,M,,*51
1494414788 113.896820 22.951256 33.70 0.79 0.86 14 38 38 38 33
speed:0.000000, dis=0.000000
$GPGSA,A,3,16,23,27,14,22,03,08,193,32,,,,1.16,0.79,0.85*30
$GLGSA,A,3,69,81,80,82,68,,,,,,,,1.16,0.79,0.85*11
$GPGSV,4,1,14,16,65,310,29,26,54,011,,41,46,236,28,27,44,175,38*76
$GPGSV,4,2,14,14,41,143,38,31,38,064,16,23,27,319,21,22,24,237,26*73
$GPGSV,4,3,14,03,23,266,22,32,19,146,37,193,19,168,33,08,15,197,32*4B
$GPGSV,4,4,14,29,04,036,,21,04,094,*7C
$GLGSV,3,1,09,69,49,249,23,81,36,086,31,79,33,018,,82,28,147,39*6D
$GLGSV,3,2,09,80,25,309,18,68,24,190,26,70,23,316,,78,13,055,*6A
$GLGSV,3,3,09,88,11,037,*58
$GNRMC,031326.000,A,2257.0754,N,11353.8092,E,0.4,329.5,0.46,N,0.85,K,A*26
$GNGGA,031327.000,2257.0753,N,11353.8094,E,1,14,0.79,33.7,M,-3.6,M,,*51
1494414789 113.896823 22.951255 33.70 0.79 0.85 14 38 38 37 33
speed:0.000000, dis=0.000000
$GPGSA,A,3,16,23,27,14,22,03,08,193,32,,,,1.16,0.79,0.85*30
$GLGSA,A,3,69,81,80,82,68,,,,,,,,1.16,0.79,0.85*11
$GPGSV,4,1,14,16,65,310,30,26,54,011,,41,46,236,26,27,44,175,39*71
$GPGSV,4,2,14,14,41,143,38,31,38,064,16,23,27,319,28,22,24,237,26*7A
$GPGSV,4,3,14,03,23,266,21,32,19,146,36,193,19,168,32,08,15,197,32*48
$GPGSV,4,4,14,29,04,036,,21,04,094,*7C
$GLGSV,3,1,09,69,49,249,23,81,36,086,31,79,33,018,,82,28,147,39*6D
$GLGSV,3,2,09,80,25,309,18,68,24,190,27,70,23,316,,78,13,055,*6B
$GLGSV,3,3,09,88,11,037,*58
$GNRMC,031327.000,A,2257.0753,N,11353.8094,E,0.29,329.57,100517,,,A*74
$GNVTG,329.57,T,,M,0.29,N,0.54,K,A*23
$GNGGA,031328.000,2257.0753,N,11353.8097,E,1,15,0.70,33.7,M,-3.6,M,,*55
1494414790 113.896828 22.951255 33.70 0.70 0.85 14 39 38 36 32
speed:0.000000, dis=0.000000
$GPGSA,A,3,16,23,27,14,22,03,08,193,32,31,,,1.10,0.70,0.85*3D
$GLGSA,A,3,69,81,80,82,68,,,,,,,,1.10,0.70,0.85*1E
$GPGSV,4,1,14,16,65,310,31,26,54,011,,41,46,236,25,27,44,175,39*73
$GPGSV,4,2,14,14,41,143,38,31,38,064,16,23,27,319,28,22,24,237,27*7B
$GPGSV,4,3,14,03,23,266,20,32,19,146,36,193,19,168,32,08,15,197,32*49
$GPGSV,4,4,14,29,04,036,,21,04,094,*7C
$GLGSV,3,1,09,69,49,249,22,81,36,086,31,79,33,018,,82,28,147,39*6C
$GLGSV,3,2,09,80,25,309,15,68,24,190,28,70,23,316,,78,13,055,*69
$GLGSV,3,3,09,88,11,037,*58
$GNRMC,031328.000,A,2257.0753,N,11353.8097,E,0.20,329.57,100517,,,A*71
$GNVTG,329.57,T,,M,0.20,N,0.36,K,A*2E
$GNGGA,031329.000,2257.0754,N,11353.8101,E,1,15,0.70,33.7,M,-3.6,M,,*5D
1494414791 113.896835 22.951256 33.70 0.70 0.85 14 39 38 36 32
speed:0.000000, dis=0.000000
$GPGSA,A,3,16,23,27,14,22,03,08,193,32,31,,,1.10,0.70,0.85*3D
$GLGSA,A,3,69,81,80,82,68,,,,,,,,1.10,0.70,0.85*1E
$GPGSV,4,1,14,16,65,310,31,26,54,011,,41,46,236,26,27,44,175,39*70
$GPGSV,4,2,14,14,41,143,38,31,38,064,18,23,27,319,29,22,24,237,26*75
$GPGSV,4,3,14,03,23,266,21,32,19,146,36,193,19,168,31,08,15,197,32*4B
$GPGSV,4,4,14,29,04,036,,21,04,094,*7C
$GLGSV,3,1,09,69,49,249,22,81,36,086,32,79,33,018,,82,28,147,39*6F
$GLGSV,3,2,09,80,25,309,17,68,24,190,29,70,23,316,,78,13,055,*6A
$GLGSV,3,3,09,88,11,037,*58
$GNRMC,031329.000,A,2257.0754,N,11353.8101,E,0.24,329.57,100517,,,A*7D
$GNVTG,329.57,T,,M,0.24,N,0.45,K,A*2E
$GNGGA,031330.000,2257.0754,N,11353.8104,E,1,15,0.70,33.7,M,-3.6,M,,*50
1494414792 113.896840 22.951256 33.70 0.70 0.85 14 39 38 36 32
speed:0.000000, dis=0.000000
$GPGSA,A,3,16,23,27,14,22,03,08,193,32,31,,,1.10,0.70,0.85*3D
$GLGSA,A,3,69,81,80,82,68,,,,,,,,1.10,0.70,0.85*1E
$GPGSV,4,1,14,16,65,310,31,26,54,011,,41,46,236,27,27,44,175,39*71
$GPGSV,4,2,14,14,41,143,38,31,38,064,17,23,27,319,29,22,24,237,24*78
$GPGSV,4,3,14,03,23,266,21,32,19,146,37,193,19,168,31,08,15,197,32*4A
$GPGSV,4,4,14,29,04,036,16,21,04,094,*7B
$GLGSV,3,1,09,69,49,249,22,81,36,086,34,79,33,018,,82,28,147,39*69
$GLGSV,3,2,09,80,25,309,17,68,24,190,29,70,23,316,,78,13,055,*6A
$GLGSV,3,3,09,88,11,037,*58
$GNRMC,031330.000,A,2257.0754,N,11353.8104,E,0.18,329.57,100517,,,A*7F
$GNVTG,329.57,T,,M,0.18,N,0.34,K,A*27
$GNGGA,031331.000,2257.0755,N,11353.8106,E,1,15,0.70,33.7,M,-3.6,M,,*52
1494414793 113.896843 22.951258 33.70 0.70 0.85 14 39 38 37 32
speed:0.000000, dis=0.000000
$GPGSA,A,3,16,23,27,14,22,03,08,193,32,31,,,1.10,0.70,0.85*3D
$GLGSA,A,3,69,81,80,82,68,,,,,,,,1.10,0.70,0.85*1E
$GPGSV,4,1,14,16,65,310,31,26,54,011,,41,46,236,28,27,44,175,39*7E
$GPGSV,4,2,14,14,41,143,38,31,38,064,16,23,27,319,28,22,24,236,17*79
$GPGSV,4,3,14,03,23,266,23,32,19,146,37,193,19,168,32,08,15,197,33*4A
$GPGSV,4,4,14,29,04,036,16,21,04,094,*7B
$GLGSV,3,1,09,69,49,249,23,81,36,086,35,79,33,018,,82,28,147,39*69
$GLGSV,3,2,09,80,25,309,17,68,24,190,28,70,23,316,,78,13,055,*6B
$GLGSV,3,3,09,88,11,037,*58
$GNRMC,031331.000,A,2257.0755,N,11353.8106,E,0.10,329.57,100517,,,A*75
$GNVTG,329.57,T,,M,0.10,N,0.18,K,A*21
$GNGGA,031332.000,2257.0755,N,11353.8106,E,1,15,0.70,33.7,M,-3.6,M,,*51
1494414794 113.896843 22.951258 33.70 0.70 0.85 14 39 38 37 33
speed:0.000000, dis=0.000000
$GPGSA,A,3,16,23,27,14,22,03,08,193,32,31,,,1.10,0.70,0.85*3D
$GLGSA,A,3,69,81,80,82,68,,,,,,,,1.10,0.70,0.85*1E
$GPGSV,4,1,14,16,65,310,32,26,54,011,,41,46,236,27,27,44,175,27*7D
$GPGSV,4,2,14,14,41,143,38,31,38,064,15,23,27,319,36,22,24,236,18*7A
$GPGSV,4,3,14,03,23,266,24,32,19,146,36,193,19,168,25,08,15,197,23*4B
$GPGSV,4,4,14,29,04,036,17,21,04,094,*7A
$GLGSV,3,1,09,69,49,249,22,81,36,086,36,79,33,018,,82,28,147,39*6B
$GLGSV,3,2,09,80,25,309,18,68,24,190,20,70,23,316,,78,13,055,*6C
$GLGSV,3,3,09,88,11,037,*58
$GNRMC,031332.000,A,2257.0755,N,11353.8106,E,0.07,329.57,100517,,,A*70
$GNVTG,329.57,T,,M,0.07,N,0.13,K$GNGGA,031333.000,2257.0756,N,11353.8107,E,1,14,0.79,33.7,M,-3.6,M,,*5A
1494414795 113.896845 22.951260 33.70 0.79 0.85 14 38 36 36 32
speed:0.000000, dis=0.000000
$GPGSA,A,3,16,23,27,14,22,03,08,193,32,,,,1.16,0.79,0.85*30
$GLGSA,A,3,69,81,80,82,68,,,,,,,,1.16,0.79,0.85*11
$GPGSV,4,1,14,16,65,310,33,26,54,011,,41,46,236,27,27,44,175,28*73
$GPGSV,4,2,14,14,41,143,36,31,38,064,14,23,27,319,37,22,24,236,19*75
$GPGSV,4,3,14,03,23,266,26,32,19,146,27,193,19,168,24,08,15,197,22*49
$GPGSV,4,4,14,29,04,036,13,21,04,094,*7E
$GLGSV,3,1,09,69,49,249,20,81,36,086,37,79,33,018,,82,28,147,32*63
$GLGSV,3,2,09,80,25,309,28,68,24,190,20,70,23,316,,78,13,055,*6F
$GLGSV,3,3,09,88,11,037,*58
$GNRMC,031333.000,A,2257.0756,N,11353.8107,E,0.52,329.57,100517,,,A*73
$GNVTG,329.57,T,,M,0.52,N,0.97,K,A*20
$GNGGA,031334.000,2257.0755,N,11353.8107,E,1,14,0.79,33.7,M,-3.6,M,,*5E
1494414796 113.896845 22.951258 33.70 0.79 0.85 14 37 36 33 28
speed:0.000000, dis=0.000000
$GPGSA,A,3,16,23,27,14,22,03,08,193,32,,,,1.16,0.79,0.85*30
$GLGSA,A,3,69,81,80,82,68,,,,,,,,1.16,0.79,0.85*11
$GPGSV,4,1,14,16,65,310,31,26,54,011,,41,46,236,27,27,44,175,39*71
$GPGSV,4,2,14,14,41,143,37,31,38,064,17,23,27,319,26,22,24,236,21*7C
$GPGSV,4,3,14,03,23,266,19,32,19,146,34,193,19,168,25,08,15,197,30*45
$GPGSV,4,4,14,29,04,036,14,21,04,094,*79
$GLGSV,3,1,09,69,49,249,19,81,36,086,35,79,33,018,,82,28,147,33*6A
$GLGSV,3,2,09,80,25,309,21,68,24,190,34,70,23,316,20,78,13,055,*61
$GLGSV,3,3,09,88,11,037,*58
$GNRMC,031334.000,A,2257.0755,N,11353.8107,E0.60,6,,M,0.60,N,1.11,K,A*16
$GNGGA,031335.000,2257.0756,N,11353.8108,E,1,15,0.70,33.7,M,-3.6,M,,*5B
1494414797 113.896846 22.951260 33.70 0.70 0.85 14 39 37 34 31
speed:0.000000, dis=0.000000
$GPGSA,A,3,16,23,27,14,22,03,08,193,32,31,,,1.10,0.70,0.85*3D
$GLGSA,A,3,69,81,80,82,68,,,,,,,,1.10,0.70,0.85*1E
$GPGSV,4,1,14,16,65,310,31,26,54,012,,41,46,236,27,27,44,175,38*73
$GPGSV,4,2,14,14,41,143,36,31,38,064,16,23,27,319,28,22,24,236,22*71
$GPGSV,4,3,14,03,23,266,19,32,19,146,35,193,19,168,25,08,15,197,30*44
$GPGSV,4,4,14,29,04,036,16,21,04,094,*7B
$GLGSV,3,1,09,69,49,249,19,81,36,086,36,79,33,018,,82,28,147,34*6E
$GLGSV,3,2,09,80,25,309,20,68,24,190,33,70,23,316,,78,13,055,*65
$GLGSV,3,3,09,88,11,037,*58
$GNRMC,031335.000,A,2257.0756,N,11353.8108,E,0.49,62.71,100517,,,A*48
$GNVTG,62.71,T,,M,0.49,N,0.91,K,A*14
$GNGGA,031336.000,2257.0755,N,11353.8108,E,1,15,0.70,33.7,M,-3.6,M,,*5B
1494414798 113.896846 22.951258 33.70 0.70 0.85 14 38 36 35 31
speed:0.000000, dis=0.000000
$GPGSA,A,3,16,23,27,14,22,03,08,193,32,31,,,1.10,0.70,0.85*3D
$GLGSA,A,3,69,81,80,82,68,,,,,,,,1.10,0.70,0.85*1E
$GPGSV,4,1,14,16,65,310,32,26,54,012,,41,46,236,26,27,45,175,31*79
$GPGSV,4,2,14,14,41,143,36,31,38,064,15,23,27,319,30,22,24,236,21*78
$GPGSV,4,3,14,03,23,266,28,32,19,146,35,193,19,168,24,08,15,197,28*4E
$GPGSV,4,4,14,29,04,036,15,21,04,094,*78
$GLGSV,3,1,09,69,49,249,18,81,36,086,36,79,33,018,,82,28,147,35*6E
$GLGSV,3,2,09,80,25,309,21,68,24,190,32,70,23,316,21,78,13,055,*66
$GLGSV,3,3,09,88,11,037,*58
$GNRMC,031336.000,A,2257.0755,N,11353.8108,E,0.41,62.71,100517,,,A*40
$GNVTG,62.71,T,,M,0.41,N,0.77,K,A*14
$GNGGA,031337.000,2257.0754,N,11353.8108,E,1,15,0.70,33.7,M,-3.6,M,,*5B
1494414799 113.896846 22.951256 33.70 0.70 0.85 14 36 35 32 31
speed:0.000000, dis=0.000000
$GPGSA,A,3,16,23,27,14,22,03,08,193,32,31,,,1.10,0.70,0.85*3D
$GLGSA,A,3,69,81,80,82,68,,,,,,,,1.10,0.70,0.85*1E
$GPGSV,4,1,14,16,65,310,33,26,54,012,,41,46,236,25,27,45,175,33*79
$GPGSV,4,2,14,14,41,143,36,31,38,064,17,23,27,319,32,22,24,236,18*72
$GPGSV,4,3,14,03,23,266,27,32,19,146,35,193,19,168,23,08,15,197,26*48
$GPGSV,4,4,14,29,04,036,14,21,04,094,*79
$GLGSV,3,1,09,69,49,249,17,81,36,086,37,79,33,018,,82,28,147,35*60
$GLGSV,3,2,09,80,25,309,22,68,24,190,22,70,23,316,23,78,13,055,*66
$GLGSV,3,3,09,88,11,037,*58
$GNRMC,031337.000,A,2257.0754,N,11353.8108,E,0.16,62.71,100517,,,A*42
$GNVTG,62.71,T,,M,0.16,N,.30,K,$GNGGA,031338.000,2257.0754,N,11353.8110,E,1,15,0.70,33.7,M,-3.6,M,,*5D
1494414800 113.896850 22.951256 33.70 0.70 0.85 14 36 35 33 33
speed:0.000000, dis=0.000000
$GPGSA,A,3,16,23,27,14,22,03,08,193,32,31,,,1.10,0.70,0.85*3D
$GLGSA,A,3,69,81,80,82,68,,,,,,,,1.10,0.70,0.85*1E
$GPGSV,4,1,14,16,65,310,33,26,54,012,,41,46,236,25,27,45,175,34*7E
$GPGSV,4,2,14,14,41,143,37,31,38,064,16,23,27,319,32,22,24,236,21*78
$GPGSV,4,3,14,03,23,266,28,32,19,146,35,193,19,168,24,08,15,197,27*41
$GPGSV,4,4,14,29,04,036,16,21,04,094,*7B
$GLGSV,3,1,09,69,49,249,16,81,36,086,37,79,33,018,,82,28,147,34*60
$GLGSV,3,2,09,80,25,309,22,68,24,190,23,70,23,316,21,78,13,055,*65
$GLGSV,3,3,09,88,11,037,*58
$GNRMC,031338.000,A,2257.0754,N,11353.8110,E,0.17,62.71,100517,,,A*45
$GNVTG,62.71,T,,M,0.17,N,0.32,K,A*16
$GNGGA,031339.000,2257.0754,N,11353.8111,E,1,15,0.70,33.6,M,-3.6,M,,*5C
1494414801 113.896851 22.951256 33.60 0.70 0.85 14 37 35 34 33
speed:0.000000, dis=0.000000
$GPGSA,A,3,16,23,27,14,22,03,08,193,32,31,,,1.10,0.70,0.85*3D
$GLGSA,A,3,69,81,80,82,68,,,,,,,,1.10,0.70,0.85*1E
$GPGSV,4,1,14,16,65,310,33,26,54,012,,41,46,236,24,27,45,175,34*7F
$GPGSV,4,2,14,14,41,143,37,31,38,064,15,23,27,319,33,22,24,236,20*7B
$GPGSV,4,3,14,03,23,266,28,32,19,146,36,193,19,168,24,08,15,197,26*43
$GPGSV,4,4,14,29,04,036,16,21,04,094,*7B
$GLGSV,3,1,09,69,49,249,14,81,36,086,37,79,33,018,,82,28,147,34*62
$GLGSV,3,2,09,80,25,309,23,68,24,190,23,70,23,316,24,78,13,055,*61
$GLGSV,3,3,09,88,11,037,*58
$GNRMC,031339.000,A,2257.0754,N,11353.8111,E0.22,6T,,M,0.22,N,0.41,K,A*14
$GNGGA,031340.000,2257.0754,N,11353.8110,E,1,15,0.69,33.6,M,-3.6,M,,*5B
1494414802 113.896850 22.951256 33.60 0.69 0.85 14 37 36 34 33
speed:0.000000, dis=0.000000
$GPGSA,A,3,16,23,27,14,22,26,03,08,193,32,31,,1.11,0.69,0.87*32
$GLGSA,A,3,81,80,82,68,,,,,,,,,1.11,0.69,0.87*1A
$GPGSV,4,1,14,16,65,310,33,26,54,012,13,41,46,236,24,27,45,175,33*7A
$GPGSV,4,2,14,14,41,143,36,31,38,064,16,23,27,319,34,22,24,236,20*7E
$GPGSV,4,3,14,03,23,266,27,32,19,146,36,193,19,168,24,08,15,197,25*4F
$GPGSV,4,4,14,29,04,036,16,21,04,094,*7B
$GLGSV,3,1,09,69,49,249,,81,36,086,38,79,33,018,,82,28,147,33*6F
$GLGSV,3,2,09,80,25,309,24,68,24,190,23,70,23,316,,78,13,055,*60
$GLGSV,3,3,09,88,11,037,*58
$GNRMC,031340.000,A,2257.0754,N,11353.8110,E,0.14,62.7,M,0.14,N,0.25,K,A*13
$GNGGA,031341.000,2257.0753,N,11353.8111,E,1,15,0.69,33.6,M,-3.6,M,,*5C
1494414803 113.896851 22.951255 33.60 0.69 0.87 14 36 36 34 33
speed:0.000000, dis=0.000000
$GPGSA,A,3,16,23,27,14,22,26,03,08,193,32,31,,1.11,0.69,0.87*32
$GLGSA,A,3,81,80,82,68,,,,,,,,,1.11,0.69,0.87*1A
$GPGSV,4,1,14,16,65,310,32,26,54,012,15,41,46,236,23,27,45,175,40*7E
$GPGSV,4,2,14,14,41,143,35,31,38,064,16,23,27,319,32,22,24,236,24*7F
$GPGSV,4,3,14,03,23,266,25,193,19,168,25,32,18,146,35,08,15,197,26*4D
$GPGSV,4,4,14,29,04,036,15,21,04,094,15*7C
$GLGSV,3,1,09,69,49,249,,81,36,086,36,79,33,018,,82,28,147,34*66
$GLGSV,3,2,09,80,25,309,23,68,24,190,30,70,23,316,20,78,13,055,*67
$GLGSV,3,3,09,88,11,037,*58
$GNRMC,031341.000,A,2257.0753,N,11353.8111,E,0.41,62.71,100517,,,A*4E
$GNVTG,62.71,T,,M,0.41,N,0.76$GNGGA,031342.000,2257.0750,N,11353.8111,E,1,12,0.87,33.6,M,-3.6,M,,*5B
1494414804 113.896851 22.951250 33.60 0.87 0.87 14 40 35 35 32
speed:0.000000, dis=0.000000
$GPGSA,A,3,16,27,14,22,26,03,08,193,32,,,,1.26,0.87,0.91*32
$GLGSA,A,3,81,82,68,,,,,,,,,,1.26,0.87,0.91*11
$GPGSV,4,1,14,16,65,310,32,26,54,012,19,41,46,236,32,27,45,175,39*7C
$GPGSV,4,2,14,14,41,143,36,31,38,064,19,23,27,319,20,22,24,236,25*71
$GPGSV,4,3,14,03,23,266,24,193,19,168,36,32,18,146,42,08,15,197,34*4D
$GPGSV,4,4,14,29,04,036,14,21,04,094,16*7E
$GLGSV,3,1,09,69,49,249,,81,36,086,35,79,33,018,,82,28,147,41*67
$GLGSV,3,2,09,80,25,309,18,68,24,190,30,70,23,316,,78,13,055,*6D
$GLGSV,3,3,09,88,11,037,*58
$GNRMC,031342.000,A,2257.0750,N,11353.8111,E,0.13,62.7$GNGGA,031343.000,2257.0750,N,11353.8111,E,1,12,0.86,33.6,M,-3.6,M,,*5B
1494414805 113.896851 22.951250 33.60 0.86 0.91 14 42 39 36 36
speed:0.000000, dis=0.000000
$GPGSA,A,3,16,23,27,14,22,03,08,193,32,,,,1.23,0.86,0.88*3B
$GLGSA,A,3,81,82,68,,,,,,,,,,1.23,0.86,0.88*1D
$GPGSV,4,1,14,16,65,310,25,26,54,012,16,41,46,236,25,27,45,175,39*73
$GPGSV,4,2,14,14,41,143,36,31,38,064,16,23,27,319,21,22,24,236,27*7D
$GPGSV,4,3,14,03,23,266,24,193,19,168,35,32,18,146,41,08,15,197,34*4D
$GPGSV,4,4,14,29,04,036,,21,04,094,*7C
$GLGSV,3,1,09,69,49,249,,81,36,086,22,79,33,018,,82,28,147,41*61
$GLGSV,3,2,09,80,25,309,,68,24,190,31,70,23,316,,78,13,055,*65
$GLGSV,3,3,09,88,11,037,*58
$GNGGA,031344.000,2257.0749,N,11353.8112,E,1,13,0.81,33.6,M,-3.6,M,,*51
$GNGGA,031344.000,2257.0749,N,11353.8112,E,1,13,0.81,33.6,M,-3.6,M,,*51
1494414806 113.896853 22.951248 33.60 0.81 0.88 14 41 39 36 35
speed:0.000000, dis=0.000000
$GPGSA,A,3,16,23,27,14,22,03,08,193,32,,,,1.19,0.81,0.88*35
$GLGSA,A,3,81,80,82,68,,,,,,,,,1.19,0.81,0.88*1B
$GPGSV,4,1,14,16,65,310,24,26,54,012,16,41,46,236,25,27,45,175,40*7C
$GPGSV,4,2,14,14,41,143,36,31,38,064,13,23,27,319,26,22,24,236,28*70
$GPGSV,4,3,14,03,23,266,24,193,19,168,34,32,18,146,39,08,15,197,35*42
$GPGSV,4,4,14,29,04,036,17,21,04,094,*7A
$GLGSV,3,1,09,69,49,249,,81,36,086,23,79,33,018,,82,2,,M,0.14,N,0.26,K,A*10
$GNGGA,031345.000,2257.0749,N,11353.8112,E,1,13,0.81,33.6,M,-3.6,M,,*50
1494414807 113.896853 22.951248 33.60 0.81 0.88 14 40 39 36 35
speed:0.000000, dis=0.000000
$GPGSA,A,3,16,23,27,14,22,03,08,193,32,,,,1.19,0.81,0.88*35
$GLGSA,A,3,81,80,82,68,,,,,,,,,1.19,0.81,0.88*1B
$GPGSV,4,1,14,16,65,310,24,26,54,012,15,41,46,236,25,27,45,175,39*71
$GPGSV,4,2,14,14,41,143,37,31,38,064,12,23,27,319,25,22,24,236,28*73
$GPGSV,4,3,14,03,23,266,24,193,19,168,33,32,18,146,37,08,15,197,35*4B
$GPGSV,4,4,14,29,04,036,17,21,04,094,*7A
$GLGSV,3,1,09,69,49,249,,81,36,086,25,79,33,018,,82,28,147,39*69
$GLGSV,3,2,09,84,190,32,70,23,316,20,78,13,055,*6C
$GLGSV,3,3,09,88,11,037,*58
$GNRMC,$GNGGA,031346.000,2257.0750,N,11353.8111,E,1,14,0.76,33.6,M,-3.6,M,,*57
1494414808 113.896851 22.951250 33.60 0.76 0.88 14 39 37 37 35
speed:0.000000, dis=0.000000
$GPGSA,A,3,16,23,27,14,22,26,03,08,193,32,,,1.15,0.76,0.87*3A
$GLGSA,A,3,81,80,82,68,,,,,,,,,1.15,0.76,0.87*10
$GPGSV,4,1,14,16,65,310,33,26,54,012,15,41,46,236,24,27,45,175,38*77
$GPGSV,4,2,14,14,41,143,36,31,38,064,,23,27,319,33,22,24,236,27*79
$GPGSV,4,3,14,03,23,266,22,193,19,168,31,32,18,146,37,08,15,197,25*4E
$GPGSV,4,4,14,29,04,036,17,21,04,094,*7A
$GLGSV,3,1,09,69,49,249,,81,36,086,38,79,33,018,,82,28,147,39*65
$GLGSV,36.000,A,2257.0750,N,11353.8111,E,0.14,62.71,100517,,,A*4A
$GNVTG,62.71,T,,M,0.1$GNGGA,031347.000,2257.0750,N,11353.8111,E,1,13,0.76,33.6,M,-3.6,M,,*51
1494414809 113.896851 22.951250 33.60 0.76 0.87 14 38 37 36 33
speed:0.000000, dis=0.000000
$GPGSA,A,3,16,23,27,14,22,03,08,193,32,,,,1.15,0.76,0.87*3E
$GLGSA,A,3,69,81,82,68,,,,,,,,,1.15,0.76,0.87*17
$GPGSV,4,1,14,16,65,310,31,26,54,012,14,41,46,236,24,27,45,175,39*75
$GPGSV,4,2,14,14,41,143,36,31,38,064,,23,27,319,26,22,24,236,27*7D
$GPGSV,4,3,14,03,23,266,23,193,19,168,31,32,18,146,37,08,15,197,34*4F
$GPGSV,4,4,14,29,04,036,17,21,04,094,*7A
$GLGSV,3,1,09,69,49,249,21,81,36,086,31,79,33,018,,82,28,147,39*6F
$GLGSV,3,2,09,80,25,309,17,68,24,190,30,70,23,316,19,78,13,055,*6A
$GLGSV,3,3,09,88,11,037,*58
$GNRMC,031347.000,A,2257.0750,N,11353.8111,E,0.23,62.71,100517,,,A*4F
$GNVTG,62.71,T,,M,0.23,N,0.42,K,A*16
$GNGGA,031348.000,2257.0749,N,11353.8112,E,1,12,0.85,33.7,M,-3.6,M,,*59
1494414810 113.896853 22.951248 33.70 0.85 0.87 14 39 37 36 34
speed:0.000000, dis=0.000000
$GPGSA,A,3,16,23,27,14,22,03,08,193,32,,,,1.23,0.85,0.88*38
$GLGSA,A,3,81,82,68,,,,,,,,,,1.23,0.85,0.88*1E
$GPGSV,4,1,14,16,65,310,31,26,54,012,13,41,46,236,,27,45,175,40*7A
$GPGSV,4,2,14,14,41,143,36,31,38,064,,23,27,319,28,22,24,236,27*73
$GPGSV,4,3,14,03,23,266,24,193,19,168,29,32,18,146,37,08,15,197,34*41
$GPGSV,4,4,14,29,04,036,14,21,04,094,*79
$GLGSV,3,1,09,69,49,249,18,81,36,086,32,79,33,018,,82,28,147,39*66
$GLGSV,3,2,09,80,25,309,,68,24,190,29,70,23,316,,78,13,055,*6C
$GLGSV,3,3,09,88,11,037,*58
$GNRMC,031348.000,A,2257.0749,N,11353.8112,E,0.05,62.71,100517,,,A*4F
$GNVTG,62.71,T,,M,0.05,N,0.10,KA*15
$GNGGA,031349.000,2257.0748,N,11353.8113,E,1,13,0.84,33.7,M,-3.6,M,,*58
1494414811 113.896855 22.951246 33.70 0.84 0.88 14 40 37 36 34
speed:0.000000, dis=0.000000
$GPGSA,A,3,16,23,27,14,22,03,08,193,32,,,,1.20,0.84,0.86*34
$GLGSA,A,3,69,81,82,68,,,,,,,,,1.20,0.84,0.86*1D
$GPGSV,4,1,14,16,65,310,30,26,54,012,15,41,46,236,23,27,45,175,40*7C
$GPGSV,4,2,14,14,41,143,36,31,38,064,,23,27,319,27,22,24,236,27*7C
$GPGSV,4,3,14,03,23,266,25,193,19,168,29,32,18,146,36,08,15,197,34*41
$GPGSV,4,4,14,29,04,036,14,21,04,094,*79
$GLGSV,3,1,09,69,49,249,18,81,36,086,32,79,33,018,,82,28,147,39*66
$GLGSV,3,2,09,80,25,309,,68,24,190,29,70,23,316,,78,13,055,*6C
$GLGSV,3,3,09,88,11,037,*58
$GNRMC,031349.000,A,2257.0748,N,11353.8113,E,0.20,62.71,100517,,,A*49
$GNVTG,62.71,T,,M,0.20,N,0.37,K,A*17
$GNGGA,031350.000,2257.0748,N,11353.8114,E,1,14,0.77,33.7,M,-3.6,M,,*5C
1494414812 113.896856 22.951246 33.70 0.77 0.86 14 40 36 36 34
speed:0.000000, dis=0.000000
$GPGSA,A,3,16,23,27,14,22,26,03,08,193,32,,,1.15,0.77,0.86*3A
$GLGSA,A,3,69,81,82,68,,,,,,,,,1.15,0.77,0.86*17
$GPGSV,4,1,14,16,65,310,30,26,54,012,15,41,46,236,23,27,45,175,40*7C
$GPGSV,4,2,14,14,41,143,37,31,38,064,,23,27,319,26,22,24,236,27*7C
$GPGSV,4,3,14,03,23,266,25,193,19,168,29,32,18,146,36,08,15,197,33*46
$GPGSV,4,4,14,29,04,036,,21,04,094,*7C
$GLGSV,3,1,09,69,49,249,20,81,36,086,32,79,33,018,,82,28,147,39*6D
$GLGSV,3,2,09,80,25,309,,68,24,190,28,70,23,316,,78,13,055,*6D
$GLGSV,3,3,09,88,11,037,*58
$GNRMC,031350.000,A,2257.0748,N,11353.8114,E,0.21,62.71,100517,,,A*47
$GNVTG,62.71,T,,M,0.21,N,0.39,K,A*18
$GNGGA,031351.000,2257.0746,N,11353.8113,E,1,14,0.77,33.7,M,-3.6,M,,*54
1494414813 113.896855 22.951243 33.70 0.77 0.86 14 40 37 36 33
speed:0.000000, dis=0.000000
$GPGSA,A,3,16,23,27,14,22,26,03,08,193,32,,,1.15,0.77,0.86*3A
$GLGSA,A,3,69,81,82,68,,,,,,,,,1.15,0.77,0.86*17
$GPGSV,4,1,14,16,65,310,28,26,54,012,15,41,46,236,31,27,45,175,39*78
$GPGSV,4,2,14,14,41,143,37,31,38,064,,23,27,319,26,22,24,236,29*72
$GPGSV,4,3,14,03,23,266,24,193,19,168,29,32,18,146,37,08,15,197,33*46
$GPGSV,4,4,14,29,04,036,,21,04,094,*7C
$GLGSV,3,1,09,69,49,249,17,81,36,086,31,79,33,018,,82,28,147,39*6A
$GLGSV,3,2,09,80,25,309,,68,24,190,29,70,23,316,,78,13,055,*6C
$GLGSV,3,3,09,88,11,037,*58
$GNRMC,031351.000,A,2257.0746,N,11353.8113,E,0.27,62.71,100517,,,A*49
$GNVTG,62.71,T,,M,0.27,N,0.50,K,A*11
$GNGGA,031352.000,2257.0745,N,11353.8112,E,1,14,0.77,33.7,M,-3.6,M,,*55
1494414814 113.896853 22.951241 33.70 0.77 0.86 14 39 37 37 33
speed:0.000000, dis=0.000000
$GPGSA,A,3,16,23,27,14,22,26,03,08,193,32,,,1.15,0.77,0.86*3A
$GLGSA,A,3,69,81,82,68,,,,,,,,,1.15,0.77,0.86*17
$GPGSV,4,1,14,16,65,310,29,26,54,012,17,41,46,236,31,27,45,175,38*7A
$GPGSV,4,2,14,14,41,143,40,31,38,064,15,23,27,319,25,22,24,236,29*75
$GPGSV,4,3,14,03,23,266,24,193,19,168,37,32,18,146,38,08,15,197,33*46
$GPGSV,4,4,14,29,04,036,,21,04,094,*7C
$GLGSV,3,1,09,69,49,249,21,81,36,086,30,79,33,018,,82,28,147,39*6E
$GLGSV,3,2,09,80,25,309,17,68,24,190,30,70,23,316,,78,13,055,*62
$GLGSV,3,3,09,88,11,037,*58
$GNRMC,031352.000,A,2257.0745,N,11353.8112,E,0.07,62.71,100517,,,A*4A
$GNVTG,62.71,T,,M,0.07,N,0.13,K,A*14
$GNGGA,031353.000,2257.0746,N,11353.8113,E,1,14,0.77,33.7,M,-3.6,M,,*56
1494414815 113.896855 22.951243 33.70 0.77 0.86 14 40 38 38 37
speed:0.000000, dis=0.000000
$GPGSA,A,3,16,23,27,14,22,26,03,08,193,32,,,1.15,0.77,0.86*3A
$GLGSA,A,3,69,81,82,68,,,,,,,,,1.15,0.77,0.86*17
$GPGSV,4,1,14,16,65,310,30,26,54,012,16,41,46,236,32,27,45,175,39*71
$GPGSV,4,2,14,14,41,143,38,31,38,064,14,23,27,319,24,22,24,236,27*74
$GPGSV,4,3,14,03,23,266,23,193,19,168,30,32,18,146,38,08,15,197,35*40
$GPGSV,4,4,14,29,04,036,,21,04,094,*7C
$GLGSV,3,1,09,69,49,249,20,81,36,086,29,79,33,018,,82,28,147,39*67
$GLGSV,3,2,09,80,25,309,17,68,24,190,31,70,23,316,,78,13,055,*63
$GLGSV,3,3,09,88,11,037,*58
$GNRMC,031353.000,A,2257.0746,N,11353.8113,E,0.42,62.71,100517,,,A*48
$GNVTG,62.71,T,,M,0.42,N,0.77,K,A*17
$GNGGA,031354.000,2257.0745,N,11353.8112,E,1,15,0.73,33.8,M,-3.6,M,,*59
1494414816 113.896853 22.951241 33.80 0.73 0.86 14 39 38 38 35
speed:0.000000, dis=0.000000
$GPGSA,A,3,16,23,27,14,22,26,03,08,193,32,,,1.12,0.73,0.84*3B
$GLGSA,A,3,69,81,80,82,68,,,,,,,,1.12,0.73,0.84*1E
$GPGSV,4,1,14,16,65,310,20,26,54,012,16,41,46,236,29,27,45,175,40*74
$GPGSV,4,2,14,14,41,143,38,31,38,064,17,23,27,319,23,22,24,236,28*7F
$GPGSV,4,3,14,03,23,266,32,193,19,168,31,32,18,146,38,08,15,197,35*41
$GPGSV,4,4,14,29,04,036,,21,04,094,*7C
$GLGSV,3,1,09,69,49,249,20,81,36,086,29,79,33,018,,82,28,147,40*69
$GLGSV,3,2,09,80,25,309,15,68,24,190,32,70,23,316,,78,13,055,*62
$GLGSV,3,3,09,88,11,037,*58
$GNRMC,031354.000,A,2257.0745,N,11353.8112,E,031,62.,M,0.31,N,0.57,K,A*11
$GNGGA,031355.000,2257.0746,N,11353.8112,E,1,16,0.67,33.8,M,-3.6,M,,*5D
1494414817 113.896853 22.951243 33.80 0.67 0.84 14 40 38 38 35
speed:0.000000, dis=0.000000
$GPGSA,A,3,16,23,27,14,22,26,03,08,193,32,31,,1.07,0.67,0.84*38
$GLGSA,A,3,69,81,80,82,68,,,,,,,,1.07,0.67,0.84*1F
$GPGSV,4,1,14,16,65,310,22,26,54,012,16,41,46,236,28,27,45,175,39*79
$GPGSV,4,2,14,14,41,143,37,31,38,064,17,23,27,319,23,22,24,236,28*70
$GPGSV,4,3,14,03,23,266,30,193,19,168,31,32,18,146,37,08,15,197,33*4A
$GPGSV,4,4,14,29,04,036,,21,04,094,*7C
$GLGSV,3,1,09,69,49,249,20,81,36,086,30,79,33,018,,82,28,147,40*61
$GLGSV,3,2,09,80,25,309,17,68,24,190,32,70,23,316,,78,13,055,*60
$GLGSV,3,3,09,88,11,037,*58
$GNRMC,031355.000,A,2257.0746,N,11353.8112,E,0.42,62.71,100517,,,A*4F
$GNVTG,62.71,T,,M,0.42,N,0.78,K,A*18
$GNGGA,031356.000,2257.0746,N,11353.8112,E,1,16,0.67,33.8,M,-3.6,M,,*5E
1494414818 113.896853 22.951243 33.80 0.67 0.84 14 39 37 37 33
speed:0.000000, dis=0.000000
$GPGSA,A,3,16,23,27,14,22,26,03,08,193,32,31,,1.07,0.67,0.84*38
$GLGSA,A,3,69,81,80,82,68,,,,,,,,1.07,0.67,0.84*1F
$GPGSV,4,1,14,16,65,310,24,26,54,012,15,41,46,236,27,27,45,175,39*73
$GPGSV,4,2,14,14,41,143,36,31,38,064,16,23,27,319,23,22,24,236,28*70
$GPGSV,4,3,14,03,23,266,28,193,19,168,31,32,18,146,37,08,15,197,34*44
$GPGSV,4,4,14,29,04,036,,21,04,094,*7C
$GLGSV,3,1,09,69,49,249,19,81,36,086,31,79,33,018,,82,28,147,39*64
$GLGSV,3,2,09,80,25,309,17,68,24,190,33,70,23,316,,78,13,055,*61
$GLGSV,3,3,09,88,11,037,*58
$GNRMC,031356.000,A,2257.0746,N,11353.8112,E,0.44,62.71,100517,,,A*4A
$GNVTG,62.71,T,,M,0.44,N,0.82,K,A*1B
$GNGGA,031357.000,2257.0747,N,11353.8111,E,1,16,0.67,33.8,M,-3.6,M,,*5D
1494414819 113.896851 22.951245 33.80 0.67 0.84 14 39 37 36 34
speed:0.000000, dis=0.000000
$GPGSA,A,3,16,23,27,14,22,26,03,08,193,32,31,,1.07,0.67,0.84*38
$GLGSA,A,3,69,81,80,82,68,,,,,,,,1.07,0.67,0.84*1F
$GPGSV,4,1,14,16,65,310,33,26,54,012,15,41,46,236,27,27,45,175,38*74
$GPGSV,4,2,14,14,41,143,36,31,38,064,16,23,27,319,31,22,24,236,21*7A
$GPGSV,4,3,14,03,23,266,27,193,19,168,30,32,18,146,36,08,15,197,33*4C
$GPGSV,4,4,14,29,04,036,,21,04,094,*7C
$GLGSV,3,1,09,69,49,249,19,81,36,086,33,79,33,018,,82,28,147,38*67
$GLGSV,3,2,09,80,25,309,17,68,24,190,31,70,23,316,,78,13,055,*63
$GLGSV,3,3,09,88,11,037,*58
$GNRMC,031357.000,A,2257.0747,N,11353.8111,E,0.60,325.51,100517,,,A*7D
$GNVTG,325.51,T,,M,0.60,N,1.12,K,A*27
$GNGGA,031358.000,2257.0748,N,11353.8110,E,1,15,0.70,33.8,M,-3.6,M,,*59
1494414820 113.896850 22.951246 33.80 0.70 0.84 14 38 36 36 33
speed:0.000000, dis=0.000000
$GPGSA,A,3,16,23,27,14,22,03,08,193,32,31,,,1.10,0.70,0.85*3D
$GLGSA,A,3,69,81,80,82,68,,,,,,,,1.10,0.70,0.85*1E
$GPGSV,4,1,14,16,65,310,33,26,54,012,16,41,46,236,26,27,45,175,38*76
$GPGSV,4,2,14,14,41,143,38,31,38,064,16,23,27,319,31,22,24,236,21*74
$GPGSV,4,3,14,03,23,266,28,193,19,168,28,32,18,146,37,08,15,197,21*48
$GPGSV,4,4,14,29,04,036,,21,04,094,*7C
$GLGSV,3,1,09,69,49,249,19,81,36,086,41,79,33,018,,82,28,147,39*63
$GLGSV,3,2,09,80,25,309,17,68,24,190,24,70,23,316,,78,13,055,*67
$GLGSV,3,3,09,88,11,037,*58
$GNRMC,031358.000,A,2257.0748,N,11353.8110,E,0.23,325.51,100517,,,A*7B
$GNVTG,325.51,T,,M,0.23,N,0.43,K,A*25
$GNGGA,031359.000,2257.0747,N,11353.8111,E,1,15,0.70,33.8,M,-3.6,M,,*56
1494414821 113.896851 22.951245 33.80 0.70 0.85 14 38 38 37 33
speed:0.000000, dis=0.000000
$GPGSA,A,3,16,23,27,14,22,03,08,193,32,31,,,1.10,0.70,0.85*3D
$GLGSA,A,3,69,81,80,82,68,,,,,,,,1.10,0.70,0.85*1E
$GPGSV,4,1,14,16,65,310,32,26,54,012,14,41,46,236,26,27,45,175,38*75
$GPGSV,4,2,14,14,41,143,39,31,38,064,16,23,27,319,31,22,24,236,21*75
$GPGSV,4,3,14,03,23,266,29,193,19,168,27,32,18,146,37,08,15,197,21*46
$GPGSV,4,4,14,29,04,036,,21,04,094,*7C
$GLGSV,3,1,09,69,49,249,20,81,36,086,40,79,33,018,,82,28,147,39*68
$GLGSV,3,2,09,80,25,309,17,68,24,190,26,70,23,316,20,78,13,055,*67
$GLGSV,3,3,09,88,11,037,*58
$GNRMC,031359.000,A,2257.0747,N,11353.8111,E,0.04,1,T,,M,0.04,N,0.08,K,A*2F
$GNGGA,031400.000,2257.0747,N,11353.8111,E,1,15,0.70,33.8,M,-3.6,M,,*5D
1494414822 113.896851 22.951245 33.80 0.70 0.85 14 39 38 37 32
speed:0.000000, dis=0.000000
$GPGSA,A,3,16,23,27,14,22,03,08,193,32,31,,,1.10,0.70,0.85*3D
$GLGSA,A,3,69,81,80,82,68,,,,,,,,1.10,0.70,0.85*1E
$GPGSV,4,1,14,16,65,310,31,26,54,012,13,41,46,236,26,27,45,175,38*71
$GPGSV,4,2,14,14,41,143,39,31,38,064,16,23,27,319,31,22,24,236,20*74
$GPGSV,4,3,14,03,23,266,30,193,19,168,26,32,18,146,37,08,15,197,22*4C
$GPGSV,4,4,14,29,04,036,,21,04,094,*7C
$GLGSV,3,1,09,69,49,249,20,81,36,086,39,79,33,018,,82,28,147,39*66
$GLGSV,3,2,09,80,25,309,16,68,24,190,27,70,23,316,21,78,13,055,*66
$GLGSV,3,3,09,88,11,037,*58
$GNRMC,031400.000,A,2257.0747,N,11353.8111,E,0.02,325.51,100517,,,A*7C
$GNVTG,325.51,T,,M,0.02,N,0.04,K,A*25
$GNGGA,031401.000,2257.0747,N,11353.8112,E,1,15,0.70,33.9,M,-3.6,M,,*5E
1494414823 113.896853 22.951245 33.90 0.70 0.85 14 39 38 37 31
speed:0.000000, dis=0.000000
$GPGSA,A,3,16,23,27,14,22,03,08,193,32,31,,,1.10,0.70,0.85*3D
$GLGSA,A,3,69,81,80,82,68,,,,,,,,1.10,0.70,0.85*1E
$GPGSV,4,1,14,16,65,310,31,26,54,012,17,41,46,236,26,27,45,175,38*75
$GPGSV,4,2,14,14,41,143,40,31,38,064,16,23,27,319,31,22,24,236,20*7A
$GPGSV,4,3,14,03,23,266,30,193,19,168,25,32,18,146,37,08,15,197,22*4F
$GPGSV,4,4,14,29,04,036,,21,04,094,*7C
$GLGSV,3,1,09,69,49,249,20,81,36,086,39,79,33,018,,82,28,147,39*66
$GLGSV,3,2,09,80,25,309,15,68,24,190,28,70,23,316,20,78,13,055,*6B
$GLGSV,3,3,09,88,11,037,*58
$GNRMC,031401.000,A,2257.0747,N,11353.8112,E,0.08,325.51,100517,,,A*74
$GNVTG,325.51,T,,M,0.08,N,0.15,K,A*2F
$GNGGA,031402.000,2257.0747,N,11353.8112,E,1,14,0.74,33.9,M,-3.6,M,,*58
1494414824 113.896853 22.951245 33.90 0.74 0.85 14 40 38 37 31
speed:0.000000, dis=0.000000
$GPGSA,A,3,16,23,27,14,22,03,08,193,32,31,,,1.13,0.74,0.86*39
$GLGSA,A,3,69,81,82,68,,,,,,,,,1.13,0.74,0.86*12
$GPGSV,4,1,14,16,65,310,32,26,54,012,15,41,46,236,26,27,45,175,37*7B
$GPGSV,4,2,14,14,41,143,40,31,38,064,16,23,27,319,31,22,24,236,19*70
$GPGSV,4,3,14,03,23,266,30,193,19,168,25,32,18,146,37,08,15,197,22*4F
$GPGSV,4,4,14,29,04,036,,21,04,094,*7C
$GLGSV,3,1,09,69,49,249,20,81,36,086,39,79,33,018,,82,28,147,39*66
$GLGSV,3,2,09,80,25,309,,68,24,190,29,70,23,316,19,78,13,055,*64
$GLGSV,3,3,09,88,11,037,*58
$GNRMC,031402.000,A,2257.0747,N,11353.8112,E,0.1,325.5,,M,0.13,N,0.25,K,A*26
$GNGGA,031403.000,2257.0746,N,11353.8112,E,1,15,0.70,33.9,M,-3.6,M,,*5D
1494414825 113.896853 22.951243 33.90 0.70 0.86 14 40 37 37 32
speed:0.000000, dis=0.000000
$GPGSA,A,3,16,23,27,14,22,26,03,08,193,32,31,,1.11,0.70,0.86*3B
$GLGSA,A,3,69,81,82,68,,,,,,,,,1.11,0.70,0.86*14
$GPGSV,4,1,14,16,65,310,32,26,54,012,17,41,46,236,24,27,45,175,36*7A
$GPGSV,4,2,14,14,41,143,40,31,38,064,16,23,27,319,31,22,24,236,18*71
$GPGSV,4,3,14,03,23,266,31,193,19,168,23,32,18,146,37,08,15,197,20*4A
$GPGSV,4,4,14,29,04,036,,21,04,094,*7C
$GLGSV,3,1,09,69,49,249,19,81,36,086,39,79,33,018,,82,28,147,39*6C
$GLGSV,3,2,09,80,25,309,,68,24,190,28,70,23,316,21,78,13,055,*6E
$GLGSV,3,3,09,88,11,037,*58
$GNRMC,031403.000,A,2257.0746,N,11353.8112,E,0.04,325.51,100517,,,A*7B
$GNVTG,325.51,T,,M,0.04,N,0.08,K,A*2F
$GNGGA,031404.000,2257.0746,N,11353.8112,E,1,15,0.70,33.9,M,-3.6,M,,*5A
1494414826 113.896853 22.951243 33.90 0.70 0.86 14 40 37 36 32
speed:0.000000, dis=0.000000
$GPGSA,A,3,16,23,27,14,22,26,03,08,193,32,31,,1.11,0.70,0.86*3B
$GLGSA,A,3,69,81,82,68,,,,,,,,,1.11,0.70,0.86*14
$GPGSV,4,1,14,16,65,310,33,26,54,012,17,41,46,236,25,27,45,175,37*7B
$GPGSV,4,2,14,14,41,143,40,31,38,064,16,23,27,319,31,22,24,236,18*71
$GPGSV,4,3,14,03,23,266,31,193,19,168,24,32,18,146,37,08,15,197,22*4F
$GPGSV,4,4,14,29,04,036,,21,04,094,*7C
$GLGSV,3,1,09,69,49,249,19,81,36,086,39,79,33,018,,82,28,147,39*6C
$GLGSV,3,2,$GNGGA,031405.000,2257.0746,N,11353.8112,E,1,15,0.70,33.9,M,-3.6,M,,*5B
1494414827 113.896853 22.951243 33.90 0.70 0.86 14 40 37 37 33
speed:0.000000, dis=0.000000
$GPGSA,A,3,16,23,27,14,22,26,03,08,193,32,31,,1.11,0.70,0.86*3B
$GLGSA,A,3,69,81,82,68,,,,,,,,,1.11,0.70,0.86*14
$GPGSV,4,1,14,16,65,310,32,26,54,012,15,41,46,236,25,27,45,175,37*78
$GPGSV,4,2,14,14,41,143,40,31,38,064,17,23,27,319,30,22,24,236,17*7E
$GPGSV,4,3,14,03,23,266,31,193,19,168,24,32,18,146,38,08,15,197,23*41
$GPGSV,4,4,14,29,04,036,16,21,04,094,*7B
$GLGSV,3,1,09,69,49,249,19,81,36,086,39,79,33,018,,82,28,147,39*6C
$GLGSV,3,2,09,80,25,309,17,68,24,190,30,70,23,316,20,78,13,055,*60
$GLGSV,3,3,09,
$GNVTG,325.51,T,,M,0.05,N,0.09,K,A*2F
$GNGGA,031406.000,2257.0745,N,11353.8112,E,1,16,0.67,33.9,M,-3.6,M,,*5E
1494414828 113.896853 22.951241 33.90 0.67 0.86 14 40 38 37 32
speed:0.000000, dis=0.000000
$GPGSA,A,3,16,23,27,14,22,26,03,08,193,32,31,,1.07,0.67,0.84*38
$GLGSA,A,3,69,81,80,82,68,,,,,,,,1.07,0.67,0.84*1F
$GPGSV,4,1,14,16,65,310,32,26,54,012,13,41,46,236,27,27,45,175,39*72
$GPGSV,4,2,14,14,41,143,40,31,38,064,17,23,27,319,30,22,24,236,17*7E
$GPGSV,4,3,14,03,23,266,31,193,19,168,34,32,18,146,39,08,15,197,25*47
$GPGSV,4,4,14,29,04,036,17,21,04,094,*7A
$GLGSV,3,1,09,69,49,249,19,81,36,086,38,79,33,018,,82,28,147,39*6D
$GLGSV,3,2,09,80,25,309,23,68,24,190,32,70,23,316,,78,13,055,*67
$GLGSV,3,3,09,88,11,037,*58
$GNRMC,031406.000,A,2257.0745,N,11353.8112,E,0.17,325.51,100517,,,A*7F
$GNVTG,325.51,T,,M,0.17,N,0.32,K,A*24
$GNGGA,031407.000,2257.0745,N,11353.8113,E,1,15,0.70,33.9,M,-3.6,M,,*5B
1494414829 113.896855 22.951241 33.90 0.70 0.84 14 40 39 39 34
speed:0.000000, dis=0.000000
$GPGSA,A,3,16,23,27,14,22,03,08,193,32,31,,,1.10,0.70,0.85*3D
$GLGSA,A,3,69,81,80,82,68,,,,,,,,1.10,0.70,0.85*1E
$GPGSV,4,1,14,16,65,310,31,26,54,012,12,41,46,236,27,27,45,175,40*7E
$GPGSV,4,2,14,14,41,143,40,31,38,064,16,23,27,319,28,22,24,236,17*76
$GPGSV,4,3,14,03,23,266,30,193,19,168,35,32,18,146,39,08,15,197,32*41
$GPGSV,4,4,14,29,04,036,,21,04,094,*7C
$GLGSV,3,1,09,69,49,249,19,81,36,086,37,79,33,018,,82,28,147,39*62
$GLGSV,3,2,09,80,25,309,18,68,24,190,34,70,23,316,,78,13,055,*69
$GLGSV,3,3,09,88,11,037,*58
$GNRMC,031407.000,A,2257.0745,N,11353.8113,E,0.10,325.51,100517,,,A*78
$GNVTG,325.51,T,,M,0.10,N,0.18,K,A*2B
$GNGGA,031408.000,2257.0744,N,11353.8113,E,1,14,0.79,33.9,M,-3.6,M,,*5D
1494414830 113.896855 22.951240 33.90 0.79 0.85 14 40 40 39 35
speed:0.000000, dis=0.000000
$GPGSA,A,3,16,23,27,14,22,03,08,193,32,,,,1.16,0.79,0.85*30
$GLGSA,A,3,69,81,80,82,68,,,,,,,,1.16,0.79,0.85*11
$GPGSV,4,1,14,16,65,310,31,26,54,012,13,50,46,122,,27,45,175,41*7D
$GPGSV,4,2,14,14,41,143,40,31,38,064,15,23,27,319,27,22,24,236,17*7A
$GPGSV,4,3,14,03,23,266,29,193,19,168,35,32,18,146,39,08,15,197,31*4A
$GPGSV,4,4,14,29,04,036,,21,04,094,*7C
$GLGSV,3,1,09,69,49,249,19,81,36,086,37,79,33,018,,82,28,147,39*62
$GLGSV,3,2,09,80,25,309,19,68,24,190,35,70,23,316,,78,13,055,*69
$GLGSV,3,3,09,88,11,037,*58
$GNRMC,031408.000,A,2257.0744,N,11353.8113,E,0.09,325.51,100517,,,A*7E
$GNVTG,325.51,T,,M,0.09,N,0.16,K,A*2D
$GNGGA,031409.000,2257.0744,N,11353.8113,E,1,14,0.79,33.9,M,-3.6,M,,*5C
1494414831 113.896855 22.951240 33.90 0.79 0.85 14 41 40 39 35
speed:0.000000, dis=0.000000
$GPGSA,A,3,16,23,27,14,22,03,08,193,32,,,,1.16,0.79,0.85*30
$GLGSA,A,3,69,81,80,82,68,,,,,,,,1.16,0.79,0.85*11
$GPGSV,4,1,14,16,65,310,32,26,54,012,13,50,46,122,,27,45,175,40*7F
$GPGSV,4,2,14,14,41,143,40,31,38,064,15,23,27,319,28,22,24,236,16*74
$GPGSV,4,3,14,03,23,266,29,193,19,168,33,32,18,146,39,08,15,197,29*45
$GPGSV,4,4,14,29,04,036,,21,04,094,*7C
$GLGSV,3,1,09,69,49,249,19,81,36,086,38,79,33,018,,82,28,147,39*6D
$GLGSV,3,2,09,80,25,309,21,68,24,190,34,70,23,316,,78,13,055,*63
$GLGSV,3,3,09,88,11,037,*58
$GNRMC,031409.000,A,2257.0744,N,11353.8113,E,0.09,325.51,100517,,,A*7F
$GNVTG,325.51,T,,M,0.09,N,0.17,K,A*2C
$GNGGA,031410.000,2257.0744,N,11353.8112,E,1,14,0.79,33.9,M,-3.6,M,,*55
1494414832 113.896853 22.951240 33.90 0.79 0.85 14 40 40 39 33
speed:0.000000, dis=0.000000
$GPGSA,A,3,16,23,27,14,22,03,08,193,32,,,,1.16,0.79,0.85*30
$GLGSA,A,3,69,81,80,82,68,,,,,,,,1.16,0.79,0.85*11
$GPGSV,4,1,14,16,65,310,32,26,54,012,12,50,46,122,39,27,45,175,40*74
$GPGSV,4,2,14,14,41,143,40,31,38,064,16,23,27,319,29,22,24,236,17*77
$GPGSV,4,3,14,03,23,266,30,193,19,168,33,32,18,146,39,08,15,197,29*4D
$GPGSV,4,4,14,29,04,036,,21,04,094,*7C
$GLGSV,3,1,09,69,49,249,19,81,36,086,38,79,33,018,,82,28,147,39*6D
$GLGSV,3,2,09,80,25,309,22,68,24,190,34,70,23,316,,78,13,055,*60
$GLGSV,3,3,09,88,11,037,*58
$GNRMC,031410.000,A,2257.0744,N,11353.8112,E,0.05,325.51,100517,,,A*7A
$GNVTG,325.51,T,,M,0.05,N,0.10,K,A*27
$GNGGA,031411.000,2257.0744,N,11353.8112,E,1,15,0.69,33.9,M,-3.6,M,,*54
1494414833 113.896853 22.951240 33.90 0.69 0.85 14 40 40 39 39
speed:0.000000, dis=0.000000
$GPGSA,A,3,16,23,27,14,22,03,08,193,32,31,,,1.10,0.69,0.85*35
$GLGSA,A,3,69,81,80,82,68,,,,,,,,1.10,0.69,0.85*16
$GPGSV,4,1,14,16,65,310,32,26,54,012,12,50,46,122,38,27,45,175,40*75
$GPGSV,4,2,14,14,41,143,40,31,38,064,15,23,27,319,30,22,24,236,17*7C
$GPGSV,4,3,14,03,23,266,30,193,19,168,33,32,18,146,39,08,15,197,28*4C
$GPGSV,4,4,14,29,04,036,,21,04,094,*7C
$GLGSV,3,1,09,69,49,249,19,81,36,086,38,79,33,018,,82,28,147,39*6D
$GLGSV,3,2,09,80,25,309,23,68,24,190,33,70,23,316,,78,13,055,*66
$GLGSV,3,3,09,88,11,037,*58
$GNRMC,031411.000,A,2257.0744,N,11353.8112,E,0.02,325.51,100517,,,A*7C
$GNVTG,325.51,T,,M,0.02,N,0.04,K,A*25
$GNGGA,031412.000,2257.0744,N,11353.8112,E,1,12,0.69,33.9,M,-3.6,M,,*50
1494414834 113.896853 22.951240 33.90 0.69 0.85 14 40 40 39 38
speed:0.000000, dis=0.000000
$GPGSA,A,3,16,23,27,14,03,08,193,32,,,,,1.10,0.69,0.85*37
$GLGSA,A,3,81,80,82,68,,,,,,,,,1.10,0.69,0.85*19
$GPGSV,4,1,14,16,65,310,32,26,54,012,,50,46,122,41,27,45,175,40*78
$GPGSV,4,2,14,14,41,143,40,31,38,064,16,23,27,319,31,22,24,236,17*7E
$GPGSV,4,3,14,03,23,266,31,193,19,168,32,32,18,146,39,08,15,197,27*43
$GPGSV,4,4,14,29,04,036,,21,04,094,*7C
$GLGSV,3,1,09,69,49,249,19,81,36,086,39,79,33,018,,82,28,147,39*6C
$GLGSV,3,2,09,80,25,309,23,68,24,190,33,70,23,316,,78,13,055,*66
$GLGSV,3,3,09,88,11,037,*58
$GNRMC,031412.000,A,2257.0744,N,11353.8112,E,0.05,325.51,100517,,,A*78
$GNVTG,325.51,T,,M,0.05,N,0.09,K,A$GNGGA,031413.000,2257.0744,N,11353.8112,E,1,12,0.69,33.8,M,-3.6,M,,*50
1494414835 113.896853 22.951240 33.80 0.69 0.85 14 41 40 40 39
speed:0.000000, dis=0.000000
$GPGSA,A,3,16,23,27,14,03,08,193,32,,,,,1.10,0.69,0.85*37
$GLGSA,A,3,81,80,82,68,,,,,,,,,1.10,0.69,0.85*19
$GPGSV,4,1,14,16,65,310,32,26,54,012,,50,46,122,41,27,45,175,40*78
$GPGSV,4,2,14,14,41,143,40,31,38,064,16,23,27,319,32,22,24,236,17*7D
$GPGSV,4,3,14,03,23,266,31,193,19,168,32,32,18,146,39,08,15,197,26*42
$GPGSV,4,4,14,29,04,036,,21,04,094,*7C
$GLGSV,3,1,09,69,49,249,19,81,36,086,39,79,33,018,,82,28,147,39*6C
$GLGSV,3,2,09,80,25,309,23,68,24,190,33,70,23,316,,78,13,055,*66
$GLGSV,3,3,09,88,11,037,*58
$GNRMC,031413.000,A,2257.0744,N,11353.8112,E,0.07,325.51,100517,,,A*7B
$GNVTG,325.51,T,,M,0.07,N,0.14,K,A
$GNGGA,031414.000,2257.0744,N,11353.8112,E,1,11,0.91,33.9,M,-3.6,M,,*52
1494414836 113.896853 22.951240 33.90 0.91 0.85 14 41 40 40 39
speed:0.000000, dis=0.000000
$GPGSA,A,3,16,23,27,14,03,08,193,32,,,,,1.27,0.91,0.88*39
$GLGSA,A,3,81,82,68,,,,,,,,,,1.27,0.91,0.88*1F
$GPGSV,4,1,14,16,65,310,32,26,54,012,,50,46,122,38,27,45,175,40*76
$GPGSV,4,2,14,14,41,143,40,31,38,064,14,23,27,319,31,22,24,236,*7A
$GPGSV,4,3,14,03,23,266,30,193,19,168,32,32,18,146,39,08,15,197,25*40
$GPGSV,4,4,14,29,04,036,,21,04,094,*7C
$GLGSV,3,1,09,69,49,249,20,81,36,086,38,79,33,018,,82,28,147,38*66
$GLGSV,3,2,09,80,25,309,21,68,24,190,33,70,23,316,,78,13,055,*64
$GLGSV,3,3,09,88,11,037,*58
$GNRMC,031414.000,A,2257.0744,N,11353.8112,E,0.66,325.51,100517,,,A*7B
$GNVTG,325.51,T,,M,0.66,N,1.22,K,A*2$GNGGA,031415.000,2257.0745,N,11353.8112,E,1,11,0.91,33.8,M,-3.6,M,,*53
$GNGGA,031415.000,2257.0745,N,11353.8112,E,1,11,0.91,33.8,M,-3.6,M,,*53
1494414837 113.896853 22.951241 33.80 0.91 0.88 14 40 40 39 38
speed:0.000000, dis=0.000000
$GPGSA,A,3,16,23,27,14,03,08,193,32,,,,,1.27,0.91,0.88*39
$GLGSA,A,3,81,82,68,,,,,,,,,,1.27,0.91,0.88*1F
$GPGSV,4,1,14,16,65,310,32,26,54,012,,50,46,122,38,27,45,175,40*76
$GPGSV,4,2,14,14,41,143,40,31,38,064,14,23,27,319,31,22,24,236,*7A
$GPGSV,4,3,14,03,23,266,30,193,19,168,32,32,18,146,39,08,15,197,25*40
$GPGSV,4,4,14,29,04,036,,21,04,094,*7C
$GLGSV,3,1,09,69,49,249,20,81,36,086,37,79,33,018,,82,28,147,38*69
$GLGSV,3,2,09,80,25,309,21,68,24,190,33,70,23,316,,78,13,055,*64
$GLGSV,3,3,09,88,11,037,*58
$GNRMC,031415.000,A,2257.0745,N,11353.8112,E,0.63,34.07,1005
$GNGGA,031416.000,2257.0746,N,11353.8112,E,1,12,0.91,33.7,M,-3.6,M,,*5F
1494414838 113.896853 22.951243 33.70 0.91 0.88 14 40 40 39 38
speed:0.000000, dis=0.000000
$GPGSA,A,3,16,23,27,14,03,08,193,32,,,,,1.27,0.91,0.88*39
$GLGSA,A,3,69,81,82,68,,,,,,,,,1.27,0.91,0.88*10
$GPGSV,4,1,14,16,65,310,33,26,54,012,,50,46,122,34,27,45,175,40*7B
$GPGSV,4,2,14,14,41,143,38,31,38,064,,23,27,319,33,22,24,236,*72
$GPGSV,4,3,14,03,23,266,30,193,19,168,30,32,18,146,31,08,15,197,26*49
$GPGSV,4,4,14,29,04,036,,21,04,094,*7C
$GLGSV,3,1,09,69,49,249,24,81,36,086,36,79,33,018,,82,28,147,36*62
$GLGSV,3,2,09,80,25,309,20,68,24,190,34,70,23,316,,78,13,055,*62
$GLGSV,3,3,09,88,11,037,*58
$GNRMC,031416.000,A,2257.0746,N,11353.8112,E,0.37,34.07,100517,,,A*4F
$GNVTG,34.07,T,,M,0.37,N,0.69,K,A*18
$GNGGA,031417.000,2257.0747,N,11353.8112,E,1,12,0.91,33.7,M,-3.6,M,,*5F
1494414839 113.896853 22.951245 33.70 0.91 0.88 14 40 38 34 33
speed:0.000000, dis=0.000000
$GPGSA,A,3,16,23,27,14,03,08,193,32,,,,,1.27,0.91,0.88*39
$GLGSA,A,3,69,81,82,68,,,,,,,,,1.27,0.91,0.88*10
$GPGSV,4,1,14,16,65,310,33,26,54,012,,50,46,122,34,27,45,175,40*7B
$GPGSV,4,2,14,14,41,143,37,31,38,064,,23,27,319,34,22,24,236,*7A
$GPGSV,4,3,14,03,23,266,30,193,19,168,29,32,18,146,31,08,15,197,27*40
$GPGSV,4,4,14,29,04,036,,21,04,094,*7C
$GLGSV,3,1,09,69,49,249,24,81,36,086,36,79,33,018,,82,28,147,35*61
$GLGSV,3,2,09,80,25,309,20,68,24,190,35,70,23,316,,78,13,055,*63
$GLGSV,3,3,09,88,11,037,*58
$GNRMC,031417.000,A,2257.0747,N,11353.8112,E,0.29,34.07,100517,,,A*40
$GNVTG,34.07,T,,M,0.29,N,0.54,K,A19
$GNGGA,031418.000,2257.0748,N,11353.8113,E,1,12,0.88,33.7,M,-3.6,M,,*56
1494414840 113.896855 22.951246 33.70 0.88 0.88 14 40 37 34 34
speed:0.000000, dis=0.000000
$GPGSA,A,3,16,23,27,14,03,08,193,32,,,,,1.23,0.88,0.86*3B
$GLGSA,A,3,69,81,82,68,,,,,,,,,1.23,0.88,0.86*12
$GPGSV,4,1,14,16,65,310,34,26,54,012,,50,46,122,29,27,45,175,28*7E
$GPGSV,4,2,14,14,41,143,30,31,38,064,,23,27,319,33,22,24,236,*7A
$GPGSV,4,3,14,03,23,266,29,193,19,168,28,32,18,146,29,08,15,197,26*41
$GPGSV,4,4,14,29,04,036,,21,04,094,*7C
$GLGSV,3,1,09,69,49,249,22,81,36,086,35,79,33,018,,82,28,147,26*66
$GLGSV,3,2,09,80,25,309,23,68,24,190,25,70,23,316,,78,13,055,*61
$GLGSV,3,3,09,88,11,037,*58
$GNRMC,031418.000,A,2257.0748,N,11353.8113,E,2.77,102.56,100517,,,A*78
$GNVTG,102.56,T,,M,2.77,N,5.14,K,A*21
$GNGGA,031419.000,2257.0751,N,11353.8120,E,1,12,0.88,33.7,M,-3.6,M,,*5F
$GNGGA,031419.000,2257.0751,N,11353.8120,E,1,12,0.88,33.7,M,-3.6,M,,*5F
1494414841 113.896866 22.951251 33.70 0.88 0.86 14 34 33 30 29
speed:0.000000, dis=0.000000
$GPGSA,A,3,16,23,27,14,03,08,193,32,,,,,1.23,0.88,0.86*3B
$GLGSA,A,3,69,81,82,68,,,,,,,,,1.23,0.88,0.86*12
$GPGSV,4,1,14,16,65,310,35,26,54,012,,50,46,122,29,27,45,175,28*7F
$GPGSV,4,2,14,14,41,143,30,31,38,064,,23,27,319,32,22,24,236,*7B
$GPGSV,4,3,14,03,23,266,29,193,19,168,28,32,18,146,28,08,15,197,25*43
$GPGSV,4,4,14,29,04,036,,21,04,094,*7C
$GLGSV,3,1,09,69,49,249,22,81,36,086,34,79,33,018,,82,28,147,26*67
$GLGSV,3,2,09,80,25,309,23,68,24,190,25,70,23,316,,78,13,055,*61
$GLGSV,3,3,09,88,11,037,*58
$GNRMC,031419.000,A,2257.0751,N,11353.8120,E,3.26,103.01,100517,,,A*77
$GNVTG,103.01,T,,M,3.26,N,6.05,K,A*24
$GNGGA,031420.000,2257.0749,N,11353.8129,E,1,12,0.88,33.5,M,-3.6,M,,*57
$GNGGA,031420.000,2257.0749,N,11353.8129,E,1,12,0.88,33.5,M,-3.6,M,,*57
1494414842 113.896881 22.951248 33.50 0.88 0.86 14 35 32 30 29
speed:0.000000, dis=0.000000
$GPGSA,A,3,16,23,27,14,22,03,08,193,32,,,,1.23,0.88,0.86*3B
$GLGSA,A,3,81,82,68,,,,,,,,,,1.23,0.88,0.86*1D
$GPGSV,4,1,14,16,65,310,25,26,54,012,,50,46,122,27,27,45,175,30*79
$GPGSV,4,2,14,14,41,143,28,31,38,064,,23,27,319,18,22,24,236,26*7E
$GPGSV,4,3,14,03,23,266,29,193,19,168,27,32,18,146,27,08,15,197,24*42
$GPGSV,4,4,14,29,04,036,,21,04,094,*7C
$GLGSV,3,1,09,69,49,249,20,81,36,086,35,79,33,018,,82,28,147,26*64
$GLGSV,3,2,09,80,25,309,17,68,24,190,24,70,23,316,,78,13,055,*67
$GLGSV,3,3,09,88,11,037,*58
$GNRMC,031420.000,A,2257.0749,N,11353.8129,E,3.34,118.40,100$GNGGA,031421.000,2257.0742,N,11353.8140,E,1,12,0.88,33.4,M,-3.6,M,,*53
1494414843 113.896900 22.951236 33.40 0.88 0.86 14 30 29 28 27
speed:0.000000, dis=0.000000
$GPGSA,A,3,16,23,27,14,22,03,08,193,32,,,,1.23,0.88,0.86*3B
$GLGSA,A,3,81,82,68,,,,,,,,,,1.23,0.88,0.86*1D
$GPGSV,4,1,14,16,65,310,25,26,54,012,,50,46,122,27,27,45,175,31*78
$GPGSV,4,2,14,14,41,143,27,31,38,064,,23,27,319,18,22,24,236,26*71
$GPGSV,4,3,14,03,23,266,29,193,19,168,26,32,18,146,27,08,15,197,24*43
$GPGSV,4,4,14,29,04,036,,21,04,094,*7C
$GLGSV,3,1,09,69,49,249,20,81,36,086,36,79,33,018,,82,28,147,26*67
$GLGSV,3,2,09,80,25,309,17,68,24,190,23,70,23,316,,78,13,055,*60
$GLGSV,3,3,09,88,11,037,*58
$GNGGA,031422.000,2257.0741,N,11353.8160,E,1,11,1.02,33.3,M,-3.6,M,,*56
1494414844 113.896933 22.951235 33.30 1.02 0.86 14 31 29 27 27
speed:0.000000, dis=0.000000
$GPGSA,A,3,16,27,14,22,03,193,32,,,,,,1.36,1.02,0.90*32
$GLGSA,A,3,69,81,82,68,,,,,,,,,1.36,1.02,0.90*12
$GPGSV,4,1,14,16,65,310,26,26,54,012,,27,45,175,31,42,45,122,*7E
$GPGSV,4,2,14,14,41,143,27,31,38,064,,23,27,319,,22,24,236,30*7F
$GPGSV,4,3,14,03,23,266,29,193,19,168,25,32,18,146,27,08,15,197,25*41
$GPGSV,4,4,14,29,04,036,,21,04,094,*7C
$GLGSV,3,1,09,69,49,249,23,81,36,086,36,79,33,018,,82,28,147,26*64
$GLGSV,3,2,09,80,25,309,,68,24,190,24,70,23,316,,78,13,055,*61
$GLGSV,3,3,09,88,11,037,*58
$GNRMC,031422.000,A,2257.0741,N,11353.8160,E,5.49,113.99,100517,,,A*75
$GNVTG,113.99,T,,M,5.49,N,10.17,K,A*1F
$GNGGA,031423.000,2257.0755,N,11353.8185,E,1,11,1.02,32.9,M,-3.6,M,,*52
1494414845 113.896975 22.951258 32.90 1.02 0.90 14 31 30 29 27
speed:0.000000, dis=0.000000
$GPGSA,A,3,16,27,14,22,03,193,32,,,,,,1.36,1.02,0.90*32
$GLGSA,A,3,69,81,82,68,,,,,,,,,1.36,1.02,0.90*12
$GPGSV,4,1,14,16,65,310,26,26,54,012,,27,45,175,50,42,45,122,*79
$GPGSV,4,2,14,14,41,143,27,31,38,064,,23,27,319,,22,24,236,30*7F
$GPGSV,4,3,14,03,23,266,29,193,19,168,25,32,18,146,27,08,15,197,26*42
$GPGSV,4,4,14,29,04,036,,21,04,094,*7C
$GLGSV,3,1,09,69,49,249,23,81,36,086,45,79,33,018,,82,28,147,26*60
$GLGSV,3,2,09,80,25,309,,68$GNGGA,031424.000,2257.0760,N,11353.8207,E,1,10,1.02,32.9,M,-3.6,M,,*5B
1494414846 113.897011 22.951266 32.90 1.02 0.90 14 50 30 29 27
speed:2.681459, dis=9.900000
$GPGSA,A,3,16,27,14,22,03,193,32,,,,,,1.36,1.02,0.90*32
$GLGSA,A,3,81,82,68,,,,,,,,,,1.36,1.02,0.90*1D
$GPGSV,4,1,14,16,65,310,26,26,54,012,,27,45,175,25,42,45,122,*7B
$GPGSV,4,2,14,14,41,143,26,31,38,064,,23,27,319,,22,24,236,24*7B
$GPGSV,4,3,14,03,23,266,29,193,19,168,24,32,18,146,27,08,15,197,26*43
$GPGSV,4,4,14,29,04,036,,21,04,094,*7C
$GLGSV,3,1,09,69,49,249,22,81,36,086,37,79,33,018,,82,28,147,28*6A
$GLGSV,3,2,09,80,25,309,,68,24,190,25,70,23,316,,78,13,055,*60
$GLGSV,3,3,09,88,11,037,*58
$GNGGA,031425.000,2257.0764,N,11353.8227,E,1,10,1.02,32.8,M,-3.6,M,,*5D
1494414847 113.897045 22.951273 32.80 1.02 0.90 14 29 27 26 26
speed:2.978895, dis=12.347672
$GPGSA,A,3,16,27,14,22,03,193,32,,,,,,1.36,1.02,0.90*32
$GLGSA,A,3,81,82,68,,,,,,,,,,1.36,1.02,0.90*1D
$GPGSV,4,1,14,16,65,310,26,26,54,012,,27,45,175,25,42,45,122,*7B
$GPGSV,4,2,14,14,41,143,26,31,38,064,,23,27,319,,22,24,236,24*7B
$GPGSV,4,3,14,03,23,266,29,193,19,168,24,32,18,146,27,08,15,197,26*43
$GPGSV,4,4,14,29,04,036,,21,04,094,*7C
$GLGSV,3,1,09,69,49,249,22,81,36,086,37,79,33,018,,82,28,147,29*6B
$GLGSV,3,2,09,80,25,309,,68,24,190,25,70,23,316,,78,13,055,*60
$GLGSV,3,3,09,88,11,037,*58
$GNRMC,031425.000,A,2257.0764,N,11353.8227,E,6.77,89.08,100517,,,A*41
$GNVTG,89.08,T,,M,6.77,N,12.54,K,A*2E
$GNGGA,031426.000,2257.0769,N,11353.8249,E,1,12,0.98,32.4,M,-3.6,M,,*57
1494414848 113.897081 22.951281 32.40 0.98 0.90 14 29 27 26 26
speed:3.158109, dis=15.129091
$GPGSA,A,3,16,27,14,22,03,08,193,32,,,,,1.33,0.98,0.89*35
$GLGSA,A,3,69,81,82,68,,,,,,,,,1.33,0.98,0.89*1D
$GPGSV,4,1,14,16,65,310,27,26,54,012,,27,45,175,27,42,45,122,*78
$GPGSV,4,2,14,14,41,143,26,31,38,064,,23,27,319,,22,24,236,27*78
$GPGSV,4,3,14,03,23,266,29,193,19,168,22,32,18,146,26,08,15,197,25*47
$GPGSV,4,4,14,29,04,036,,21,04,094,*7C
$GLGSV,3,1,09,69,49,249,27,81,36,086,38,79,33,018,,82,28,147,29*61
$GLGSV,3,2,09,80,25,309,,68,24,190,25,70,23,316,,78,13,055,*60
$GLGSV,3,3,09,88,11,037,*58
$GNRMC,031426.000,A,2257.0769,N,11353.8249,E,6.25,87.16,100517,,,A*41
$GNVTG,87.16,T,,M,6.25,N,11.59,K,A*26
$GNGGA,031427.000,2257.0770,N,11353.8268,E,1,12,0.98,32.4,M,-3.6,M,,*5D
1494414849 113.897113 22.951283 32.40 0.98 0.89 14 29 27 27 27
speed:3.294924, dis=18.359219
$GPGSA,A,3,16,27,14,22,03,08,193,32,,,,,1.33,0.98,0.89*35
$GLGSA,A,3,69,81,82,68,,,,,,,,,1.33,0.98,0.89*1D
$GPGSV,4,1,14,16,65,310,28,26,54,012,,27,45,175,42,42,45,122,*74
$GPGSV,4,2,14,14,41,143,26,31,38,064,,23,27,319,,22,24,236,27*78
$GPGSV,4,3,14,03,23,266,29,193,19,168,23,32,18,146,25,08,15,197,24*44
$GPGSV,4,4,14,29,04,036,,21,04,094,*7C
$GLGSV,3,1,09,69,49,249,26,81,36,086,45,79,33,018,,82,28,147,29*6A
$GLGSV,3,2,09,80,25,309,,68,24,190,25,70,23,316,,78,13,055,*60
$GLGSV,3,3,09,88,11,037,*58
$GNRMC,031427.000,A,2257.0770,N,11353.8268,E,5.58,93.07,100517,,,A*47
$GNVTG,93.07,T,,M,5.58,N,10.34,K,A*20
$GNGGA,031428.000,2257.0776,N,11353.8285,E,1,11,0.98,32.1,M,-3.6,M,,*51
1494414850 113.897141 22.951293 32.10 0.98 0.89 14 42 29 28 27
speed:3.356550, dis=21.887602
$GPGSA,A,3,16,27,14,22,03,08,193,32,,,,,1.33,0.98,0.89*35
$GLGSA,A,3,81,82,68,,,,,,,,,,1.33,0.98,0.89*12
$GPGSV,4,1,14,16,65,310,28,26,54,012,,27,45,175,30,42,45,122,*71
$GPGSV,4,2,14,14,41,143,27,31,38,064,,23,27,319,,22,24,236,21*7F
$GPGSV,4,3,14,03,23,266,29,193,19,168,20,32,18,146,25,08,15,197,23*40
$GPGSV,4,4,14,29,04,036,,21,04,094,*7C
$GLGSV,3,1,09,69,49,249,28,81,36,086,34,79,33,018,,82,28,147,27*6C
$GLGSV,3,2,09,80,25,309,,68,24,190,24,70,23,316,,78,13,055,*61
$GLGSV,3,3,09,88,11,037,*58
$GNRMC,031428.000,A,2257.0776,N,11353.8285,E,6.02,93.61,100517,,,A*41
$GNVTG,93.61,T,,M,6.02,N,11.16,K,A*2D
