YF_GPS:5:10:10:57
$$PMTK$011,M$10,0$3840 0.000000 0.000000 0.00 0.00 0.00 0 0 0 0 0
speed:-1.000000, dis=0.000000
$GPGSA,A,1,,,,,,,,,,,,,,,*1E
$GLGSA,A,1,,,,,,,,,,,,,,,*02
$GPGSV,4,1,13,16,66,290,,26,60,004,,14,48,137,,31,40,055,*7E
$GPGSV,4,2,13,27,37,177,,22,27,244,,32,25,143,,03,24,274,*7E
$GPGSV,4,3,13,23,21,320,,193,21,169,,29,09,040,,08,09,198,*4E
$GPGSV,4,4,13,21,02,100,*4B
$GLGSV,3,1,09,69,52,263,,79,35,009,,81,34,097,25,68,32,193,28*69
$GLGSV,3,2,09,80,24,300,,82,21,152,,70,18,322,,78,16,047,*69
$GLGSV,3,3,09,88,14,044,*59
$GNRMC,025738.219,V,,,,,0.00,0.00,100517,,,N*50
$GNVTG,0.00,T,,M,0.00,N,0.00,K,N*2C
$GNGGA,025739.228,2257.0718,N,11353.7985,E,1,4,1.61,27.8,M,-3.6,M,,*6D
1494413841 113.896641 22.951196 27.80 1.61 0.00 13 0 0 0 0
speed:-1.000000, dis=0.000000
$GPGSA,A,3,16,,,,,,,,,,,,1.90,1.61,1.00*0A
$GLGSA,A,3,81,68,82,,,,,,,,,,1.90,1.61,1.00*1C
$GPGSV,4,1,13,16,66,290,27,26,60,004,,14,48,137,,31,40,055,*7B
$GPGSV,4,2,13,27,37,177,,22,27,244,,32,25,143,,03,24,274,*7E
$GPGSV,4,3,13,23,21,320,,193,21,169,,29,09,040,,08,09,198,*4E
$GPGSV,4,4,13,21,02,100,*4B
$GLGSV,3,1,09,69,52,263,,79,35,009,,81,34,097,25,68,32,193,30*60
$GLGSV,3,2,09,80,24,300,,82,21,152,36,70,18,322,,78,16,047,*6C
$GLGSV,3,3,09,88,14,044,*59
$GNRMC,025739.228,A,2257.0718,N,11353.7985,E,0.10,0.00,100517,,,A*7B
$GNVTG,0.00,T,,M,0.10,N,0.18,K,A*2B
$GNGGA,025740.211,2257.0702,N,11353.8063,E,1,8,1.41,27.9,M,-3.6,M,,*63
1494413842 113.896771 22.951170 27.90 1.41 1.00 13 27 0 0 0
speed:0.000000, dis=0.000000
$GPGSA,A,3,16,14,27,32,193,,,,,,,,1.71,1.41,0.97*32
$GLGSA,A,3,81,68,82,,,,,,,,,,1.71,1.41,0.97*1E
$GPGSV,4,1,13,16,66,290,30,26,60,004,,14,48,137,35,31,40,055,*7B
$GPGSV,4,2,13,27,37,177,33,22,27,244,,32,25,143,39,03,24,274,*74
$GPGSV,4,3,13,23,21,320,,193,21,169,34,29,09,040,,08,09,198,*49
$GPGSV,4,4,13,21,02,100,*4B
$GLGSV,3,1,09,69,52,263,,79,35,009,,81,34,097,35,68,32,193,26*66
$GLGSV,3,2,09,80,24,300,,82,21,152,39,70,18,322,,78,16,047,*63
$GLGSV,3,3,09,88,14,044,*59
$GNRMC,025740.211,A,2257.0702,N,11353.8063,E,1.86,145.92,100517,,,A*7F
$GNVTG,145.92,T,,M,1.86,N,3.45,K,A*25
$GNGGA,025741.214,2257.0702,N,11353.8071,E,1,10,1.18,28.0,M,-3.6,M,,*57
1494413843 113.896785 22.951170 28.00 1.18 0.97 13 39 35 34 33
speed:0.000000, dis=0.000000
$GPGSA,A,3,16,14,27,32,29,193,03,,,,,,1.49,1.18,0.91*3B
$GLGSA,A,3,81,68,82,,,,,,,,,,1.49,1.18,0.91*1F
$GPGSV,4,1,13,16,66,290,32,26,60,004,,14,48,137,37,31,40,055,*7B
$GPGSV,4,2,13,27,37,177,28,22,27,244,,32,25,143,36,03,24,274,26*75
$GPGSV,4,3,13,23,21,320,,193,21,169,29,29,09,040,24,08,09,198,*43
$GPGSV,4,4,13,21,02,100,*4B
$GLGSV,3,1,09,69,52,263,,79,35,009,,81,34,097,36,68,32,193,25*66
$GLGSV,3,2,09,80,24,300,,82,21,152,33,70,18,322,,78,16,047,*69
$GLGSV,3,3,09,88,14,044,*59
$GNRMC,025741.214,A,2257.0702,N,11353.8071,E,1.03,129.74,100517,,,A*77
$GNTG,129$GNGGA,025742.216,2257.0705,N,11353.8077,E,1,10,1.18,28.1,M,-3.6,M,,*56
1494413844 113.896795 22.951175 28.10 1.18 0.91 13 37 36 32 29
speed:0.000000, dis=0.000000
$GPGSA,A,3,16,14,27,32,29,193,03,,,,,,1.49,1.18,0.91*3B
$GLGSA,A,3,81,68,82,,,,,,,,,,1.49,1.18,0.91*1F
$GPGSV,4,1,13,16,66,290,30,26,60,004,,14,48,137,37,31,40,055,*79
$GPGSV,4,2,13,27,37,177,19,22,27,244,,32,25,143,32,03,24,274,22*77
$GPGSV,4,3,13,23,21,320,,193,21,169,22,29,09,040,21,08,09,198,*4D
$GPGSV,4,4,13,21,02,100,*4B
$GLGSV,3,1,09,69,52,263,,79,35,009,,81,34,097,37,68,32,193,29*6B
$GLGSV,3,2,09,80,24,300,,82,21,152,26,70,18,322,,78,16,047,*6D
$GLGSV,3,3,09,88,14,044,*59
$GNRMC,025742.216,A,2257.0705,N,11353.8077,E,0.82,125.94,100517,,,A*7D
$GNVTG,125.94,T,,M,0.82,N,1.53,K,A*25
$GNGGA,025743.218,2257.0708,N,11353.8074,E,1,11,0.94,28.1,M,-3.6,M,,*53
1494413845 113.896790 22.951180 28.10 0.94 0.91 13 37 32 30 22
speed:0.000000, dis=0.000000
$GPGSA,A,3,16,27,32,29,193,03,23,22,,,,,1.30,0.94,0.89*3D
$GLGSA,A,3,81,68,82,,,,,,,,,,1.30,0.94,0.89*1D
$GPGSV,4,1,14,16,66,290,30,26,60,004,,14,48,137,38,41,46,236,*77
$GPGSV,4,2,14,31,40,055,,27,37,177,17,22,27,244,20,32,25,143,30*7C
$GPGSV,4,3,14,03,24,274,16,23,21,320,21,193,21,169,22,29,09,040,20*4A
$GPGSV,4,4,14,08,09,198,,21,02,100,*7D
$GLGSV,3,1,09,69,52,263,,79,35,009,,81,34,097,37,68,32,193,28*6A
$GLGSV,3,2,09,80,24,300,,82,21,152,27,70,18,322,,78,16,047,*6C
$GLGSV,3,3,09,88,14,044,*59
$GNRMC,025743.218,A,2257.0708,N,11353.8074,E,0.37,125.94,100517,,,A*72
$GNVTG,125.94,T,,M,0.37,N,0.68,K,A*22
$GNGGA,025744.219,2257.0712,N,11353.8076,E,1,11,1.12,28.0,M,-3.6,M,,*52
1494413846 113.896793 22.951186 28.00 1.12 0.89 14 38 30 30 22
speed:0.000000, dis=0.000000
$GPGSA,A,3,16,14,27,32,29,193,03,22,,,,,1.44,1.12,0.91*3C
$GLGSA,A,3,81,68,82,,,,,,,,,,1.44,1.12,0.91*18
$GPGSV,4,1,14,16,66,290,32,26,60,004,,14,48,137,40,41,46,236,*7A
$GPGSV,4,2,14,31,40,055,,27,37,177,32,22,27,244,19,32,25,143,34*75
$GPGSV,4,3,14,03,24,274,22,23,21,320,,193,21,169,27,29,09,040,25*4E
$GPGSV,4,4,14,08,09,198,,21,02,100,*7D
$GLGSV,3,1,09,69,52,263,,79,35,009,,81,34,097,37,68,32,193,29*6B
$GLGSV,3,2,09,80,24,300,,82,21,152,29,70,18,322,,78,16,047,*62
$GLGSV,3,3,09,88,14,044,*59
$GNRMC,025744.219,A,2257.0712,N,11353.8076,E,0.25,125.94,100517,,,A*7E
$GNVTG,125.94,T,,M,0.25,N,0.46,K,A*2D
$GNGGA,025745.219,2257.0713,N,11353.8079,E,1,12,0.93,27.9,M,-3.6,M,,*50
1494413847 113.896798 22.951188 27.90 0.93 0.91 14 40 34 32 32
speed:0.000000, dis=0.000000
$GPGSA,A,3,16,14,23,27,32,29,193,03,22,,,,1.27,0.93,0.87*37
$GLGSA,A,3,81,68,82,,,,,,,,,,1.27,0.93,0.87*12
$GPGSV,4,1,14,16,66,290,31,26,60,004,,14,48,137,39,41,46,236,*77
$GPGSV,4,2,14,31,40,055,,27,37,177,31,22,27,244,20,32,25,143,27*7E
$GPGSV,4,3,14,03,24,274,24,23,21,320,26,193,21,169,24,29,09,040,20*4A
$GPGSV,4,4,14,08,09,198,,21,02,100,*7D
$GLGSV,3,1,09,69,52,263,,79,35,009,,81,34,097,36,68,32,193,20*63
$GLGSV,3,2,09,80,24,300,,82,21,152,30,70,18,322,,78,16,047,*6A
$GLGSV,3,3,09,88,14,044,*59
$GNRMC,025745.219,A,2257.0713,N,11353.8079,E,0.31,125.94,100517,,,A*74
$GNVTG,125.94,T,,M,0.31,N,0.57,K,A*28
$GNGGA,025746.220,2257.0715,N,11353.8078,E,1,11,1.01,27.8,M,-3.6,M,,*56
1494413848 113.896796 22.951191 27.80 1.01 0.87 14 39 31 31 27
speed:0.000000, dis=0.000000
$GPGSA,A,3,16,14,23,27,32,29,193,03,,,,,1.34,1.01,0.88*30
$GLGSA,A,3,81,68,82,,,,,,,,,,1.34,1.01,0.88*15
$GPGSV,4,1,14,16,66,290,31,26,60,004,,14,48,137,39,41,46,236,*77
$GPGSV,4,2,14,31,40,055,,27,37,177,31,22,27,244,19,32,25,143,35*77
$GPGSV,4,3,14,03,24,274,20,23,21,320,22,193,21,169,22,29,09,040,26*4A
$GPGSV,4,4,14,08,09,198,,21,02,100,*7D
$GLGSV,3,1,09,69,52,263,,79,35,009,,81,34,097,35,68,32,193,21*61
$GLGSV,3,2,09,80,24,300,,82,21,152,22,70,18,322,,78,16,047,*69
$GLGSV,3,3,09,88,14,044,*59
$GNRMC,025746.220,A,2257.0715,N,11353.8078,E,0.46,125.94,100517,,,A*7A
$GNVTG,125.94,T,,M,0.46,N,0.86,K,A*24
$GNGGA,025747.221,2257.0711,N,11353.8081,E,1,12,0.93,27.8,M,-3.6,M,,*5D
1494413849 113.896801 22.951185 27.80 0.93 0.88 14 39 35 31 31
speed:0.000000, dis=0.000000
$GPGSA,A,3,16,14,23,27,32,29,193,03,22,,,,1.27,0.93,0.88*38
$GLGSA,A,3,81,68,82,,,,,,,,,,1.27,0.93,0.88*1D
$GPGSV,4,1,14,16,66,290,30,26,60,004,16,14,48,137,38,41,46,236,*70
$GPGSV,4,2,14,31,40,055,,27,37,177,30,22,27,244,30,32,25,143,36*7E
$GPGSV,4,3,14,03,24,274,21,23,21,320,25,193,21,169,33,29,09,040,25*4F
$GPGSV,4,4,14,08,09,198,,21,02,100,*7D
$GLGSV,3,1,09,69,52,263,,79,35,009,,81,34,097,36,68,32,193,21*62
$GLGSV,3,2,09,80,24,300,,82,21,152,38,70,18,322,,78,16,047,*62
$GLGSV,3,3,09,88,14,044,*59
$GNRMC,025747.221,A,2257.0711,N,11353.8081,E,0.58,125.94,100517,,,A*77
$GNVTG,125.94,T,,M,0.58,N,1.08,K,A*2C
$GNGGA,025748.221,2257.0712,N,11353.8080,E,1,12,0.93,27.8,M,-3.6,M,,*50
1494413850 113.896800 22.951186 27.80 0.93 0.88 14 38 36 33 30
speed:0.000000, dis=0.000000
$GPGSA,A,3,16,14,23,27,32,29,193,03,22,,,,1.27,0.93,0.88*38
$GLGSA,A,3,81,68,82,,,,,,,,,,1.27,0.93,0.88*1D
$GPGSV,4,1,14,16,66,290,28,26,60,004,13,14,48,137,38,41,46,236,*7C
$GPGSV,4,2,14,31,40,055,,27,37,177,32,22,27,244,23,32,25,143,36*7E
$GPGSV,4,3,14,03,24,274,21,23,21,320,25,193,21,169,32,29,09,040,25*4E
$GPGSV,4,4,14,08,09,198,,21,02,100,*7D
$GLGSV,3,1,09,69,52,263,,79,35,009,,81,34,097,37,68,32,193,22*60
$GLGSV,3,2,09,80,24,300,,82,21,152,37,70,18,322,,78,16,047,*6D
$GLGSV,3,3,09,88,14,044,*59
$GNRMC,025748.221,A,2257.0712,N,11353.8080,E,0.50,125.94,10517,,N,0.93,K,A*27
$GNGGA,025749.221,2257.0712,N,11353.8080,E,1,13,0.70,27.8,M,-3.6,M,,*5D
1494413851 113.896800 22.951186 27.80 0.70 0.88 14 38 36 32 32
speed:0.000000, dis=0.000000
$GPGSA,A,3,16,14,23,27,08,32,29,193,03,22,,,1.07,0.70,0.80*37
$GLGSA,A,3,81,68,82,,,,,,,,,,1.07,0.70,0.80*1A
$GPGSV,4,1,14,16,66,290,18,26,60,004,15,14,48,137,38,41,46,236,*79
$GPGSV,4,2,14,31,40,055,,27,37,177,34,22,27,244,24,32,25,143,36*7F
$GPGSV,4,3,14,03,24,274,21,23,21,320,25,193,21,169,30,29,09,040,25*4C
$GPGSV,4,4,14,08,09,198,26,21,02,100,*79
$GLGSV,3,1,09,69,52,263,,79,35,009,,81,34,097,37,68,32,193,23*61
$GLGSV,3,2,09,80,24,300,,82,21,152,36,70,18,322,,78,16,047,*6C
$GLGSV,3,3,09,88,14,044,*59
$GNRMC,025749.221,A,2257.0712,N,11353.8080,E,0.48,125.94,100517,,,A*7A
$GNVTG,125.94,T,,M,0.48,N,0.88,K,A*24
$GNGGA,025750.218,2257.0712,N,11353.8073,E,1,13,0.70,27.8,M,-3.6,M,,*53
1494413852 113.896788 22.951186 27.80 0.70 0.80 14 38 36 34 30
speed:0.000000, dis=0.000000
$GPGSA,A,3,16,14,23,27,08,32,29,193,03,22,,,1.07,0.70,0.80*37
$GLGSA,A,3,81,68,82,,,,,,,,,,1.07,0.70,0.80*1A
$GPGSV,4,1,14,16,66,290,28,26,60,004,13,14,48,137,36,41,46,236,*72
$GPGSV,4,2,14,31,40,055,,27,37,177,35,22,27,244,24,32,25,143,37*7F
$GPGSV,4,3,14,03,24,274,20,23,21,320,26,193,21,169,31,29,09,040,24*4E
$GPGSV,4,4,14,08,09,198,27,21,02,100,*78
$GLGSV,3,1,09,69,52,263,,79,35,009,,81,34,097,38,68,32,193,23*6E
$GLGSV,3,2,09,80,24,300,,82,21,152,36,70,18,322,,78,16,047,*6C
$GLGSV,3,3,09,88,14,044,*59
$GNRMC,025750.218,A,2257.0712,N,11353.8073,E,0.67,260.53,100517,,,A*70
$GNVTG,260.53,T,,M,0.67,N,1.24,K,A*27
$GNGGA,025752.000,2257.0714,N,11353.8072,E,1,12,0.70,27.8,M,-3.6,M,,*5C
1494413854 113.896786 22.951190 27.80 0.70 0.80 14 37 36 35 31
speed:0.000000, dis=0.000000
$GPGSA,A,3,16,14,23,27,08,32,193,03,22,,,,1.07,0.70,0.80*3C
$GLGSA,A,3,81,68,82,,,,,,,,,,1.07,0.70,0.80*1A
$GPGSV,4,1,14,16,66,290,28,26,60,004,,14,48,137,37,41,46,236,*71
$GPGSV,4,2,14,31,40,055,,27,37,177,37,22,27,244,36,32,25,143,37*7E
$GPGSV,4,3,14,03,24,274,21,23,21,320,24,193,21,169,31,29,09,040,19*43
$GPGSV,4,4,14,08,09,198,28,21,02,100,*77
$GLGSV,3,1,09,69,52,263,,79,35,009,,81,34,097,30,68,32,193,37*63
$GLGSV,3,2,09,80,24,300,,82,21,152,36,70,18,322,,78,16,047,*6C
$GLGSV,3,3,09,88,14,044,*59
$GNRMC,025752.000,A,2257.0714,N,11353.8072,E,0.51,260.53,100517,,,A*7B
$GNVTG,260.53,T,,M,0.51,N,0.95,K,A*29
$GNGGA,025753.000,2257.0716,N,11353.8074,E,1,12,0.70,27.8,M,-3.6,M,,*59
1494413855 113.896790 22.951193 27.80 0.70 0.80 14 37 37 37 36
speed:0.000000, dis=0.000000
$GPGSA,A,3,16,14,23,27,08,32,193,03,22,,,,1.07,0.70,0.80*3C
$GLGSA,A,3,81,68,82,,,,,,,,,,1.07,0.70,0.80*1A
$GPGSV,4,1,14,16,66,290,28,26,60,004,,14,48,137,38,41,46,236,35*78
$GPGSV,4,2,14,31,40,055,,27,37,177,38,22,27,244,36,32,25,143,37*71
$GPGSV,4,3,14,03,24,274,22,23,21,320,24,193,21,169,31,29,09,040,19*40
$GPGSV,4,4,14,08,09,198,28,21,02,100,*77
$GLGSV,3,1,09,69,52,263,,79,35,009,,81,34,097,30,68,32,193,37*63
$GLGSV,3,2,09,80,24,300,,82,21,152,36,70,18,322,,78,16,047,*6C
$GLGSV,3,3,09,88,14,044,*59
$GNRMC,025753.000,A,2257.0716,N,11353.8074,E,0.34,260.53,100517,,,A*7D
$GNVTG,260.53,T,,M,0.34,N,0.62,KA*22
$GNGGA,025754.000,2257.0719,N,11353.8075,E,1,12,0.87,27.8,M,-3.6,M,,*58
1494413856 113.896791 22.951198 27.80 0.87 0.80 14 38 38 37 36
speed:0.000000, dis=0.000000
$GPGSA,A,3,16,14,23,27,08,32,193,03,22,,,,1.22,0.87,0.85*36
$GLGSA,A,3,81,68,82,,,,,,,,,,1.22,0.87,0.85*10
$GPGSV,4,1,14,16,66,290,28,26,60,004,,14,48,137,39,41,46,236,34*78
$GPGSV,4,2,14,31,40,055,,27,37,177,39,22,27,244,35,32,25,143,37*73
$GPGSV,4,3,14,03,24,274,23,23,21,320,24,193,21,169,32,29,09,040,18*43
$GPGSV,4,4,14,08,09,198,29,21,02,100,*76
$GLGSV,3,1,09,69,52,263,,79,35,009,,81,34,097,31,68,32,193,37*62
$GLGSV,3,2,09,80,24,300,,82,21,152,36,70,18,322,,78,16,047,*6C
$GLGSV,3,3,09,88,14,044,*59
$GNRMC,025754.000,A,2257.0719,N,11353.8075,E,0.29,260.53,100517,,,A*78
$GNVTG,260.53,T,,M,0.29,N,0.54,K,A*2B
$GNGGA,025755.000,2257.0721,N,11353.8076,E,1,12,0.87,27.8,M,-3.6,M,,*51
$GNGGA,025755.000,2257.0721,N,11353.8076,E,1,12,0.87,27.8,M,-3.6,M,,*51
1494413857 113.896793 22.951201 27.80 0.87 0.85 14 39 39 37 35
speed:0.000000, dis=0.000000
$GPGSA,A,3,16,14,23,27,08,32,193,03,22,,,,1.22,0.87,0.85*36
$GLGSA,A,3,81,68,82,,,,,,,,,,1.22,0.87,0.85*10
$GPGSV,4,1,14,16,66,290,28,26,60,004,,14,48,137,39,41,46,236,34*78
$GPGSV,4,2,14,31,40,055,,27,37,177,40,22,27,244,34,32,25,143,37*7C
$GPGSV,4,3,14,03,24,274,24,23,21,320,24,193,21,169,32,29,09,040,18*44
$GPGSV,4,4,14,08,09,198,29,21,02,100,*76
$GLGSV,3,1,09,69,52,263,,79,35,009,,81,34,097,31,68,32,193,37*62
$GLGSV,3,2,09,80,24,300,,82,21,152,36,70,18,322,,78,16,047,*6C
$GLGSV,3,3,09,88,14,044,*59
$,0.50,K,A*21
$GNGGA,025756.000,2257.0723,N,11353.8078,E,1,12,0.87,27.8,M,-3.6,M,,*5E
1494413858 113.896796 22.951205 27.80 0.87 0.85 14 40 39 37 34
speed:0.000000, dis=0.000000
$GPGSA,A,3,16,14,23,27,08,32,193,03,22,,,,1.22,0.87,0.85*36
$GLGSA,A,3,81,68,82,,,,,,,,,,1.22,0.87,0.85*10
$GPGSV,4,1,14,16,66,290,27,26,60,004,,14,48,137,39,41,46,236,33*70
$GPGSV,4,2,14,31,40,055,,27,37,177,40,22,27,244,34,32,25,143,37*7C
$GPGSV,4,3,14,03,24,274,24,23,21,320,24,193,21,169,33,29,09,040,*4C
$GPGSV,4,4,14,08,09,198,32,21,02,100,*7C
$GLGSV,3,1,09,69,52,263,,79,35,009,,81,34,097,31,68,32,193,38*6D
$GLGSV,3,2,09,80,24,300,,82,21,152,36,70,18,322,,78,16,047,*6C
$GLGSV,3,3,09,88,14,044,*59
$GNRMC,025756.000,A,2257.0723,N,11353.8078,E,0.25,260.53,100517,,,A*72
$GNVTG,260.53,T,,M,0.25,N,0.46,K,A*24
$GNGGA,025757.000,2257.0725,N,11353.8079,E,1,12,0.87,27.7,M,-3.6,M,,*57
1494413859 113.896798 22.951208 27.70 0.87 0.85 14 40 39 37 34
speed:0.000000, dis=0.000000
$GPGSA,A,3,16,14,23,27,08,32,193,03,22,,,,1.22,0.87,0.85*36
$GLGSA,A,3,81,68,82,,,,,,,,,,1.22,0.87,0.85*10
$GPGSV,4,1,14,16,66,290,27,26,60,004,,14,48,137,38,41,46,236,33*71
$GPGSV,4,2,14,31,40,055,,27,37,177,40,22,27,244,34,32,25,143,37*7C
$GPGSV,4,3,14,03,24,274,24,23,21,320,24,193,21,169,34,29,09,040,*4B
$GPGSV,4,4,14,08,09,198,32,21,02,100,*7C
$GLGSV,3,1,09,69,52,263,,79,35,009,,81,34,097,31,68,32,193,38*6D
$GLGSV,3,2,09,80,24,300,,82,21,152,36,70,18,322,,78,16,047,*6C
$GLGSV,3,3,09,88,14,044,*59
$GNRMC,025757.000,A,2257.0725,N,11353.8079,E,0.25,260.53,100517,,,A*74
$GNVTG,260.53,T,,M,0.25,N,0.47,K,A25
$GNGGA,025758.000,2257.0728,N,11353.8080,E,1,11,0.93,27.7,M,-3.6,M,,*55
1494413860 113.896800 22.951213 27.70 0.93 0.85 14 40 38 37 34
speed:0.000000, dis=0.000000
$GPGSA,A,3,16,14,23,27,32,193,03,22,,,,,1.28,0.93,0.88*3C
$GLGSA,A,3,81,68,82,,,,,,,,,,1.28,0.93,0.88*12
$GPGSV,4,1,14,16,66,290,29,26,60,004,,14,48,137,37,41,46,236,28*7A
$GPGSV,4,2,14,31,40,055,,27,37,177,26,22,27,244,32,32,25,143,29*75
$GPGSV,4,3,14,03,24,274,31,23,21,320,25,193,21,169,32,29,09,040,*48
$GPGSV,4,4,14,08,09,198,24,21,02,100,*7B
$GLGSV,3,1,09,69,52,263,,79,35,009,,81,34,097,31,68,32,193,30*65
$GLGSV,3,2,09,80,24,300,,82,21,152,34,70,18,322,,78,16,047,*6E
$GLGSV,3,3,09,88,14,044,*59
$GNRMC,025758.000,A,2257.0728,N,11353.8080,E,0.34,260.53,100517,,,A*70
$GNVTG,260.53,T,,M,0.34,N,0.64,K,A*24
$GNGGA,025759.000,2257.0730,N,11353.8081,E,1,11,0.93,27.7,M,-3.6,M,,*5C
1494413861 113.896801 22.951216 27.70 0.93 0.88 14 37 32 32 31
speed:0.000000, dis=0.000000
$GPGSA,A,3,16,14,23,27,32,193,03,22,,,,,1.28,0.93,0.88*3C
$GLGSA,A,3,81,68,82,,,,,,,,,,1.28,0.93,0.88*12
$GPGSV,4,1,14,16,66,290,30,26,60,004,,14,48,137,36,41,46,236,28*73
$GPGSV,4,2,14,31,40,055,,27,37,177,26,22,27,244,31,32,25,143,29*76
$GPGSV,4,3,14,03,24,274,31,23,21,320,26,193,21,169,31,29,09,040,*48
$GPGSV,4,4,14,08,09,198,24,21,02,100,*7B
$GLGSV,3,1,09,69,52,263,,79,35,009,,81,34,097,31,68,32,193,30*65
$GLGSV,3,2,09,80,24,300,,82,21,152,33,70,18,322,,78,16,047,*69
$GLGSV,3,3,09,88,14,044,*59
$GNRMC,025759.000,A,2257.0730,N,11353.8081,E,0.47,260.53,100517,,,A*7D
$GNVTG,260.53,T,,M,0.47,N,0.86,K,A2C
$GNGGA,025800.000,2257.0734,N,11353.8085,E,1,12,0.93,27.7,M,-3.6,M,,*5C
1494413862 113.896808 22.951223 27.70 0.93 0.88 14 36 31 31 31
speed:0.000000, dis=0.000000
$GPGSA,A,3,16,14,23,27,08,32,193,03,22,,,,1.28,0.93,0.88*34
$GLGSA,A,3,81,68,82,,,,,,,,,,1.28,0.93,0.88*12
$GPGSV,4,1,14,16,66,290,30,26,60,004,,14,48,137,36,41,46,236,31*7B
$GPGSV,4,2,14,31,40,055,,27,37,177,27,22,27,244,23,32,25,143,30*7C
$GPGSV,4,3,14,03,24,274,31,23,21,320,33,193,21,169,29,29,09,040,*45
$GPGSV,4,4,14,08,09,198,23,21,02,100,*7C
$GLGSV,3,1,09,69,52,263,,79,35,009,,81,34,097,31,68,32,193,30*65
$GLGSV,3,2,09,80,24,300,,82,21,152,24,70,18,322,,78,16,047,*6F
$GLGSV,3,3,09,88,14,044,*59
$GNRMC,025800.000,A,2257.0734,N,11353.8085,E,0.75,36.24,100517,,,A*4E
$GNVTG,36.24,T,,M,0.75,N,1.39,K,A*19
$GNGGA,025801.000,2257.0737,N,11353.8089,E,1,12,0.93,27.7,M,-3.6,M,,*52
1494413863 113.896815 22.951228 27.70 0.93 0.88 14 36 33 31 31
speed:0.000000, dis=0.000000
$GPGSA,A,3,16,14,23,27,08,32,193,03,22,,,,1.28,0.93,0.88*34
$GLGSA,A,3,81,68,82,,,,,,,,,,1.28,0.93,0.88*12
$GPGSV,4,1,14,16,66,290,30,26,60,004,,14,48,137,36,41,46,236,31*7B
$GPGSV,4,2,14,31,40,055,,27,37,177,28,22,27,244,23,32,25,143,30*73
$GPGSV,4,3,14,03,24,274,31,23,21,320,33,193,21,169,28,29,09,040,*44
$GPGSV,4,4,14,08,09,198,23,21,02,100,*7C
$GLGSV,3,1,09,69,52,263,,79,35,009,,81,34,097,31,68,32,193,30*65
$GLGSV,3,2,09,80,24,300,,82,21,152,24,70,18,322,,78,16,047,*6F
$GLGSV,3,3,09,88,14,044,*59
$GNRMC,025801.000,A,2257.0737,N,11353.8089,E,1.01,46.86,10517,,,$GNGGA,025802.000,2257.0737,N,11353.8090,E,1,12,0.88,27.7,M,-3.6,M,,*53
1494413864 113.896816 22.951228 27.70 0.88 0.88 14 36 33 31 31
speed:0.000000, dis=0.000000
$GPGSA,A,3,16,14,23,27,08,32,193,03,22,,,,1.21,0.88,0.83*3C
$GLGSA,A,3,69,81,68,,,,,,,,,,1.21,0.88,0.83*1F
$GPGSV,4,1,14,16,66,291,38,26,60,004,,14,48,137,29,41,46,236,30*7D
$GPGSV,4,2,14,31,40,055,,27,37,177,28,22,27,244,25,32,25,143,30*75
$GPGSV,4,3,14,03,24,274,32,23,21,320,34,193,21,169,26,29,09,040,*4E
$GPGSV,4,4,14,08,09,198,22,21,02,100,*7D
$GLGSV,3,1,09,69,52,263,29,79,35,009,,81,34,097,30,68,32,193,23*6D
$GLGSV,3,2,09,80,24,300,,82,21,152,18,70,18,322,29,78,16,047,*6B
$GLGSV,3,3,09,88,14,044,*59
$GNRMC,025802.000,A,2257.0737,N,11353.8090,E,0.78,47.52,100517,,,A*41
$GNVTG,47.52,T,,M,0.78,N,1.45,K,A*18
$GNGGA,025803.000,2257.0737,N,11353.8091,E,1,12,0.88,27.7,M,-3.6,M,,*53
1494413865 113.896818 22.951228 27.70 0.88 0.83 14 38 34 32 30
speed:0.000000, dis=0.000000
$GPGSA,A,3,16,14,23,27,08,32,193,03,22,,,,1.21,0.88,0.83*3C
$GLGSA,A,3,69,81,68,,,,,,,,,,1.21,0.88,0.83*1F
$GPGSV,4,1,14,16,66,291,38,26,60,004,,14,48,137,29,41,46,236,30*7D
$GPGSV,4,2,14,31,40,055,,27,37,177,28,22,27,244,26,32,25,143,30*76
$GPGSV,4,3,14,03,24,274,32,23,21,320,35,193,21,169,25,29,09,040,*4C
$GPGSV,4,4,14,08,09,198,22,21,02,100,*7D
$GLGSV,3,1,09,69,52,263,29,79,35,009,,81,34,097,29,68,32,193,23*65
$GLGSV,3,2,09,80,24,300,,82,21,152,18,70,18,322,29,78,16,047,*6B
$GLGSV,3,3,09,88,14,044,*59
$GNRMC,025803.000,A,2257.0737,N,11353.8091,E,0.65,55.94,100517,,,A*44
$GNVTG,55.94,T,,M,0.65,N,1.21,K,A*1F
$GNGGA,025804.000,2257.0737,N,11353.8094,E,1,12,0.88,27.7,M,-3.6,M,,*51
$GNGGA,025804.000,2257.0737,N,11353.8094,E,1,12,0.88,27.7,M,-3.6,M,,*51
1494413866 113.896823 22.951228 27.70 0.88 0.83 14 38 35 32 30
speed:0.000000, dis=0.000000
$GPGSA,A,3,16,14,23,27,32,193,03,22,,,,,1.21,0.88,0.83*34
$GLGSA,A,3,69,81,68,82,,,,,,,,,1.21,0.88,0.83*15
$GPGSV,4,1,14,16,66,291,38,26,60,004,,14,48,137,37,41,46,236,37*75
$GPGSV,4,2,14,31,40,055,,27,37,177,30,22,27,244,26,32,25,143,30*7F
$GPGSV,4,3,14,03,24,274,34,23,21,320,35,193,21,169,24,29,09,040,*4B
$GPGSV,4,4,14,08,09,198,20,21,02,100,*7F
$GLGSV,3,1,09,69,52,263,33,79,35,009,,81,34,097,29,68,32,193,25*68
$GLGSV,3,2,09,80,24,300,,82,21,152,30,70,18,322,25,78,16,047,*6D
$GLGSV,3,3,09,88,14,044,*59
$GNRMC,025804.000,A,2257.0737,N,11353.8094,E,0.59,53.64,10,A*1B
$GNGGA,025805.000,2257.0739,N,11353.8096,E,1,12,0.88,27.8,M,-3.6,M,,*53
1494413867 113.896826 22.951231 27.80 0.88 0.83 14 38 37 37 35
speed:0.000000, dis=0.000000
$GPGSA,A,3,16,14,23,27,32,193,03,22,,,,,1.21,0.88,0.83*34
$GLGSA,A,3,69,81,68,82,,,,,,,,,1.21,0.88,0.83*15
$GPGSV,4,1,14,16,66,291,38,26,60,004,,14,48,137,37,41,46,236,37*75
$GPGSV,4,2,14,31,40,055,,27,37,177,31,22,27,244,26,32,25,143,30*7E
$GPGSV,4,3,14,03,24,274,35,23,21,320,35,193,21,169,23,29,09,040,*4D
$GPGSV,4,4,14,08,09,198,20,21,02,100,*7F
$GLGSV,3,1,09,69,52,263,33,79,35,009,,81,34,097,29,68,32,193,26*6B
$GLGSV,3,2,09,80,24,300,,82,21,152,30,70,18,322,25,78,16,047,*6D
$GLGSV,3,3,09,88,14,044,*59
$GNRMC,025805.000,A,2257.0739,N,11353.8096,E,0.61,53.48,100517,,,A*48
$GNVTG,53.48,T,,M,0.61,N,1.13,K,A*1D
$GNGGA,025806.000,2257.0741,N,11353.8097,E,1,12,0.91,27.8,M,-3.6,M,,*56
1494413868 113.896828 22.951235 27.80 0.91 0.83 14 38 37 37 35
speed:0.000000, dis=0.000000
$GPGSA,A,3,16,14,23,27,32,193,03,22,,,,,1.25,0.91,0.85*3E
$GLGSA,A,3,69,81,68,82,,,,,,,,,1.25,0.91,0.85*1F
$GPGSV,4,1,14,16,66,291,37,26,60,004,,14,48,137,38,41,46,236,38*7A
$GPGSV,4,2,14,31,40,055,,27,37,177,32,22,27,244,27,32,25,143,32*7E
$GPGSV,4,3,14,03,24,274,36,23,21,320,35,193,21,169,24,29,09,040,*49
$GPGSV,4,4,14,08,09,198,19,21,02,100,*75
$GLGSV,3,1,09,69,52,263,34,79,35,009,,81,34,097,29,68,32,193,25*6F
$GLGSV,3,2,09,80,24,300,,82,21,152,34,70,18,322,27,78,16,047,*6B
$GLGSV,3,3,09,88,14,044,*59
$GNRMC,025806.000,A,2257.0741,N,11353.8097,E,0.66,30.20,100517,,,A*49
$GNVTG,30.20,T,,M,0.66,N,1.22,K,A*13
$GNGGA,025807.000,2257.0743,N,11353.8098,E,1,12,0.91,27.8,M,-3.6,M,,*5A
$GNGGA,025807.000,2257.0743,N,11353.8098,E,1,12,0.91,27.8,M,-3.6,M,,*5A
1494413869 113.896830 22.951238 27.80 0.91 0.85 14 38 38 37 36
speed:0.000000, dis=0.000000
$GPGSA,A,3,16,14,23,27,32,193,03,22,,,,,1.25,0.91,0.85*3E
$GLGSA,A,3,69,81,68,82,,,,,,,,,1.25,0.91,0.85*1F
$GPGSV,4,1,14,16,66,291,36,26,60,004,,14,48,137,38,41,46,236,38*7B
$GPGSV,4,2,14,31,40,055,,27,37,177,33,22,27,244,28,32,25,143,33*71
$GPGSV,4,3,14,03,24,274,37,23,21,320,35,193,21,169,25,29,09,040,*49
$GPGSV,4,4,14,08,09,198,19,21,02,100,*75
$GLGSV,3,1,09,69,52,263,34,79,35,009,,81,34,097,29,6$GNGGA,025808.000,2257.0746,N,11353.8099,E,1,9,0.91,27.8,M,-3.6,M,,*6B
1494413870 113.896831 22.951243 27.80 0.91 0.85 14 38 38 37 36
speed:0.000000, dis=0.000000
$GPGSA,A,3,16,14,23,27,32,193,03,,,,,,1.25,0.91,0.85*3E
$GLGSA,A,3,69,81,,,,,,,,,,,1.25,0.91,0.85*1B
$GPGSV,4,1,14,16,66,291,35,26,60,004,,14,48,137,28,41,46,236,30*71
$GPGSV,4,2,14,31,40,055,,27,37,177,32,22,27,244,,32,25,143,32*7B
$GPGSV,4,3,14,03,24,274,35,23,21,320,35,193,21,169,26,29,09,040,*48
$GPGSV,4,4,14,08,09,198,19,21,02,100,*75
$GLGSV,3,1,09,69,52,263,27,79,35,009,,81,34,097,29,68,32,193,20*68
$GLGSV,3,2,09,80,24,300,,82,21,152,28,70,18,322,23,78,16,047,*62
$GLGSV,3,3,09,88,14,044,*59
$GNRMC,$GNGGA,025809.000,2257.0749,N,11353.8100,E,1,9,0.91,27.9,M,-3.6,M,,*65
1494413871 113.896833 22.951248 27.90 0.91 0.85 14 35 35 35 32
speed:0.000000, dis=0.000000
$GPGSA,A,3,16,14,23,27,32,193,03,,,,,,1.25,0.91,0.85*3E
$GLGSA,A,3,69,81,,,,,,,,,,,1.25,0.91,0.85*1B
$GPGSV,4,1,14,16,66,291,35,26,60,004,,14,48,137,28,41,46,236,30*71
$GPGSV,4,2,14,31,40,055,,27,37,177,31,22,27,244,,32,25,143,31*7B
$GPGSV,4,3,14,03,24,274,34,23,21,320,35,193,21,169,27,29,09,040,*48
$GPGSV,4,4,14,08,09,198,19,21,02,100,*75
$GLGSV,3,1,09,69,52,263,27,79,35,009,,81,34,097,29,68,32,193,20*68
$GLGSV,3,2,09,80,24,3001,152,28,70,18,322,23,78,16,047,*62
$GLGSV,3,3,09,88,14,044,*59
$GNRMC,025809$GNGGA,025810.000,2257.0749,N,11353.8100,E,1,12,0.91,27.9,M,-3.6,M,,*57
1494413872 113.896833 22.951248 27.90 0.91 0.85 14 35 35 34 31
speed:0.000000, dis=0.000000
$GPGSA,A,3,16,14,23,27,32,193,03,22,,,,,1.25,0.91,0.85*3E
$GLGSA,A,3,69,81,68,82,,,,,,,,,1.25,0.91,0.85*1F
$GPGSV,4,1,14,16,66,291,35,26,60,004,,14,48,137,29,41,46,236,30*70
$GPGSV,4,2,14,31,40,055,,27,37,177,29,22,27,244,25,32,25,143,31*75
$GPGSV,4,3,14,03,24,274,32,23,21,320,36,193,21,169,26,29,09,040,*4C
$GPGSV,4,4,14,08,09,198,19,21,02,100,*75
$GLGSV,3,1,09,69,52,263,26,79,35,009,,81,34,097,20,68,32,193,23*63
$GLGSV,3,2,09,80,24,300,23,82,21,152,23,70,18,322,25,78,16,047,*6E
$GLGSV,3,3,09,88,14,044,*59
$GNRMC,025810.000,A,2257.0749,N,11353.8100,E,0.57,16.73,100517,,,A*49
$GNVTG,16.73,T,,M,0.57,N,1.06,K,A*1$GNGGA,025811.000,2257.0750,N,11353.8102,E,1,12,0.91,27.9,M,-3.6,M,,*5C
1494413873 113.896836 22.951250 27.90 0.91 0.85 14 36 35 32 31
speed:0.000000, dis=0.000000
$GPGSA,A,3,16,14,23,27,32,193,03,22,,,,,1.25,0.91,0.85*3E
$GLGSA,A,3,69,81,68,82,,,,,,,,,1.25,0.91,0.85*1F
$GPGSV,4,1,14,16,66,291,35,26,60,004,,14,48,137,30,41,46,236,30*78
$GPGSV,4,2,14,31,40,055,,27,37,177,28,22,27,244,25,32,25,143,31*74
$GPGSV,4,3,14,03,24,274,31,23,21,320,36,193,21,169,25,29,09,040,*4C
$GPGSV,4,4,14,08,09,198,19,21,02,100,*75
$GLGSV,3,1,09,69,52,263,26,79,35,009,,81,34,097,20,68,32,193,23*63
$GLGSV,3,2,09,80,24,300,23,82,21,152,23,70,18,322,25,78,16,047,*6E
$GLGSV,3,3,09,88,14,044,*59
$GNRMC,025811.000,A,2257.0750,N,11353.8102,E,0.57,16.73,100517,,,A*42
$GNVTG,16.73,T,,M,0.57,N,1.05,K,A*1$GNGGA,025812.000,2257.0751,N,11353.8101,E,1,12,0.91,27.8,M,-3.6,M,,*5C
$GNGGA,025812.000,2257.0751,N,11353.8101,E,1,12,0.91,27.8,M,-3.6,M,,*5C
1494413874 113.896835 22.951251 27.80 0.91 0.85 14 36 35 31 31
speed:0.000000, dis=0.000000
$GPGSA,A,3,16,14,23,27,32,193,03,22,,,,,1.25,0.91,0.85*3E
$GLGSA,A,3,69,68,80,82,,,,,,,,,1.25,0.91,0.85*1E
$GPGSV,4,1,14,16,66,291,35,26,60,004,,14,48,137,30,41,46,236,29*70
$GPGSV,4,2,14,31,40,055,,27,37,177,27,22,27,244,25,32,25,143,31*7B
$GPGSV,4,3,14,03,24,274,30,23,21,320,36,193,21,169,25,29,09,040,*4D
$GPGSV,4,4,14,08,09,198,18,21,02,100,*74
$GLGSV,3,1,09,69,52,263,25,79,35,009,,81,34,097,18,68,32,193,24*6C
$GLGSV,3,2,09,80,24,300,24,82,21,152,25,70,18,322,28,78,16,047,*62
$GLGSV,3,3,09,88,14,044,*59
$GNRMC,025812.000,A,2257.0751,N,11353.8101,E,0.50,16.73,,K,A*1F
$GNGGA,025813.000,2257.0751,N,11353.8100,E,1,12,0.91,27.8,M,-3.6,M,,*5C
1494413875 113.896833 22.951251 27.80 0.91 0.85 14 36 35 31 30
speed:0.000000, dis=0.000000
$GPGSA,A,3,16,14,23,27,32,193,03,22,,,,,1.25,0.91,0.85*3E
$GLGSA,A,3,69,68,80,82,,,,,,,,,1.25,0.91,0.85*1E
$GPGSV,4,1,14,16,66,291,35,26,60,004,,14,48,137,30,41,46,236,29*70
$GPGSV,4,2,14,31,40,055,,27,37,177,26,22,27,244,25,32,25,143,31*7A
$GPGSV,4,3,14,03,24,274,30,23,21,320,36,193,21,169,25,29,09,040,*4D
$GPGSV,4,4,14,08,09,198,18,21,02,100,*74
$GLGSV,3,1,09,69,52,263,25,79,35,009,,81,34,097,18,68,32,193,24*6C
$GLGSV,3,2,09,80,24,300,24,82,21,152,25,70,18,322,28,78,16,047,*62
$GLGSV,3,3,09,88,14,044,*59
$GNRMC,025813.000,A,2257.0751,N,11353.8100,E,0.29,16.73,53,K,A*1D
$GNGGA,025814.000,2257.0751,N,11353.8098,E,1,10,1.33,27.8,M,-3.6,M,,*50
1494413876 113.896830 22.951251 27.80 1.33 0.85 14 36 35 31 30
speed:0.000000, dis=0.000000
$GPGSA,A,3,16,14,23,27,32,193,03,,,,,,1.58,1.33,0.86*3E
$GLGSA,A,3,69,68,82,,,,,,,,,,1.58,1.33,0.86*16
$GPGSV,4,1,14,16,66,291,35,26,60,004,,14,48,137,30,41,46,236,29*70
$GPGSV,4,2,14,31,40,055,,27,37,177,26,22,27,244,25,32,25,143,31*7A
$GPGSV,4,3,14,03,24,274,29,23,21,320,36,193,21,169,25,29,09,040,*45
$GPGSV,4,4,14,08,09,198,18,21,02,100,*74
$GLGSV,3,1,09,69,52,263,25,79,35,009,,81,34,097,,68,32,193,25*64
$GLGSV,3,2,09,80,24,300,23,82,21,152,28,70,18,322,27,78,16,047,*67
$GLGSV,3,3,09,88,14,044,*59
$GNRMC,025814.000,A,2257.0751,N,11353.8098,E,0.18,16.73,100517,,,A*4F
$GNVTG,16.73,T,,M,0.18,N,0.32,K,A*18
$GNGGA,025815.000,2257.0750,N,11353.8097,E,1,10,1.33,27.8,M,-3.6,M,,*5F
$GNGGA,025815.000,2257.0750,N,11353.8097,E,1,10,1.33,27.8,M,-3.6,M,,*5F
1494413877 113.896828 22.951250 27.80 1.33 0.86 14 36 35 31 30
speed:0.000000, dis=0.000000
$GPGSA,A,3,16,14,23,27,32,193,03,,,,,,1.58,1.33,0.86*3E
$GLGSA,A,3,69,68,82,,,,,,,,,,1.58,1.33,0.86*16
$GPGSV,4,1,14,16,66,291,35,26,60,004,,14,48,137,30,41,46,236,29*70
$GPGSV,4,2,14,31,40,055,,27,37,177,26,22,27,244,25,32,25,143,31*7A
$GPGSV,4,3,14,03,24,274,29,23,21,320,36,193,21,169,25,29,09,040,*45
$GPGSV,4,4,14,08,09,198,18,21,02,100,*74
$GLGSV,3,1,09,69,52,263,25,79,35,009,,81,34,097,,68,32,193,25*64
$GLGSV,3,2,09,80,24,300,23,82,21,152,28,70,18,322,27,78,16,047,*67
$GLGSV,3,3,09,88,14,044,*59
$GNRMC,025815.000,A,2257.0750,N,11353.8097,E,0.08,16.73,1005C
$GNGGA,025816.000,2257.0751,N,11353.8097,E,1,12,1.33,27.8,M,-3.6,M,,*5F
1494413878 113.896828 22.951251 27.80 1.33 0.86 14 36 35 31 30
speed:0.000000, dis=0.000000
$GPGSA,A,3,16,14,23,27,32,193,03,22,,,,,1.58,1.33,0.86*3E
$GLGSA,A,3,69,68,80,82,,,,,,,,,1.58,1.33,0.86*1E
$GPGSV,4,1,14,16,66,291,36,26,60,004,,14,48,137,30,41,46,236,28*72
$GPGSV,4,2,14,31,40,055,,27,37,177,26,22,27,244,24,32,25,143,31*7B
$GPGSV,4,3,14,03,24,274,28,23,21,320,36,193,21,169,25,29,09,040,*44
$GPGSV,4,4,14,08,09,198,18,21,02,100,*74
$GLGSV,3,1,09,69,52,263,25,79,35,009,,81,34,097,,68,32,193,25*64
$GLGSV,3,2,09,80,24,300,22,82,21,152,26,70,18,322,26,78,16,047,*69
$GLGSV,3,3,09,88,14,044,*59
$GNRMC,025816.000,A,2257.0751,N,11353.8097,E,0.16,16.73,100517,,,A*4C
$GNVTG,16.73,T,,M,0.16,N,0.30,K,A*14
$GNGGA,025817.000,2257.0751,N,11353.8097,E,1,12,1.33,27.8,M,-3.6,M,,*5E
$GNGGA,025817.000,2257.0751,N,11353.8097,E,1,12,1.33,27.8,M,-3.6,M,,*5E
1494413879 113.896828 22.951251 27.80 1.33 0.86 14 36 36 31 30
speed:0.000000, dis=0.000000
$GPGSA,A,3,16,14,23,27,32,193,03,22,,,,,1.58,1.33,0.86*3E
$GLGSA,A,3,69,68,80,82,,,,,,,,,1.58,1.33,0.86*1E
$GPGSV,4,1,14,16,66,291,36,26,60,004,,14,48,137,30,41,46,236,28*72
$GPGSV,4,2,14,31,40,055,,27,37,177,26,22,27,244,24,32,25,143,31*7B
$GPGSV,4,3,14,03,24,274,27,23,21,320,36,193,21,169,25,29,09,040,*4B
$GPGSV,4,4,14,08,09,198,18,21,02,100,*74
$GLGSV,3,1,09,69,52,263,25,79,35,009,,81,34,097,,68,32,193,25*64
$GLGSV,3,2,09,80,24,300,22,82,21,152,26,70,18,322,26,78,16,047,*69
$GLGSV,3,3,09,88,14,044,*59
$GNRMC,025817.000,A,2257.0751,N,11353.8097,E,0.21,16.73,10A*17
$GNGGA,025818.000,2257.0751,N,11353.8095,E,1,12,1.13,27.8,M,-3.6,M,,*51
1494413880 113.896825 22.951251 27.80 1.13 0.86 14 36 36 31 30
speed:0.000000, dis=0.000000
$GPGSA,A,3,16,14,23,27,32,193,03,22,,,,,1.41,1.13,0.85*37
$GLGSA,A,3,69,68,80,82,,,,,,,,,1.41,1.13,0.85*17
$GPGSV,4,1,14,16,66,291,36,26,60,004,,14,48,137,29,41,46,236,28*7A
$GPGSV,4,2,14,31,40,055,,27,37,177,27,22,27,244,23,32,25,143,31*7D
$GPGSV,4,3,14,03,24,274,28,23,21,320,36,193,21,169,27,29,09,040,*46
$GPGSV,4,4,14,08,09,198,19,21,02,100,*75
$GLGSV,3,1,09,69,52,263,24,79,35,009,,81,34,097,,68,32,193,24*64
$GLGSV,3,2,09,80,24,300,24,82,21,152,25,70,18,322,27,78,16,047,*6D
$GLGSV,3,3,09,88,14,044,*59
$GNRMC,025818.000,A,2257.0751,N,11353.8095,E,0.24,16.73,100517,,,A*41
$GNVTG,16.73,T,,M,0.24,N,0.44,K,A*16
$GNGGA,025819.000,2257.0751,N,11353.8092,E,1,12,1.13,27.8,M,-3.6,M,,*57
$GNGGA,025819.000,2257.0751,N,11353.8092,E,1,12,1.13,27.8,M,-3.6,M,,*57
1494413881 113.896820 22.951251 27.80 1.13 0.85 14 36 36 31 29
speed:0.000000, dis=0.000000
$GPGSA,A,3,16,14,23,27,32,193,03,22,,,,,1.41,1.13,0.85*37
$GLGSA,A,3,69,68,80,82,,,,,,,,,1.41,1.13,0.85*17
$GPGSV,4,1,14,16,66,291,36,26,60,004,,14,48,137,28,41,46,236,28*7B
$GPGSV,4,2,14,31,40,055,,27,37,177,27,22,27,244,23,32,25,143,31*7D
$GPGSV,4,3,14,03,24,274,28,23,21,320,36,193,21,169,28,29,09,040,*49
$GPGSV,4,4,14,08,09,198,19,21,02,100,*75
$GLGSV,3,1,09,69,52,263,24,79,35,009,,81,34,097,,68,32,193,24*64
$GLGSV,3,2,09,80,24,300,24,82,21,152,25,70,18,322,27,78,16,047,*6D
$GLGSV,3,3,09,88,14,044,*59
9,N,0.71,K,A*1C
$GNGGA,025820.000,2257.0751,N,11353.8090,E,1,12,1.13,27.8,M,-3.6,M,,*5F
1494413882 113.896816 22.951251 27.80 1.13 0.85 14 36 36 31 28
speed:0.000000, dis=0.000000
$GPGSA,A,3,16,14,23,27,32,193,03,22,,,,,1.41,1.13,0.85*37
$GLGSA,A,3,69,68,80,82,,,,,,,,,1.41,1.13,0.85*17
$GPGSV,4,1,14,16,66,291,36,26,60,004,,14,48,137,29,41,46,236,28*7A
$GPGSV,4,2,14,31,40,055,,27,37,177,28,22,27,244,25,32,25,143,31*74
$GPGSV,4,3,14,03,24,274,29,23,21,320,36,193,21,169,28,29,09,040,*48
$GPGSV,4,4,14,08,09,198,18,21,02,100,*74
$GLGSV,3,1,09,69,52,263,25,79,35,009,,81,34,097,,68,32,193,23*62
$GLGSV,3,2,09,80,24,300,25,82,21,152,26,70,18,322,25,78,16,047,*6D
$GLGSV,3,3,09,88,14,044,*59
$GNRMC,025820.000,A,2257.0751,N,11353.8090,E,0.28,16.73,100517,,,A*43
$GNVTG,16.73,T,,M,0.28,N,0.53,K,A*1C
$GNGGA,025821.000,2257.0750,N,11353.8086,E,1,12,1.13,27.8,M,-3.6,M,,*58
$GNGGA,025821.000,2257.0750,N,11353.8086,E,1,12,1.13,27.8,M,-3.6,M,,*58
1494413883 113.896810 22.951250 27.80 1.13 0.85 14 36 36 31 29
speed:0.000000, dis=0.000000
$GPGSA,A,3,16,14,23,27,32,193,03,22,,,,,1.41,1.13,0.85*37
$GLGSA,A,3,69,68,80,82,,,,,,,,,1.41,1.13,0.85*17
$GPGSV,4,1,14,16,66,291,36,26,60,004,,14,48,137,29,41,46,236,28*7A
$GPGSV,4,2,14,31,40,055,,27,37,177,29,22,27,244,25,32,25,143,31*75
$GPGSV,4,3,14,03,24,274,29,23,21,320,36,193,21,169,28,29,09,040,*48
$GPGSV,4,4,14,08,09,198,18,21,02,100,*74
$GLGSV,3,1,09,69,52,263,25,79,35,009,,81,34,097,,68,32,193,23*62
$GLGSV,3,2,09,80,24,300,25,82,21,152,26,70,18,322,25,78,16,047,*6D
$GLGSV,3,3,09,88,14,044,*59
33,N,0.61,K,A*17
$GNGGA,025822.000,2257.0752,N,11353.8087,E,1,11,1.15,27.9,M,-3.6,M,,*5C
1494413884 113.896811 22.951253 27.90 1.15 0.85 14 36 36 31 29
speed:0.000000, dis=0.000000
$GPGSA,A,3,16,14,23,27,32,193,03,22,,,,,1.44,1.15,0.86*37
$GLGSA,A,3,69,68,80,,,,,,,,,,1.44,1.15,0.86*1D
$GPGSV,4,1,14,16,66,291,37,26,60,004,,14,48,137,28,41,46,236,38*7B
$GPGSV,4,2,14,31,40,055,,27,37,177,27,22,27,244,32,32,25,143,23*7E
$GPGSV,4,3,14,03,24,274,31,23,21,320,37,193,21,169,27,29,09,040,*4F
$GPGSV,4,4,14,08,09,198,21,21,02,100,*7E
$GLGSV,3,1,09,69,52,263,32,79,35,009,,81,34,097,,68,32,193,32*64
$GLGSV,3,2,09,80,24,300,29,82,21,152,22,70,18,322,28,78,16,047,*68
$GLGSV,3,3,09,88,14,044,*59
$GNRMC,025822.000,A,2257.0752,N,11353.8087,E,0.17,16.73,100517,,,A*48
$GNVTG,16.73,T,,M,0.17,N,0.32,K,A*17
$GNGGA,025823.000,2257.0754,N,11353.8088,E,1,11,1.15,27.9,M,-3.6,M,,*54
$GNGGA,025823.000,2257.0754,N,11353.8088,E,1,11,1.15,27.9,M,-3.6,M,,*54
1494413885 113.896813 22.951256 27.90 1.15 0.86 14 38 37 37 32
speed:0.000000, dis=0.000000
$GPGSA,A,3,16,14,23,27,32,193,03,22,,,,,1.44,1.15,0.86*37
$GLGSA,A,3,69,68,80,,,,,,,,,,1.44,1.15,0.86*1D
$GPGSV,4,1,14,16,66,291,37,26,60,004,,14,48,137,27,41,46,236,38*74
$GPGSV,4,2,14,31,40,055,,27,37,177,26,22,27,244,32,32,25,143,23*7F
$GPGSV,4,3,14,03,24,274,32,23,21,320,37,193,21,169,26,29,09,040,*4D
$GPGSV,4,4,14,08,09,198,21,21,02,100,*7E
$GLGSV,3,1,09,69,52,263,32,79,35,009,,81,34,097,,68,32,193,32*64
$GLGSV,3,2,09,80,24,300,29,82,21,152,22,70,18,322,28,78,16,047,*68
$GLGSV,3,3,09,88,14,044,*59
$,N,0.33,K,A*19
$GNGGA,025824.000,2257.0755,N,11353.8087,E,1,10,1.15,27.9,M,-3.6,M,,*5C
1494413886 113.896811 22.951258 27.90 1.15 0.86 14 38 37 37 32
speed:0.000000, dis=0.000000
$GPGSA,A,3,16,14,23,27,32,193,03,,,,,,1.44,1.15,0.86*37
$GLGSA,A,3,69,68,80,,,,,,,,,,1.44,1.15,0.86*1D
$GPGSV,4,1,14,16,66,291,35,26,60,004,,14,48,137,28,41,46,236,29*79
$GPGSV,4,2,14,31,40,055,,27,37,177,26,22,27,244,24,32,25,143,30*7A
$GPGSV,4,3,14,03,24,274,25,23,21,320,36,193,21,169,25,29,09,040,*49
$GPGSV,4,4,14,08,09,198,21,21,02,100,*7E
$GLGSV,3,1,09,69,52,263,26,79,35,009,,81,34,097,,68,32,193,29*6B
$GLGSV,3,2,09,80,24,300,30,82,21,152,24,70,18,322,26,78,16,047,*68
$GLGSV,3,3,09,88,14,044,*59
$GNRMC,025824.000,A,2257.0755,N,11353.8087,E,0.27,16.73,100517,,,A*4A
$GNVTG,16.73,T,,M,0.27,N,0.50,K,A*10
$GNGGA,025825.000,2257.0756,N,11353.8086,E,1,9,1.15,27.9,M,-3.6,M,,*67
$GNGGA,025825.000,2257.0756,N,11353.8086,E,1,9,1.15,27.9,M,-3.6,M,,*67
1494413887 113.896810 22.951260 27.90 1.15 0.86 14 36 35 30 29
speed:0.000000, dis=0.000000
$GPGSA,A,3,16,14,23,27,32,193,03,,,,,,1.44,1.15,0.86*37
$GLGSA,A,3,69,68,,,,,,,,,,,1.44,1.15,0.86*15
$GPGSV,4,1,14,16,66,291,34,26,60,004,,14,48,137,28,41,46,236,29*78
$GPGSV,4,2,14,31,40,055,,27,37,177,26,22,27,244,24,32,25,143,30*7A
$GPGSV,4,3,14,03,24,274,25,23,21,320,35,193,21,169,25,29,09,040,*4A
$GPGSV,4,4,14,08,09,198,21,21,02,100,*7E
$GLGSV,3,1,09,69,52,263,26,79,35,009,,81,34,097,,68,32,193,29*6B
$GLGSV,3,2,09,80,24,300,30,82,21,152,24,70,18,322,26,78,16,047,*68
$GLGSV,3,3,09,88,14,044,*59
$GNGGA,025826.000,2257.0755,N,11353.8083,E,1,13,1.04,27.9,M,-3.6,M,,*59
1494413888 113.896805 22.951258 27.90 1.04 0.86 14 35 34 30 29
speed:0.000000, dis=0.000000
$GPGSA,A,3,16,14,23,27,08,32,193,03,22,,,,1.32,1.04,0.82*3A
$GLGSA,A,3,69,68,80,82,,,,,,,,,1.32,1.04,0.82*12
$GPGSV,4,1,14,16,66,291,34,26,60,004,,14,48,137,28,50,46,122,*75
$GPGSV,4,2,14,31,40,055,,27,37,177,28,22,27,243,34,32,25,143,29*7A
$GPGSV,4,3,14,03,24,274,35,23,21,320,34,193,21,169,25,29,09,040,*4A
$GPGSV,4,4,14,08,09,198,24,21,02,100,*7B
$GLGSV,3,1,09,69,52,263,28,79,35,009,,81,34,097,,68,32,193,30*6D
$GLGSV,3,2,09,80,24,300,31,82,21,152,25,70,18,322,27,78,16,047,*69
$GLGSV,3,3,09,88,14,044,*59
$GNRMC,025826.000,A,2257.0755,N,11353.8083,E,0.30,16.73,100517,,,A*4A
$GNVTG,16.73,T,,M,0.30,N,0.56,K,A*10
$GNGGA,025827.000,2257.0755,N,11353.8080,E,1,13,1.04,27.9,M,-3.6,M,,*5B
1494413889 113.896800 22.951258 27.90 1.04 0.82 14 35 34 34 34
speed:0.000000, dis=0.000000
$GPGSA,A,3,16,14,23,27,08,32,193,03,22,,,,1.32,1.04,0.82*3A
$GLGSA,A,3,69,68,80,82,,,,,,,,,1.32,1.04,0.82*12
$GPGSV,4,1,14,16,66,291,34,26,60,004,,14,48,137,28,50,46,122,*75
$GPGSV,4,2,14,31,40,055,,27,37,177,29,22,27,243,34,32,25,143,28*7A
$GPGSV,4,3,14,03,24,274,35,23,21,320,33,193,21,169,25,29,09,040,*4D
$GPGSV,4,4,14,08,09,198,24,21,02,100,*7B
$GLGSV,3,1,09,69,52,263,28,79,35,009,,81,34,097,,68,32,193,30*6D
$GLGSV,3,2,09,80,24,300,31,82,21,152,25,70,18,322,27,78,16,047,*69
$GLGSV,3,3,09,88,14,044,*59
$GNRMC,025827.000,A,2257.0755,N,11353.8080,E,0.34,16.73,100517,,,A*4C
$GNVTG,16.73,T,,M,0.34,N,0.64,K,A15
$GNGGA,025828.000,2257.0753,N,11353.8078,E,1,11,1.04,27.9,M,-3.6,M,,*57
1494413890 113.896796 22.951255 27.90 1.04 0.82 14 35 34 34 33
speed:0.000000, dis=0.000000
$GPGSA,A,3,16,14,23,27,32,03,22,,,,,,1.32,1.04,0.82*09
$GLGSA,A,3,69,68,80,82,,,,,,,,,1.32,1.04,0.82*12
$GPGSV,4,1,14,16,66,291,34,26,60,004,,14,48,137,27,50,46,122,*7A
$GPGSV,4,2,14,31,40,055,,27,37,177,27,22,27,243,27,32,25,143,26*78
$GPGSV,4,3,14,03,24,274,28,23,21,320,34,193,21,169,22,29,09,040,*41
$GPGSV,4,4,14,08,09,198,18,21,02,100,*74
$GLGSV,3,1,09,69,52,263,26,79,35,009,,81,34,097,22,68,32,193,30*63
$GLGSV,3,2,09,80,24,300,29,82,21,152,25,70,18,322,27,78,16,047,*60
$GLGSV,3,3,09,88,14,044,*59
$GNRMC,025828.000,A,2257.0753,N,11353.8078,E,0.36,16.73,100517,,,A*40
$GNVTG,16.73,T,,M,0.36,N,0.67,KA*14
$GNGGA,025829.000,2257.0752,N,11353.8076,E,1,11,1.04,27.9,M,-3.6,M,,*59
1494413891 113.896793 22.951253 27.90 1.04 0.82 14 34 34 28 27
speed:0.000000, dis=0.000000
$GPGSA,A,3,16,14,23,27,32,03,22,,,,,,1.32,1.04,0.82*09
$GLGSA,A,3,69,68,80,82,,,,,,,,,1.32,1.04,0.82*12
$GPGSV,4,1,14,16,66,291,34,26,60,004,,14,48,137,27,50,46,122,*7A
$GPGSV,4,2,14,31,40,055,,27,37,177,26,22,27,243,27,32,25,143,25*7A
$GPGSV,4,3,14,03,24,274,28,23,21,320,35,193,21,169,22,29,09,040,*40
$GPGSV,4,4,14,08,09,198,18,21,02,100,*74
$GLGSV,3,1,09,69,52,263,26,79,35,009,,81,34,097,22,68,32,193,30*63
$GLGSV,3,2,09,80,24,300,29$GNGGA,025830.000,2257.0749,N,11353.8072,E,1,12,0.91,27.9,M,-3.6,M,,*51
1494413892 113.896786 22.951248 27.90 0.91 0.82 14 35 34 28 27
speed:0.000000, dis=0.000000
$GPGSA,A,3,16,14,23,27,32,03,22,,,,,,1.25,0.91,0.85*05
$GLGSA,A,3,69,81,68,80,82,,,,,,,,1.25,0.91,0.85*17
$GPGSV,4,1,14,16,66,291,34,26,60,004,,14,48,137,37,50,46,122,*7B
$GPGSV,4,2,14,31,40,055,,27,37,177,27,22,27,243,30,32,25,143,26*7E
$GPGSV,4,3,14,03,24,274,26,23,21,320,34,193,21,169,20,29,09,040,*4D
$GPGSV,4,4,14,08,09,198,19,21,02,100,*75
$GNGGA,025831.000,2257.0746,N,11353.8068,E,1,12,0.91,27.9,M,-3.6,M,,*54
1494413893 113.896780 22.951243 27.90 0.91 0.85 14 37 34 34 30
speed:0.000000, dis=0.000000
$GPGSA,A,3,16,14,23,27,32,03,22,,,,,,1.25,0.91,0.85*05
$GLGSA,A,3,69,81,68,80,82,,,,,,,,1.25,0.91,0.85*17
$GPGSV,4,1,14,16,66,291,34,26,60,004,,14,48,137,37,50,46,122,*7B
$GPGSV,4,2,14,31,40,055,,27,37,177,27,22,27,243,30,32,25,143,27*7F
$GPGSV,4,3,14,03,24,274,25,23,21,320,33,193,21,169,20,29,09,040,*49
$GPGSV,4,4,14,08,09,198,19,21,02,100,*75
$GLGSV,3,1,09,69,52,263,26,79,35,009,,81,34,097,24,68,32,193,28*6C
$GLGSV,3,2,09,80,24,300,21,82,21,152,31,70,18,322,24,78,16,047,*6E
$GLGSV,3,3,09,88,14,044,*59
$GNRMC,025831.000,A,2257.0746,N,11353.8068,E,0.33,16.73,100517,,,A*48
$GNVTG,16.73,T,,M,0.33,N,0.61,K,A*17
$GNGGA,025832.000,2257.0745,N,11353.8067,E,1,14,0.91,27.9,M,-3.6,M,,*5D
$GNGGA,025832.000,2257.0745,N,11353.8067,E,1,14,0.91,27.9,M,-3.6,M,,*5D
1494413894 113.896778 22.951241 27.90 0.91 0.85 14 37 34 33 30
speed:0.000000, dis=0.000000
$GPGSA,A,3,16,14,23,27,08,32,193,03,22,,,,1.25,0.91,0.85*36
$GLGSA,A,3,69,81,68,80,82,,,,,,,,1.25,0.91,0.85*17
$GPGSV,4,1,14,16,66,291,33,26,60,004,,14,48,137,37,50,46,122,*7C
$GPGSV,4,2,14,31,40,055,,27,37,177,28,22,27,243,28,32,25,143,20*7E
$GPGSV,4,3,14,03,24,274,23,23,21,320,33,193,21,169,25,29,09,040,*4A
$GPGSV,4,4,14,08,09,198,27,21,02,100,*78
$GLGSV,3,1,09,69,52,263,25,79,35,009,,81,34,097,25,68,32,193,28*6E
$GLGSV,3,2,09,80,24,300,24,82,21,152,31,70,18,322,23,78,16,047,*6C
$GLGSV,3,3,09,88,14,044,,M,0.22,N,0.41,K,A*15
$GNGGA,025833.000,2257.0745,N,11353.8066,E,1,14,0.91,27.9,M,-3.6,M,,*5D
1494413895 113.896776 22.951241 27.90 0.91 0.85 14 37 33 33 28
speed:0.000000, dis=0.000000
$GPGSA,A,3,16,14,23,27,08,32,193,03,22,,,,1.25,0.91,0.85*36
$GLGSA,A,3,69,81,68,80,82,,,,,,,,1.25,0.91,0.85*17
$GPGSV,4,1,14,16,66,291,32,26,60,004,,14,48,137,37,50,46,122,*7D
$GPGSV,4,2,14,31,40,055,,27,37,177,29,22,27,243,28,32,25,143,20*7F
$GPGSV,4,3,14,03,24,274,22,23,21,320,33,193,21,169,25,29,09,040,*4B
$GPGSV,4,4,14,08,09,198,27,21,02,100,*78
$GLGSV,3,1,09,69,52,263,25,79,35,009,,81,34,097,25,68,32,193,28*6E
$GLGSV,3,2,09,80,24,300,24,82,21,152,31,70,18,322,22,78,16,047,*6D
$GLGSV,3,3,09,88,14,044,*59
$GNRMC,025833.000,A,2257.0745,N,11353.8066,E,0.06,16.73,100517,,,A*41
$GNVTG,16.73,T,,M,0.06,N,0.11,K,A*16
$GNGGA,025834.000,2257.0743,N,11353.8063,E,1,14,0.83,27.9,M,-3.6,M,,*5A
1494413896 113.896771 22.951238 27.90 0.83 0.85 14 37 33 32 29
speed:0.000000, dis=0.000000
$GPGSA,A,3,16,14,23,27,08,32,193,03,22,,,,1.17,0.83,0.82*33
$GLGSA,A,3,69,81,68,80,82,,,,,,,,1.17,0.83,0.82*12
$GPGSV,4,1,14,16,66,291,31,26,60,004,,14,48,137,37,50,46,122,*7E
$GPGSV,4,2,14,31,40,055,,27,37,177,29,22,27,243,29,32,25,143,22*7C
$GPGSV,4,3,14,03,24,274,22,23,21,320,33,193,21,169,24,29,09,040,*4A
$GPGSV,4,4,14,08,09,198,25,21,02,100,*7A
$GLGSV,3,1,09,69,52,263,24,79,35,009,,81,34,097,27,68,32,193,27*62
$GLGSV,3,2,09,80,24,300,23,82,21,152,32,70,18,322,22,78,16,047,*69
$GLGSV,3,3,09,88,14,044,*59
$GNRMC,025834.000,A,2257.0743,N,11353.8063,E,0.15,16.73,100517,,,A*47
$GNVTG,16.73,T,,M,0.15,N,0.28,KA*1E
$GNGGA,025835.000,2257.0742,N,11353.8060,E,1,13,0.83,27.9,M,-3.6,M,,*5E
1494413897 113.896766 22.951236 27.90 0.83 0.82 14 37 33 31 29
speed:0.000000, dis=0.000000
$GPGSA,A,3,16,14,23,27,08,32,193,03,,,,,1.17,0.83,0.82*33
$GLGSA,A,3,69,81,68,80,82,,,,,,,,1.17,0.83,0.82*12
$GPGSV,4,1,14,16,66,291,31,26,60,004,,14,48,137,37,50,46,122,*7E
$GPGSV,4,2,14,31,40,055,,27,37,177,29,22,27,243,29,32,25,143,23*7D
$GPGSV,4,3,14,03,24,274,22,23,21,320,33,193,21,169,24,29,09,040,*4A
$GPGSV,4,4,14,08,09,198,25,21,02,100,*7A
$GLGSV,3,1,09,69,52,263,23,79,35,009,,81,34,097,27,68,32,193,27*65
$GLGSV,3,2,09,80,24,300,23,82,21,152,32,70,18,322,22,78,16,047,*69
$GLGSV,3,3,09,88,14,044,*59
$GNRMC,025835.000,A,2257.0742,N,11353.8060,E,0.25,16.73,100517,,,A*47
$GNVTG,16.73,T,,M,0.25,N,0.46,KA*15
$GNGGA,025836.000,2257.0740,N,11353.8058,E,1,12,0.83,27.9,M,-3.6,M,,*55
1494413898 113.896763 22.951233 27.90 0.83 0.82 14 37 33 31 29
speed:0.000000, dis=0.000000
$GPGSA,A,3,16,14,23,27,08,32,193,22,,,,,1.17,0.83,0.82*30
$GLGSA,A,3,69,81,68,82,,,,,,,,,1.17,0.83,0.82*1A
$GPGSV,4,1,14,16,66,291,31,26,60,004,,14,48,137,33,50,46,122,*7A
$GPGSV,4,2,14,31,40,055,,27,37,177,29,22,27,243,29,32,25,143,24*7A
$GPGSV,4,3,14,03,24,274,21,23,21,320,33,193,21,169,22,29,09,040,*4F
$GPGSV,4,4,14,08,09,198,25,21,02,100,*7A
$GLGSV,3,1,09,69,52,263,22,79,35,009,,81,34,097,29,68,32,193,26*6B
$GLGSV,3,2,09,80,24,300,22,82,21,152,31,70,18,322,22,78,16,047,*6B
$GLGSV,3,3,09,88,14,044,*59
$GNRMC,025836.000,A,2257.0740,N,11353.8058,E,0.18,16.73,100517,,,A*43
$GNVTG,16.73,T,,M,0.18,N,0.33,K,A*19
$GNGGA,025837.000,2257.0739,N,11353.8058,E,1,12,0.83,27.9,M,-3.6,M,,*5A
$GNGGA,025837.000,2257.0739,N,11353.8058,E,1,12,0.83,27.9,M,-3.6,M,,*5A
1494413899 113.896763 22.951231 27.90 0.83 0.82 14 33 33 31 29
speed:0.000000, dis=0.000000
$GPGSA,A,3,16,14,23,27,08,32,193,22,,,,,1.17,0.83,0.82*30
$GLGSA,A,3,69,81,68,82,,,,,,,,,1.17,0.83,0.82*1A
$GPGSV,4,1,14,16,66,291,31,26,60,004,,14,48,137,33,50,46,122,*7A
$GPGSV,4,2,14,31,40,055,,27,37,177,29,22,27,243,29,32,25,143,24*7A
$GPGSV,4,3,14,03,24,274,21,23,21,320,33,193,21,169,22,29,09,040,*4F
$GPGSV,4,4,14,08,09,198,25,21,02,100,*7A
$GLGSV,3,1,09,69,52,263,21,79,35,009,,81,34,097,29,68,32,193,26*68
$GLGSV,3,2,09,80,24,300,22,82,21,152,31,70,18,322,22,78,16,047,*6B
$GLGSV,3,3,09,88,14,044,*59
$GNRMC,025837.000,A,2257.0739,N,11353.8058,E,0.19,16.73,10A*1E
$GNGGA,025838.000,2257.0738,N,11353.8058,E,1,13,0.86,27.9,M,-3.6,M,,*50
1494413900 113.896763 22.951230 27.90 0.86 0.82 14 33 33 31 29
speed:0.000000, dis=0.000000
$GPGSA,A,3,16,14,23,27,08,32,193,03,22,,,,1.20,0.86,0.83*33
$GLGSA,A,3,69,81,68,82,,,,,,,,,1.20,0.86,0.83*1A
$GPGSV,4,1,14,16,66,291,31,26,60,004,,14,48,137,34,50,46,122,*7D
$GPGSV,4,2,14,31,40,055,,27,37,177,29,22,27,243,29,32,25,143,24*7A
$GPGSV,4,3,14,03,24,274,25,23,21,320,33,193,21,169,24,29,09,040,*4D
$GPGSV,4,4,14,08,09,198,25,21,02,100,*7A
$GLGSV,3,1,09,69,52,263,21,79,35,009,,81,34,097,27,68,32,193,26*66
$GLGSV,3,2,09,80,24,300,21,82,21,152,29,70,18,322,21,78,16,047,*62
$GLGSV,3,3,09,88,14,044,*59
$GNRMC,025838.000,A,2257.0738,N,11353.8058,E,0.17,16.73,100517,,,A*4D
$GNVTG,16.73,T,,M,0.17,N,0.31,K,A*14
$GNGGA,025839.000,2257.0738,N,11353.8058,E,1,13,0.86,27.9,M,-3.6,M,,*51
1494413901 113.896763 22.951230 27.90 0.86 0.83 14 34 33 31 29
speed:0.000000, dis=0.000000
$GPGSA,A,3,16,14,23,27,08,32,193,03,22,,,,1.20,0.86,0.83*33
$GLGSA,A,3,69,81,68,82,,,,,,,,,1.20,0.86,0.83*1A
$GPGSV,4,1,14,16,66,291,31,26,60,004,,14,48,137,34,50,46,122,*7D
$GPGSV,4,2,14,31,40,055,,27,37,177,29,22,27,243,29,32,25,143,24*7A
$GPGSV,4,3,14,03,24,274,25,23,21,320,33,193,21,169,24,29,09,040,*4D
$GPGSV,4,4,14,08,09,198,25,21,02,100,*7A
$GLGSV,3,1,09,69,52,263,21,79,35,009,,81,34,097,27,68,32,193,26*66
$GLGSV,3,2,09,80,24,300,21,82,21,152,29,70,18,322,21,78,16,047,*62
$GLGSV,3,3,09,88,14,044,*59
$GNRMC,025839.000,A,2257.0738,N,11353.8058,E,0.14,16.73,100517,,,A*4F
$GNVTG,16.73,T,,M,0.14,N,0.27,K,A*10
$GNGGA,025840.000,2257.0739,N,11353.8059,E,1,13,0.86,27.8,M,-3.6,M,,*5E
1494413902 113.896765 22.951231 27.80 0.86 0.83 14 34 33 31 29
speed:0.000000, dis=0.000000
$GPGSA,A,3,16,14,23,27,08,32,193,03,22,,,,1.20,0.86,0.83*33
$GLGSA,A,3,69,81,68,82,,,,,,,,,1.20,0.86,0.83*1A
$GPGSV,4,1,14,16,66,291,31,26,60,004,,14,48,137,34,50,46,122,*7D
$GPGSV,4,2,14,31,40,055,,27,37,177,28,22,27,243,29,32,25,143,25*7A
$GPGSV,4,3,14,03,24,274,25,23,21,320,33,193,21,169,24,29,09,040,*4D
$GPGSV,4,4,14,08,09,198,24,21,02,100,*7B
$GLGSV,3,1,09,69,52,263,21,79,35,009,,81,34,097,29,68,32,193,26*68
$GLGSV,3,2,09,80,24,300,19,82,21,152,29,70,18,322,20,78,16,047,*68
$GLGSV,3,3,09,88,14,044,*59
$GNRMC,025840.000,A,2257.0739,N,11353.8059,E,0.25,16.73,100517,,,A*43
$GNVTG,16.73,T,,M,0.25,N,0.47,KA*14
$GNGGA,025841.000,2257.0741,N,11353.8061,E,1,13,0.86,27.8,M,-3.6,M,,*5B
1494413903 113.896768 22.951235 27.80 0.86 0.83 14 34 33 31 29
speed:0.000000, dis=0.000000
$GPGSA,A,3,16,14,23,27,08,32,193,03,22,,,,1.20,0.86,0.83*33
$GLGSA,A,3,69,81,68,82,,,,,,,,,1.20,0.86,0.83*1A
$GPGSV,4,1,14,16,66,291,31,26,60,004,,14,48,137,34,50,46,122,*7D
$GPGSV,4,2,14,31,40,055,,27,37,177,28,22,27,243,29,32,25,143,26*79
$GPGSV,4,3,14,03,24,274,25,23,21,320,33,193,21,169,24,29,09,040,*4D
$GPGSV,4,4,14,08,09,198,24,21,02,100,*7B
$GLGSV,3,1,09,69,52,263,21,79,35,009,,81,34,097,29,68,32,193,26*68
$GLGSV,3,2,09,80,24,300,19,82,21,152,29,70,18,322,19,78,16,047,*62
$GLGSV,3,3,09,88,14,044,*59
$GNRMC,025841.000,A,2257.0741,N,11353.8061,E,0.40,16.73,100517,,,A*45
$GNVTG,16.73,T,,M,0.40,N,0.73,KA*10
$GNGGA,025842.000,2257.0739,N,11353.8060,E,1,13,0.86,27.8,M,-3.6,M,,*56
1494413904 113.896766 22.951231 27.80 0.86 0.83 14 34 33 31 29
speed:0.000000, dis=0.000000
$GPGSA,A,3,16,14,23,27,08,32,193,03,22,,,,1.20,0.86,0.83*33
$GLGSA,A,3,69,81,68,82,,,,,,,,,1.20,0.86,0.83*1A
$GPGSV,4,1,14,16,66,291,31,26,59,004,,14,48,137,34,50,46,122,*77
$GPGSV,4,2,14,31,40,055,,27,37,177,28,22,27,243,29,32,25,143,25*7A
$GPGSV,4,3,14,03,24,274,24,23,21,320,33,193,21,169,25,29,09,040,*4D
$GPGSV,4,4,14,08,09,198,24,21,02,100,*7B
$GLGSV,3,1,09,69,52,263,21,79,35,009,,81,34,097,28,68,32,193,25*6A
$GLGSV,3,2,09,80,24,300,19,82,21,152,29,70,18,322,19,78,16,047,*62
$GLGSV,3,3,09,88,14,044,*59
$GNRMC,025842.000,A,2257.0739,N,11353.8060,E,0.27,1673,100.51,K,A*11
$GNGGA,025843.000,2257.0741,N,11353.8062,E,1,13,0.86,27.9,M,-3.6,M,,*5B
1494413905 113.896770 22.951235 27.90 0.86 0.83 14 34 33 31 29
speed:0.000000, dis=0.000000
$GPGSA,A,3,16,14,23,27,08,32,193,03,22,,,,1.20,0.86,0.83*33
$GLGSA,A,3,69,81,68,82,,,,,,,,,1.20,0.86,0.83*1A
$GPGSV,4,1,14,16,66,291,31,26,59,004,,14,48,137,34,50,46,122,*77
$GPGSV,4,2,14,31,40,055,,27,37,177,28,22,27,243,29,32,25,143,25*7A
$GPGSV,4,3,14,03,24,274,24,23,21,320,33,193,21,169,25,29,09,040,*4D
$GPGSV,4,4,14,08,09,198,24,21,02,100,*7B
$GLGSV,3,1,09,69,52,263,21,79,35,009,,81,34,097,28,68,32,193,25*6A
$GLGSV,3,2,09,80,24,300,19,82,21,152,29,70,18,322,19,78,16,047,*62
$GLGSV,3,3,09,88,14,044,*59
$GNRMC,025843.000,A,2257.0741,N,11353.8062,E,0.19,16.73,100517,,,A*48
$GNVTG,16.73,T,,M,0.19,N,0.35,K,A*1E
$GNGGA,025844.000,2257.0741,N,11353.8062,E,1,12,0.86,27.9,M,-3.6,M,,*5D
1494413906 113.896770 22.951235 27.90 0.86 0.83 14 34 33 31 29
speed:0.000000, dis=0.000000
$GPGSA,A,3,16,14,23,27,32,193,03,22,,,,,1.20,0.86,0.83*3B
$GLGSA,A,3,69,81,68,82,,,,,,,,,1.20,0.86,0.83*1A
$GPGSV,4,1,14,16,66,291,31,26,59,004,,14,48,137,34,50,46,122,*77
$GPGSV,4,2,14,31,40,055,,27,37,177,27,22,27,243,29,32,25,143,25*75
$GPGSV,4,3,14,03,24,274,26,23,21,320,33,193,21,169,24,29,09,040,*4E
$GPGSV,4,4,14,08,09,198,23,21,02,100,*7C
$GLGSV,3,1,09,69,52,263,21,79,35,009,,81,34,097,28,68,32,193,24*6B
$GLGSV,3,2,09,80,24,300,20,82,21,152,23,70,18,322,,78,16,047,*6A
$GLGSV,3,3,09,88,14,044,*59
$GNRMC,025844.000,A,2257.0741,N,11353.8062,E,0.32,16.73,100517,,,A*46
$GNVTG,16.73,T,,M,0.32,N,0.60,K,A17
$GNGGA,025845.000,2257.0742,N,11353.8064,E,1,12,0.86,27.9,M,-3.6,M,,*59
1494413907 113.896773 22.951236 27.90 0.86 0.83 14 34 33 31 29
speed:0.000000, dis=0.000000
$GPGSA,A,3,16,14,23,27,32,193,03,22,,,,,1.20,0.86,0.83*3B
$GLGSA,A,3,69,81,68,82,,,,,,,,,1.20,0.86,0.83*1A
$GPGSV,4,1,14,16,66,291,31,26,59,004,,14,48,137,34,50,46,122,*77
$GPGSV,4,2,14,31,40,055,,27,37,177,27,22,27,243,29,32,25,143,25*75
$GPGSV,4,3,14,03,24,274,26,23,21,320,33,193,21,169,24,29,09,040,*4E
$GPGSV,4,4,14,08,09,198,23,21,02,100,*7C
$GLGSV,3,1,09,69,52,263,21,79,35,009,,81,34,097,28,68,32,193,23*6C
$GLGSV,3,2,09,80,24,300,20,82,21,152,23,70,18,322,,78,16,047,*6A
$GLGSV,3,3,09,88,14,044,*59
$GNRMC,025845.000,A,2257.0742,N,11353.8064,E,0.49,16.73,1005A*15
$GNGGA,025846.000,2257.0744,N,11353.8070,E,1,13,0.88,27.9,M,-3.6,M,,*56
1494413908 113.896783 22.951240 27.90 0.88 0.83 14 34 33 31 29
speed:0.000000, dis=0.000000
$GPGSA,A,3,16,14,23,27,32,193,03,22,,,,,1.22,0.88,0.85*31
$GLGSA,A,3,69,81,68,80,82,,,,,,,,1.22,0.88,0.85*18
$GPGSV,4,1,14,16,66,291,30,26,59,004,,14,48,137,29,50,46,122,*7A
$GPGSV,4,2,14,31,40,055,,27,38,177,28,22,27,243,28,32,25,143,36*76
$GPGSV,4,3,14,03,24,274,30,23,21,320,34,193,21,169,22,29,09,040,*48
$GPGSV,4,4,14,08,09,198,20,21,02,100,*7F
$GLGSV,3,1,09,69,52,263,21,79,35,009,,81,34,097,27,68,32,193,25*65
$GLGSV,3,2,09,80,24,300,26,82,21,152,26,70,18,322,23,78,16,047,*68
$GLGSV,3,3,09,88,14,044,*59
$GNRMC,025846.000,A,2257.0744,N,11353.8070,E,1.14,72.97,100517,,,A*4F
$GNVTG,72.97,T,,M,1.14,N,2.12,K,A*1D
$GNGGA,025847.000,2257.0745,N,11353.8078,E,1,13,0.88,27.9,M,-3.6,M,,*5E
1494413909 113.896796 22.951241 27.90 0.88 0.85 14 36 34 30 30
speed:0.000000, dis=0.000000
$GPGSA,A,3,16,14,23,27,32,193,03,22,,,,,1.22,0.88,0.85*31
$GLGSA,A,3,69,81,68,80,82,,,,,,,,1.22,0.88,0.85*18
$GPGSV,4,1,14,16,66,291,30,26,59,004,,14,48,137,29,50,46,122,*7A
$GPGSV,4,2,14,31,40,055,,27,38,177,28,22,27,243,27,32,25,143,36*79
$GPGSV,4,3,14,03,24,274,30,23,21,320,35,193,21,169,22,29,09,040,*49
$GPGSV,4,4,14,08,09,198,20,21,02,100,*7F
$GLGSV,3,1,09,69,52,263,21,79,35,009,,81,34,097,27,68,32,193,26*66
$GLGSV,3,2,09,80,24,300,26,82,21,152,26,70,18,322,23,78,16,047,*68
$GLGSV,3,3,09,88,14,044,*59
$GNRMC,025847.000,A,2257.0745,N,11353.8078,E,3.38,94.64,A*17
$GNGGA,025848.000,2257.0744,N,11353.8097,E,1,12,0.88,27.9,M,-3.6,M,,*50
1494413910 113.896828 22.951240 27.90 0.88 0.85 14 36 35 30 30
speed:0.000000, dis=0.000000
$GPGSA,A,3,16,14,27,08,32,193,03,22,,,,,1.22,0.88,0.85*38
$GLGSA,A,3,81,68,80,82,,,,,,,,,1.22,0.88,0.85*17
$GPGSV,4,1,14,16,66,291,29,26,59,004,,14,48,137,30,50,46,122,*7A
$GPGSV,4,2,14,31,40,055,,27,38,177,27,22,27,243,26,32,25,143,30*71
$GPGSV,4,3,14,03,24,274,28,23,21,320,,193,21,169,20,29,09,040,*44
$GPGSV,4,4,14,08,09,198,21,21,02,100,*7E
$GLGSV,3,1,09,69,52,263,20,79,35,009,,81,34,097,30,68,32,193,26*61
$GLGSV,3,2,09,80,24,300,23,82,21,152,25,70,18,322,,78,16,047,*6F
$GLGSV,3,3,09,88,14,044,*59
$GN2257.0744,N,11353.8097,E,5.29,96.61,100517,,,A*41
$GNVTG,9$GNGGA,025849.000,2257.0744,N,11353.8122,E,1,12,0.88,28.0,M,-3.6,M,,*58
1494413911 113.896870 22.951240 28.00 0.88 0.85 14 30 30 29 28
speed:0.000000, dis=0.000000
$GPGSA,A,3,16,14,27,08,32,193,03,22,,,,,1.22,0.88,0.85*38
$GLGSA,A,3,81,68,80,82,,,,,,,,,1.22,0.88,0.85*17
$GPGSV,4,1,14,16,66,291,28,26,59,004,,14,48,137,30,50,46,122,*7B
$GPGSV,4,2,14,31,40,055,,27,38,177,27,22,27,243,25,32,25,143,30*72
$GPGSV,4,3,14,03,24,274,28,23,21,320,,193,21,169,20,29,09,040,*44
$GPGSV,4,4,14,08,09,198,21,21,02,100,*7E
$GLGSV,3,1,09,69,52,263,20,79,35,009,,81,34,097,30,68,32,193,26*61
$GLGSV,3,2,09,80,$GNGGA,025850.000,2257.0743,N,11353.8138,E,1,10,1.14,28.0,M,-3.6,M,,*5A
1494413912 113.896896 22.951238 28.00 1.14 0.85 14 30 30 28 28
speed:0.000000, dis=0.000000
$GPGSA,A,3,16,14,27,08,193,22,,,,,,,1.47,1.14,0.92*3B
$GLGSA,A,3,69,81,68,82,,,,,,,,,1.47,1.14,0.92*11
$GPGSV,4,1,14,16,66,291,27,26,59,004,,14,48,137,30,42,45,122,*74
$GPGSV,4,2,14,31,40,055,,27,38,177,28,22,27,243,26,32,25,143,29*76
$GPGSV,4,3,14,03,24,274,29,23,21,320,,193,21,169,26,29,09,040,*43
$GPGSV,4,4,14,08,09,198,28,21,02,100,*77
$GLGSV,3,1,09,69,52,263,20,79,35,009,,81,34,097,28,68,32,193,27*69
$GLGSV,3,2,09,80,24,300,17,82,21,152,25,70,18,322,,78,16,047,*68
$GLGSV,3,3,09,88,14,044,*59
$GNRMC,025850.000,A,2257.0743,N,11353.8138,E,6.20,86.50,100517,,,A*42
$GNVTG,86.50,T,,M,6.20,N,11.48,K,A*20
$GNGGA,025851.000,2257.0745,N,11353.8166,E,1,9,1.14,28.1,M,-3.6,M,,*6F
1494413913 113.896943 22.951241 28.10 1.14 0.92 14 30 29 29 28
speed:3.010166, dis=8.330000
$GPGSA,A,3,16,14,27,03,22,,,,,,,,1.47,1.14,0.92*0B
$GLGSA,A,3,69,81,68,82,,,,,,,,,1.47,1.14,0.92*11
$GPGSV,4,1,14,16,66,291,27,26,59,004,,14,48,137,37,42,45,122,*73
$GPGSV,4,2,14,31,40,055,,27,38,177,28,22,27,243,26,32,25,143,29*76
$GPGSV,4,3,14,03,24,274,29,23,21,320,,193,21,169,49,29,09,040,*4A
$GPGSV,4,4,14,08,09,198,45,21,02,100,*7C
$GLGSV,3,1,09,69,52,263,20,79,35,009,,81,34,097,43,68,32,193,28*6B
$GLGSV,3,2,09,80,24,300,17,82,21,152,25,70,18,322,,78,16,047,*68
$GLGSV,3,3,09,88,14,044,*59
$GNGGA,025852.000,2257.0748,N,11353.8190,E,1,12,1.14,28.1,M,-3.6,M,,*52
1494413914 113.896983 22.951246 28.10 1.14 0.92 14 49 37 29 29
speed:3.253335, dis=11.088094
$GPGSA,A,3,16,14,27,08,32,193,03,22,,,,,1.47,1.14,0.92*39
$GLGSA,A,3,69,81,68,82,,,,,,,,,1.47,1.14,0.92*11
$GPGSV,4,1,14,16,66,291,27,26,59,004,,14,48,137,30,42,45,122,*74
$GPGSV,4,2,14,31,40,055,,27,38,177,28,22,27,243,25,32,25,143,29*75
$GPGSV,4,3,14,03,24,274,28,23,21,320,,193,21,169,27,29,09,040,*43
$GPGSV,4,4,14,08,09,198,24,21,02,100,*7B
$GLGSV,3,1,09,69,52,263,19,79,35,009,,81,34,097,29,68,32,193,27*62
$GLGSV,3,2,09,80,24,300,,82,21,152,26,70,18,322,,78,16,047,*6D
$GLGSV,3,3,09,88,14,044,*59
$GNRMC,025852.000,A,2257.0748,N,11353.8190,E,6.39,88.90,100517,,,A*43
$GNVTG,88.90,T,,M,6.39,N,11.83,K,A*2D
$GNGGA,025853.000,2257.0750,N,11353.8212,E,1,12,1.14,28.1,M,-3.6,M,,*53
1494413915 113.897020 22.951250 28.10 1.14 0.92 14 30 29 28 28
speed:3.444806, dis=14.317829
$GPGSA,A,3,16,14,27,08,32,193,03,22,,,,,1.47,1.14,0.92*39
$GLGSA,A,3,69,81,68,82,,,,,,,,,1.47,1.14,0.92*11
$GPGSV,4,1,14,16,66,291,27,26,59,004,,14,48,137,30,42,45,122,*74
$GPGSV,4,2,14,31,40,055,,27,38,177,28,22,27,243,25,32,25,143,29*75
$GPGSV,4,3,14,03,24,274,28,23,21,320,,193,21,169,27,29,09,040,*43
$GPGSV,4,4,14,08,09,198,24,21,02,100,*7B
$GLGSV,3,1,09,69,52,263,19,79,35,009,,81,34,097,29,68,32,193,26*63
$GLGSV,3,2,09,80,24,300,,82,21,152,27,70,18,322,,78,16,047,*6C
$GLGSV,3,3,09,88,14,044,*59
$GNRMC,025853.000,A,2257.0750,N,11353.8212,E,6.21,88.10,100517,,,A*43
$GNVTG,88.10,T,,M,6.21,N,11.51,K,A*23
$GNGGA,025854.000,2257.0752,N,11353.8236,E,1,12,1.21,28.1,M,-3.6,M,,*56
1494413916 113.897060 22.951253 28.10 1.21 0.92 14 30 29 28 28
speed:3.561399, dis=17.877726
$GPGSA,A,3,16,14,27,08,32,193,03,22,,,,,2.23,1.21,1.88*34
$GLGSA,A,3,69,81,68,82,,,,,,,,,2.23,1.21,1.88*1C
$GPGSV,4,1,14,16,66,291,28,26,59,004,,14,48,137,31,42,45,122,*7A
$GPGSV,4,2,14,31,40,055,,27,38,177,29,22,27,243,24,32,25,143,33*7E
$GPGSV,4,3,14,03,24,274,29,23,21,320,,193,21,169,27,08,09,198,24*43
$GPGSV,4,4,14,29,08,040,,21,02,100,*7B
$GLGSV,3,1,09,69,52,263,20,79,35,009,,81,34,097,30,68,32,193,27*60
$GLGSV,3,2,09,80,24,300,,82,21,152,28,70,18,322,,78,16,047,*63
$GLGSV,3,3,09,88,14,044,*59
$GNRM,6.47,N,11.99,K,A*2F
$GNGGA,025855.000,2257.0765,N,11353.8268,E,1,12,1.21,28.0,M,-3.6,M,,*59
1494413917 113.897113 22.951275 28.00 1.21 1.88 14 33 31 29 29
speed:3.651599, dis=21.528631
$GPGSA,A,3,16,14,27,08,32,193,03,22,,,,,2.23,1.21,1.88*34
$GLGSA,A,3,69,81,68,82,,,,,,,,,2.23,1.21,1.88*1C
$GPGSV,4,1,14,16,66,291,28,26,59,004,,14,48,137,52,42,45,122,*7F
$GPGSV,4,2,14,31,40,055,,27,38,177,30,22,27,243,24,32,25,143,32*77
$GPGSV,4,3,14,03,24,274,29,23,21,320,,193,21,169,27,08,09,198,24*43
$GPGSV,4,4,14,29,08,040,,21,02,100,*7B
$GLGSV,3,1,09,69,52,263,20,79,35,009,,81,34,097,49,68,32,193,28*61
$GLGSV,3,2,09,80,24,300,,82,21,152,28,70,18,322,,78,16,047,*63
$GLGSV,3,3,09,88,14,044,*59
$GNRMC,025855.000,A,2257.0765,N,11353.8268,E,8.77,81.16,100517,,,A*4C
$GNVTG,81.16,T,,M,8.77,N,16.26,K,A*26
$GNGGA,025856.000,2257.0773,N,11353.8299,E,1,10,1.21,28.2,M,-3.6,M,,*53
1494413918 113.897165 22.951288 28.20 1.21 1.88 14 52 32 30 29
speed:3.823343, dis=25.508022
$GPGSA,A,3,16,14,27,32,193,03,22,,,,,,2.23,1.21,1.88*3C
$GLGSA,A,3,81,68,82,,,,,,,,,,2.23,1.21,1.88*13
$GPGSV,4,1,14,16,66,291,29,26,59,004,,14,48,137,39,42,45,122,*73
$GPGSV,4,2,14,31,40,055,,27,38,177,30,22,27,243,24,32,25,143,31*74
$GPGSV,4,3,14,03,24,274,32,23,21,320,,193,21,169,26,08,09,198,20*4C
$GPGSV,4,4,14,29,08,040,,21,02,100,*7B
$GLGSV,3,1,09,69,52,263,18,79,35,009,,81,34,097,33,68,32,193,29*66
$GLGSV,3,2,09,80,24,300,,82,21,152,28,70,18,322,,78,16,047,*63
$GLGSV,3,3,09,88,14,044,*59
$GNRMC,025856.000,A,2257.0773,N,11353.8299,E,8.51,84.26,100517,,,A*44
$GNVTG,84.26,T,,M,8.51,N,15.76,K,A*22
$GNGGA,025857.000,2257.0780,N,11353.8329,E,1,10,1.21,28.3,M,-3.6,M,,*55
1494413919 113.897215 22.951300 28.30 1.21 1.88 14 39 32 31 30
speed:4.028506, dis=29.676178
$GPGSA,A,3,16,14,27,32,193,03,22,,,,,,2.23,1.21,1.88*3C
$GLGSA,A,3,81,68,82,,,,,,,,,,2.23,1.21,1.88*13
$GPGSV,4,1,14,16,66,291,30,26,59,004,,14,48,137,39,42,45,122,*7B
$GPGSV,4,2,14,31,40,055,,27,38,177,30,22,27,243,24,32,25,143,31*74
$GPGSV,4,3,14,03,24,274,32,23,21,320,,193,21,169,25,08,09,198,20*4F
$GPGSV,4,4,14,29,08,040,,21,02,100,*7B
$GLGSV,3,1,09,69,52,263,18,79,35,009,,81,34,097,33,68,32,193,30*6E
$GLGSV,3,2,09,80,24,300,,82,21,152,28,70,18,322,,78,16,047,*63
$GLGSV,3,3,09,88,14,044,*59
$GNRMC,025857.000,A,2257.0780,N,11353.8329,E,8.47,83.13,100517,,,A*45
$GNVTG,83.13,T,,M,8.47,N,15.70,K,A*22
$GNGGA,025858.000,2257.0785,N,11353.8353,E,1,11,1.05,28.3,M,-3.6,M,,*55
1494413920 113.897255 22.951308 28.30 1.05 1.88 14 39 32 31 30
speed:4.223837, dis=34.018368
