YF_GPS:5:10:10:41
1494412869 0.000000 0.000000 0.00 0.00 0.00 0 0 0 0 0
speed:-1.000000, dis=0.000000
$GPGSA,A,1,,,,,,,,,,,,,,,*1E
$GLGSA,A,1,,,,,,,,,,,,,,,*02
$GPGSV,3,1,12,26,66,353,34,16,65,270,36,14,55,129,,31,41,046,*70
$GPGSV,3,2,12,32,31,139,,22,30,251,,27,30,179,,03,25,282,*73
$GPGSV,3,3,12,193,23,170,,23,15,320,,29,13,044,,08,02,199,*40
$GLGSV,3,1,09,69,54,279,30,68,40,195,23,79,37,359,,81,30,106,*61
$GLGSV,3,2,09,80,22,291,,78,19,039,,88,17,052,,82,14,157,*6F
$GLGSV,3,3,09,70,13,328,*50
$GNRMC,024127.044,V,,,,,0.03,0.00,100517,,,N*50
$GNVTG,0.00,T,,M,0.03,N,0.05,K,N*2A
$GNGGA,024128.064,2257.0686,N,11353.8127,E,1,7,1.42,10.1,M,-3.6,M,,*66
1494412870 113.896878 22.951143 10.10 1.42 0.00 12 36 34 0 0
speed:-1.000000, dis=0.000000
$GPGSA,A,3,26,16,32,22,03,,,,,,,,1.70,1.42,0.93*08
$GLGSA,A,3,69,68,,,,,,,,,,,1.70,1.42,0.93*14
$GPGSV,3,1,12,26,66,353,35,16,65,270,39,14,55,129,24,31,41,046,*78
$GPGSV,3,2,12,32,31,139,27,22,30,251,32,27,30,179,,03,25,282,29*7C
$GPGSV,3,3,12,193,23,170,,23,15,320,,29,13,044,,08,02,199,*40
$GLGSV,3,1,09,69,54,279,31,68,40,195,32,79,37,359,,81,30,106,*60
$GLGSV,3,2,09,80,22,291,,78,19,039,,88,17,052,,82,14,157,*6F
$GLGSV,3,3,09,70,13,328,*50
$GNRMC,024128.064,A,2257.0686,N,11353.8127,E,4.94,293.80,100517,,,A*77
$GNVTG,293.80,T,,M,4.94,N,9.15,K,A*27
$GNGGA,024129.050,2257.0699,N,11353.8070,E,1,9,1.24,10.0,M,-3.6,M,,*62
1494412871 113.896783 22.951165 10.00 1.24 0.93 12 39 35 32 29
speed:0.000000, dis=0.000000
$GPGSA,A,3,26,16,14,32,22,03,27,,,,,,1.55,1.24,0.93*0F
$GLGSA,A,3,69,68,,,,,,,,,,,1.55,1.24,0.93*13
$GPGSV,3,1,12,26,66,353,33,16,65,270,42,14,55,129,26,31,41,046,*70
$GPGSV,3,2,12,32,31,139,32,22,30,251,40,27,30,179,25,03,25,282,37*75
$GPGSV,3,3,12,193,23,170,,23,15,320,,29,13,044,,08,02,199,*40
$GLGSV,3,1,09,69,54,279,34,68,40,195,30,79,37,359,,81,30,106,*67
$GLGSV,3,2,09,80,22,291,,78,19,039,,88,17,052,,82,14,157,*6F
$GLGSV,3,3,09,70,13,328,*50
$GNRMC,024129.050,A,2257.0699,N,11353.8070,E,4.07,296.23,100517,,,A*7A
$GNVTG,296.23,T,,M,4.07,N,7.54,K,A*2A
$GNGGA,024130.054,2257.0703,N,11353.8067,E,1,11,0.95,10.1,M,-3.6,M,,*59
1494412872 113.896778 22.951171 10.10 0.95 0.93 12 42 40 37 33
speed:0.000000, dis=0.000000
$GPGSA,A,3,26,16,14,32,22,03,27,193,,,,,1.29,0.95,0.88*3E
$GLGSA,A,3,69,68,79,,,,,,,,,,1.29,0.95,0.88*17
$GPGSV,4,1,13,26,66,353,39,16,65,270,40,14,55,129,25,41,46,236,*78
$GPGSV,4,2,13,31,41,046,,32,31,139,30,22,30,251,37,27,30,179,29*70
$GPGSV,4,3,13,03,25,282,39,193,23,170,21,23,15,320,,29,13,044,*48
$GPGSV,4,4,13,08,02,199,*40
$GLGSV,3,1,09,69,54,279,38,68,40,195,26,79,37,359,20,81,30,106,*6E
$GLGSV,3,2,09,80,22,291,,78,19,039,,88,17,052,,82,14,157,*6F
$GLGSV,3,3,09,70,13,328,*50
$GNRMC,024130.054,A,2257.0703,N,11353.8067,E,2.96,299.50,100517,,,A*77
$GNVTG,299.50,T,,M,2.96,N,5.48,K,A*20
$GNGGA,024131.052,2257.0731,N,11353.8070,E,1,12,0.90,12.2,M,-3.6,M,,*5E
1494412873 113.896783 22.951218 12.20 0.90 0.88 13 40 39 39 37
speed:0.000000, dis=0.000000
$GPGSA,A,3,26,16,14,32,22,03,27,193,23,,,,1.22,0.90,0.83*3A
$GLGSA,A,3,69,68,79,,,,,,,,,,1.22,0.90,0.83*12
$GPGSV,4,1,13,26,66,353,43,16,65,270,37,14,55,129,27,41,46,236,*77
$GPGSV,4,2,13,31,41,046,,32,31,139,34,22,30,251,36,27,30,179,25*79
$GPGSV,4,3,13,03,25,282,39,193,23,170,21,23,15,320,27,29,13,044,*4D
$GPGSV,4,4,13,08,02,199,*40
$GLGSV,3,1,09,69,54,279,33,68,40,195,23,79,37,359,22,81,30,106,24*64
$GLGSV,3,2,09,80,22,291,,78,19,039,,88,17,052,,82,14,157,*6F
$GLGSV,3,3,09,70,13,328,*50
$GNRMC,024131.052,A,2257.0731,N,11353.8070,E,2.19,300.09,100517,,,A*7D
$GNVTG,300.09,T,,M,2.19,N,4.06,K,A*21
$GNGGA,024132.054,2257.0718,N,11353.8079,E,1,12,0.83,12.0,M,-3.6,M,,*59
1494412874 113.896798 22.951196 12.00 0.83 0.83 13 43 39 37 36
speed:0.000000, dis=0.000000
$GPGSA,A,3,26,16,14,32,22,03,27,23,,,,,1.17,0.83,0.83*05
$GLGSA,A,3,69,68,79,81,,,,,,,,,1.17,0.83,0.83*1F
$GPGSV,4,1,13,26,66,353,41,16,65,270,38,14,55,129,27,41,46,236,*7A
$GPGSV,4,2,13,31,41,046,,32,31,139,26,22,30,251,37,27,30,179,20*7E
$GPGSV,4,3,13,03,25,282,39,193,23,170,19,23,15,320,25,29,13,044,*44
$GPGSV,4,4,13,08,02,199,*40
$GLGSV,3,1,09,69,54,279,34,68,40,195,25,79,37,359,20,81,30,106,24*67
$GLGSV,3,2,09,80,22,291,,78,19,039,,88,17,052,,82,14,157,*6F
$GLGSV,3,3,09,70,13,328,*50
$GNRMC,024132.054,A,2257.0718,N,11353.8079,E,1.95,296.93,100517,,,A*70
$GNVTG,296.93,T,,M,1.95,N,3.61,K,A*2D
$GNGGA,024133.054,2257.0724,N,11353.8074,E,1,14,0.78,12.4,M,-3.6,M,,*5C
1494412875 113.896790 22.951206 12.40 0.78 0.83 13 41 39 38 37
speed:0.000000, dis=0.000000
$GPGSA,A,3,26,16,14,32,22,03,27,193,23,,,,1.12,0.78,0.81*3D
$GLGSA,A,3,69,68,79,81,80,,,,,,,,1.12,0.78,0.81*14
$GPGSV,4,1,13,26,66,353,34,16,65,270,39,14,55,129,31,41,46,236,*7E
$GPGSV,4,2,13,31,41,046,,32,31,139,33,22,30,251,37,27,30,179,20*7A
$GPGSV,4,3,13,03,25,282,38,193,23,170,24,23,15,320,23,29,13,044,*4D
$GPGSV,4,4,13,08,02,199,*40
$GLGSV,3,1,09,69,54,279,35,68,40,195,25,79,37,359,22,81,30,106,24*64
$GLGSV,3,2,09,80,22,291,33,78,19,039,,88,17,052,,82,14,157,*6F
$GLGSV,3,3,09,70,13,328,*50
$GNRMC,024133.054,A,2257.0724,N,11353.8074,E,2.18,300.37,100517,,,A*75
$GNVTG,300.37,T,,M,2.18,N,4.04,K,A*2F
$GNGGA,024134.044,2257.0738,N,11353.8060,E,1,15,0.77,12.0,M,-3.6,M,,*58
1494412876 113.896766 22.951230 12.00 0.77 0.81 13 39 38 37 34
speed:0.000000, dis=0.000000
$GPGSA,A,3,26,16,14,32,22,03,27,193,23,,,,1.09,0.77,0.78*3E
$GLGSA,A,3,69,68,79,81,80,82,,,,,,,1.09,0.77,0.78*1D
$GPGSV,4,1,13,26,66,353,35,16,65,270,37,14,55,129,33,41,46,236,*73
$GPGSV,4,2,13,31,41,046,,32,31,139,31,22,30,251,36,27,30,179,25*7C
$GPGSV,4,3,13,03,25,282,37,193,23,170,23,23,15,320,25,29,13,044,*43
$GPGSV,4,4,13,08,02,199,*40
$GLGSV,3,1,09,69,54,279,28,68,40,195,34,79,37,359,20,81,30,106,37*68
$GLGSV,3,2,09,80,22,291,29,78,19,039,,88,17,052,,82,14,157,21*67
$GLGSV,3,3,09,70,13,328,*50
$GNRMC,024134.044,A,2257.0738,N,11353.8060,E,2.01,319.41,100517,,,A*7A
$GNVTG,319.41,T,,M,2.01,N,3.72,K,A*28
$GNGGA,024136.000,2257.0744,N,11353.8053,E,1,14,0.80,11.6,M,-3.6,M,,*5D
1494412878 113.896755 22.951240 11.60 0.80 0.78 13 37 37 36 35
speed:0.000000, dis=0.000000
$GPGSA,A,3,26,16,14,32,22,03,27,193,,,,,1.15,0.80,0.82*3F
$GLGSA,A,3,69,68,79,81,80,82,,,,,,,1.15,0.80,0.82*1D
$GPGSV,4,1,13,26,66,353,36,16,65,270,36,14,55,129,34,41,46,236,41*73
$GPGSV,4,2,13,31,41,046,,32,31,139,33,22,30,251,36,27,30,179,24*7F
$GPGSV,4,3,13,03,25,282,35,193,23,170,29,23,15,320,25,29,13,044,*4B
$GPGSV,4,4,13,08,02,199,*40
$GLGSV,3,1,09,69,54,279,28,68,40,195,34,79,37,359,20,81,30,106,33*6C
$GLGSV,3,2,09,80,22,291,29,78,19,039,,88,17,052,,82,14,157,23*65
$GLGSV,3,3,09,70,13,328,*50
$GNRMC,024136.000,A,2257.0744,N,11353.8053,E,1.75,325.07,100517,,,A*7E
$GNVTG,325.07,T,,M,1.75,N,3.25,K,A*27
$GNGGA,024137.000,2257.0746,N,11353.8054,E,1,15,0.77,11.0,M,-3.6,M,,*56
1494412879 113.896756 22.951243 11.00 0.77 0.82 13 41 36 36 36
speed:0.000000, dis=0.000000
$GPGSA,A,3,26,16,14,32,22,03,27,193,23,,,,1.09,0.77,0.78*3E
$GLGSA,A,3,69,68,79,81,80,82,,,,,,,1.09,0.77,0.78*1D
$GPGSV,4,1,13,26,66,353,37,16,65,270,36,14,55,129,35,41,46,236,40*72
$GPGSV,4,2,13,31,41,046,,32,31,139,33,22,30,251,36,27,30,179,25*7E
$GPGSV,4,3,13,03,25,282,35,193,23,170,23,23,15,320,25,29,13,044,*41
$GPGSV,4,4,13,08,02,199,*40
$GLGSV,3,1,09,69,54,279,29,68,40,195,35,79,37,359,20,81,30,106,32*6D
$GLGSV,3,2,09,80,22,291,29,78,19,039,,88,17,052,,82,14,157,23*65
$GLGSV,3,3,09,70,13,328,*50
$GNRMC,024137.000,A,2257.0746,N,11353.8054,E,1.44,336.90,1005172.67,K,A*2E
$GNGGA,024138.000,2257.0745,N,11353.8057,E,1,15,0.77,10.6,M,-3.6,M,,*5E
1494412880 113.896761 22.951241 10.60 0.77 0.78 13 40 37 36 36
speed:0.000000, dis=0.000000
$GPGSA,A,3,26,16,14,32,22,03,27,193,23,,,,1.09,0.77,0.78*3E
$GLGSA,A,3,69,68,79,81,80,82,,,,,,,1.09,0.77,0.78*1D
$GPGSV,4,1,13,26,66,353,38,16,65,270,36,14,55,129,36,41,46,236,40*7E
$GPGSV,4,2,13,31,41,046,,32,31,139,33,22,30,251,37,27,30,179,26*7C
$GPGSV,4,3,13,03,25,282,35,193,23,170,23,23,15,320,25,29,13,044,*41
$GPGSV,4,4,13,08,02,199,*40
$GLGSV,3,1,09,69,54,279,29,68,40,195,35,79,37,359,20,81,30,106,32*6D
$GLGSV,3,2,09,80,22,291,29,78,19,039,,88,17,052,,82,14,157,23*65
$GLGSV,3,3,09,70,13,328,*50
$GNRMC,024138.000,A,2257.0745,N,11353.8057,E,0.87,2.77,100517,,,A*78
$GNVTG,2.77,T,,M,0.87,N,1.61,K,A*28
$GNGGA,024139.000,2257.0744,N,11353.8056,E,1,15,0.77,10.2,M,-3.6,M,,*5B
1494412881 113.896760 22.951240 10.20 0.77 0.78 13 40 38 37 36
speed:0.000000, dis=0.000000
$GPGSA,A,3,26,16,14,32,22,03,27,193,23,,,,1.09,0.77,0.78*3E
$GLGSA,A,3,69,68,79,81,80,82,,,,,,,1.09,0.77,0.78*1D
$GPGSV,4,1,13,26,66,353,38,16,65,270,36,14,55,129,36,41,46,236,43*7D
$GPGSV,4,2,13,31,41,046,,32,31,139,33,22,30,251,37,27,30,179,27*7D
$GPGSV,4,3,13,03,25,282,36,193,23,170,23,23,15,320,25,29,13,044,*42
$GPGSV,4,4,13,08,02,199,*40
$GLGSV,3,1,09,69,54,279,29,68,40,195,35,79,37,359,20,81,30,106,32*6D
$GLGSV,3,2,09,80,22,291,29,78,19,039,,88,17,052,,82,14,157,23*65
$GLGSV,3,3,09,70,13,328,*50
$GNRMC,024139.000,A,2257.0744,N,11353.8056,E,0.42,2.77,100517,,K,A*28
$GNGGA,024140.000,2257.0743,N,11353.8056,E,1,15,0.77,10.1,M,-3.6,M,,*51
1494412882 113.896760 22.951238 10.10 0.77 0.78 13 43 38 37 36
speed:0.000000, dis=0.000000
$GPGSA,A,3,26,16,14,32,22,03,27,193,23,,,,1.09,0.77,0.78*3E
$GLGSA,A,3,69,68,79,81,80,82,,,,,,,1.09,0.77,0.78*1D
$GPGSV,4,1,13,26,66,353,38,16,65,270,36,14,55,129,36,41,46,236,43*7D
$GPGSV,4,2,13,31,41,046,,32,31,139,33,22,30,251,37,27,30,179,27*7D
$GPGSV,4,3,13,03,25,282,36,193,23,170,23,23,15,320,25,29,13,044,*42
$GPGSV,4,4,13,08,02,199,*40
$GLGSV,3,1,09,69,54,279,30,68,40,195,35,79,37,359,20,81,30,106,32*65
$GLGSV,3,2,09,80,22,291,29,78,19,039,,88,17,052,,82,14,157,23*65
$GLGSV,3,3,09,70,13,328,*50
$GNRMC,024140.000,A,2257.0743,N,11353.8056,E,0.34,2.77,100517,,,A*78
$GNVTG,2.77,T,,M,0.34,N,0.63,K,A*23
$GNGGA,024141.000,2257.0742,N,11353.8056,E,1,15,0.77,10.1,M,-3.6,M,,*51
1494412883 113.896760 22.951236 10.10 0.77 0.78 13 43 38 37 36
speed:0.000000, dis=0.000000
$GPGSA,A,3,26,16,14,32,22,03,27,193,23,,,,1.09,0.77,0.78*3E
$GLGSA,A,3,69,68,79,81,80,82,,,,,,,1.09,0.77,0.78*1D
$GPGSV,4,1,13,26,66,353,38,16,65,270,36,14,55,129,37,41,46,236,42*7D
$GPGSV,4,2,13,31,41,046,,32,31,139,33,22,30,251,38,27,30,179,27*72
$GPGSV,4,3,13,03,25,282,36,193,23,170,23,23,15,320,27,29,13,044,*40
$GPGSV,4,4,13,08,02,199,*40
$GLGSV,3,1,09,69,54,279,30,68,40,195,35,79,37,359,21,81,30,106,32*64
$GLGSV,3,2,09,80,22,291,30,78,19,039,,88,17,052,,82,14,157,22*6C
$GLGSV,3,3,09,70,13,328,*50
$G$GNGGA,024142.000,2257.0740,N,11353.8056,E,1,14,0.78,10.1,M,-3.6,M,,*5E
1494412884 113.896760 22.951233 10.10 0.78 0.78 13 42 38 38 37
speed:0.000000, dis=0.000000
$GPGSA,A,3,26,16,14,32,22,03,27,193,23,,,,1.12,0.78,0.81*3D
$GLGSA,A,3,69,68,79,81,80,,,,,,,,1.12,0.78,0.81*14
$GPGSV,4,1,13,26,66,353,39,16,65,270,36,14,55,129,38,41,46,236,42*73
$GPGSV,4,2,13,31,41,046,,32,31,139,32,22,30,251,38,27,30,179,27*73
$GPGSV,4,3,13,03,25,282,36,193,23,170,22,23,15,320,28,29,13,044,*4E
$GPGSV,4,4,13,08,02,199,*40
$GLGSV,3,1,09,69,54,279,31,68,40,195,35,79,37,359,21,81,30,106,32*65
$GLGSV,3,2,09,80,22,291,$GNGGA,024143.000,2257.0739,N,11353.8055,E,1,14,0.78,10.0,M,-3.6,M,,*53
1494412885 113.896758 22.951231 10.00 0.78 0.81 13 42 39 38 38
speed:0.000000, dis=0.000000
$GPGSA,A,3,26,16,14,32,22,03,27,193,23,,,,1.12,0.78,0.81*3D
$GLGSA,A,3,69,68,79,81,80,,,,,,,,1.12,0.78,0.81*14
$GPGSV,4,1,13,26,66,353,39,16,65,270,36,14,55,129,38,41,46,236,42*73
$GPGSV,4,2,13,31,41,046,,32,31,139,32,22,30,251,38,27,30,179,27*73
$GPGSV,4,3,13,03,25,282,36,193,23,170,21,23,15,320,29,29,13,044,*4C
$GPGSV,4,4,13,08,02,199,*40
$GLGSV,3,1,09,69,54,279,31,68,40,195,35,79,37,359,21,81,30,106,32*65
$GLGSV,3,2,09,80,22,291,30,78,19,039,,88,17,052,,82,14,157,18*65
$GLGSV,3,3,09,70,13,328,*50
$GNRMC,024143.000,A,2257.0739,N,11353.8055,E,0.15,2.77,100517,,,A*76
$GNVTG,2.77,T,,M,0.15,N,0.28,K,A*2F
$GNGGA,024144.000,2257.0738,N,11353.8056,E,1,13,0.78,10.0,M,-3.6,M,,*51
1494412886 113.896760 22.951230 10.00 0.78 0.81 13 42 39 38 38
speed:0.000000, dis=0.000000
$GPGSA,A,3,26,16,14,32,22,03,27,193,23,,,,1.12,0.78,0.81*3D
$GLGSA,A,3,69,68,81,80,,,,,,,,,1.12,0.78,0.81*1A
$GPGSV,4,1,13,26,66,353,32,16,65,270,35,14,55,129,31,41,46,236,34*73
$GPGSV,4,2,13,31,41,046,,32,31,139,31,22,30,251,29,27,30,179,26*71
$GPGSV,4,3,13,03,25,282,35,193,23,170,21,23,15,320,31,29,13,044,*46
$GPGSV,4,4,13,08,02,199,*40
$GLGSV,3,1,09,69,54,279,29,68,40,195,33,79,37,359,,81,30,106,32*69
$GLGSV,3,2,09,80,22,291,29,78,19,039,,88,17,052,,82,14,157,24*62
$GLGSV,3,3,09,70,13,328,*50
$GNRMC,024144.000,A,2257.0738,N,11353.8056,E,0.16,2.77,100517,,,A*70
$GNVTG,2.77,T,,M,0.16,N,0.30,K,A*25
$GNGGA,024145.000,2257.0738,N,11353.8057,E,1,13,0.78,10.0,M,-3.6,M,,*51
1494412887 113.896761 22.951230 10.00 0.78 0.81 13 35 35 34 32
speed:0.000000, dis=0.000000
$GPGSA,A,3,26,16,14,32,22,03,27,193,23,,,,1.12,0.78,0.81*3D
$GLGSA,A,3,69,68,81,80,,,,,,,,,1.12,0.78,0.81*1A
$GPGSV,4,1,13,26,66,353,32,16,65,270,34,14,55,129,31,41,46,236,34*72
$GPGSV,4,2,13,31,41,046,,32,31,139,30,22,30,251,29,27,30,179,26*70
$GPGSV,4,3,13,03,25,282,34,193,23,170,21,23,15,320,32,29,13,044,*44
$GPGSV,4,4,13,08,02,199,*40
$GLGSV,3,1,09,69,54,279,28,68,40,195,32,79,37,359,,81,30,106,32*69
$GLGSV,3,2,09,80,22,291,28,78,19,039,,88,17,052,,82,14,157,24*63
$GLGSV,3,3,09,70,13,328,*50
$GNRMC,024145.000,A,2257.0738,N,11353.8057,E,0.30,2.77,100517,,,A*74
$GNVTG,2.77,T,,M,0.30,N,0.56,K,A*21
$GNGGA,024146.000,2257.0739,N,11353.8057,E,1,14,0.87,9.9,M,-3.6,M,,*65
1494412888 113.896761 22.951231 9.90 0.87 0.81 13 34 34 34 32
speed:0.000000, dis=0.000000
$GPGSA,A,3,26,16,14,32,22,03,27,193,23,,,,1.17,0.87,0.78*3E
$GLGSA,A,3,69,68,81,80,82,,,,,,,,1.17,0.87,0.78*13
$GPGSV,4,1,13,26,66,353,24,16,65,270,35,14,55,129,30,41,46,236,33*72
$GPGSV,4,2,13,31,41,046,,32,31,139,37,22,30,251,29,27,30,179,28*79
$GPGSV,4,3,13,03,25,282,34,193,23,170,22,23,15,320,31,29,13,044,*44
$GPGSV,4,4,13,08,02,199,*40
$GLGSV,3,1,09,69,54,279,29,68,40,195,30,79,37,359,,81,30,106,33*6B
$GLGSV,3,2,09,80,22,291,27,78,19,039,,88,17,052,,82,14,157,25*6D
$GLGSV,3,3,09,70,13,328,*50
$GNRMC,024146.000,A,2257.0739,N,11353.8057,E,0.28,2.77,100517,,,A*7F
$GNVTG,2.77,T,,M,0.28,N,0.52,K,A*2C
$GNGGA,024147.000,2257.0738,N,11353.8058,E,1,14,0.87,9.9,M,-3.6,M,,*6A
1494412889 113.896763 22.951230 9.90 0.87 0.78 13 37 35 34 33
speed:0.000000, dis=0.000000
$GPGSA,A,3,26,16,14,32,22,03,27,193,23,,,,1.17,0.87,0.78*3E
$GLGSA,A,3,69,68,81,80,82,,,,,,,,1.17,0.87,0.78*13
$GPGSV,4,1,13,26,66,353,24,16,65,270,36,14,55,129,30,41,46,236,32*70
$GPGSV,4,2,13,31,41,046,,32,31,139,37,22,30,251,29,27,30,179,29*78
$GPGSV,4,3,13,03,25,282,34,193,23,170,22,23,15,320,30,29,13,044,*45
$GPGSV,4,4,13,08,02,199,*40
$GLGSV,3,1,09,69,54,279,29,68,40,195,29,79,37,359,,81,30,106,34*64
$GLGSV,3,2,09,80,22,291,26,78,19,039,,88,17,052,,82,14,157,25*6C
$GLGSV,3,3,09,70,13,328,*50
$GNGGA,024148.000,2257.0736,N,11353.8058,E,1,13,0.87,9.9,M,-3.6,M,,*6C
1494412890 113.896763 22.951226 9.90 0.87 0.78 13 37 36 34 32
speed:0.000000, dis=0.000000
$GPGSA,A,3,26,16,14,32,22,03,27,193,23,,,,1.17,0.87,0.78*3E
$GLGSA,A,3,69,68,81,82,,,,,,,,,1.17,0.87,0.78*1B
$GPGSV,4,1,13,26,66,353,23,16,65,270,35,14,55,129,40,41,46,236,34*75
$GPGSV,4,2,13,31,41,046,,32,31,139,36,22,30,251,39,27,30,179,29*78
$GPGSV,4,3,13,03,25,282,34,193,23,170,23,23,15,320,21,29,13,044,*44
$GPGSV,4,4,13,08,02,199,*40
$GLGSV,3,1,09,69,54,279,27,68,40,195,36,79,37,359,,81,30,106,32*62
$GLGSV,3,2,09,80,22,291,20,78,19,039,,88,17,052,,82,14,157,25*6A
$GLGSV,3,3,09,70,13,328,*50
$GNGGA,024149.000,2257.0737,N,11353.8058,E,1,13,0.87,9.9,M,-3.6,M,,*6C
1494412891 113.896763 22.951228 9.90 0.87 0.78 13 40 39 36 35
speed:0.000000, dis=0.000000
$GPGSA,A,3,26,16,14,32,22,03,27,193,23,,,,1.17,0.87,0.78*3E
$GLGSA,A,3,69,68,81,82,,,,,,,,,1.17,0.87,0.78*1B
$GPGSV,4,1,13,26,66,353,22,16,65,270,34,14,55,129,40,41,46,236,35*74
$GPGSV,4,2,13,31,41,046,,32,31,139,35,22,30,251,39,27,30,179,29*7B
$GPGSV,4,3,13,03,25,282,34,193,23,170,23,23,15,320,21,29,13,044,*44
$GPGSV,4,4,13,08,02,199,*40
$GLGSV,3,1,09,69,54,279,26,68,40,195,36,79,37,359,,81,30,106,31*60
$GLGSV,3,2,09,80,22,291,20,78,19,039,,88,17,052,,82,14,157,25*6A
$GLGSV,3,3,09,70,13,328,*50
$GNRMC,024149.000,A,2257.0737,N,11353.8058,E,0.33,2.77,100517,,,A*7B
$GNVTG,2.77,T,,M,0.33,N,0.62,K,A*25
$GNGGA,024150.000,2257.0737,N,11353.8059,E,1,11,1.04,10.0,M,-3.6,M,,*5C
1494412892 113.896765 22.951228 10.00 1.04 0.78 13 40 39 35 35
speed:0.000000, dis=0.000000
$GPGSA,A,3,16,14,32,03,27,193,23,,,,,,1.32,1.04,0.82*32
$GLGSA,A,3,69,68,81,82,,,,,,,,,1.32,1.04,0.82*13
$GPGSV,4,1,13,26,66,353,20,16,65,270,33,14,55,129,39,41,46,236,33*79
$GPGSV,4,2,13,31,41,046,,32,31,139,35,22,30,251,25,27,30,179,30*7E
$GPGSV,4,3,13,03,25,282,32,193,23,170,25,23,15,320,21,29,13,044,*44
$GPGSV,4,4,13,08,02,199,*40
$GLGSV,3,1,09,69,54,279,25,68,40,195,34,79,37,359,,81,30,106,33*63
$GLGSV,3,2,09,80,22,291,19,78,19,039,,88,17,052,,82,14,157,34*60
$GLGSV,3,3,09,70,13,328,*50
$GNRMC,024150.000,A,2257.0737,N,11353.8059,E,0.28,2.77,100517,,,A*78
$GNVTG,2.77,T,,M,0.28,N,0.52,K,A*2C
$GNGGA,024151.000,2257.0738,N,11353.8059,E,1,11,1.04,10.0,M,-3.6,M,,*52
1494412893 113.896765 22.951230 10.00 1.04 0.82 13 39 35 33 33
speed:0.000000, dis=0.000000
$GPGSA,A,3,16,14,32,03,27,193,23,,,,,,1.32,1.04,0.82*32
$GLGSA,A,3,69,68,81,82,,,,,,,,,1.32,1.04,0.82*13
$GPGSV,4,1,13,26,66,353,20,16,65,270,32,14,55,129,38,41,46,236,32*78
$GPGSV,4,2,13,31,41,046,,32,31,139,35,22,30,251,25,27,30,179,30*7E
$GPGSV,4,3,13,03,25,282,31,193,23,170,26,23,15,320,21,29,13,044,*44
$GPGSV,4,4,13,08,02,199,*40
$GLGSV,3,1,09,69,54,279,24,68,40,195,33,79,37,359,,81,30,106,34*62
$GLGSV,3,2,09,80,22,291,19,78,19,039,,88,17,052,,82,14,157,34*60
$GLGSV,3,3,09,70,13,328,*50
$GNRMC,024151.000,A,2257.0738,N,11353.8059,E,0.24,2.77,100517,,,A*7A
$GNVTG,2.77,T,,M,0.24,N,0.44,K,A*27
$GNGGA,024152.000,2257.0740,N,11353.8060,E,1,10,1.04,10.0,M,-3.6,M,,*55
1494412894 113.896766 22.951233 10.00 1.04 0.82 13 38 35 32 32
speed:0.000000, dis=0.000000
$GPGSA,A,3,16,14,32,03,27,193,23,,,,,,1.32,1.04,0.82*32
$GLGSA,A,3,68,81,82,,,,,,,,,,1.32,1.04,0.82*1C
$GPGSV,4,1,13,26,66,353,20,16,65,270,31,14,55,129,37,41,46,236,30*76
$GPGSV,4,2,13,31,41,046,,32,31,139,36,22,30,251,23,27,30,179,37*7C
$GPGSV,4,3,13,03,25,282,30,193,23,170,33,23,15,320,21,29,13,044,*41
$GPGSV,4,4,13,08,02,199,*40
$GLGSV,3,1,09,69,54,279,19,68,40,195,33,79,37,359,,81,30,106,35*6D
$GLGSV,3,2,09,80,22,291,,78,19,039,,88,17,052,,82,14,157,35*69
$GLGSV,3,3,09,70,13,328,*50
$GNRMC,024152.000,A,2257.0740,N,11353.8060,E,0.18,2.77,100517,,,A*73
$GNVTG,2.77,T,,M,0.18,N,0.34,K,A*2F
$GNGGA,024153.000,2257.0743,N,11353.8061,E,1,10,1.04,10.0,M,-3.6,M,,*56
1494412895 113.896768 22.951238 10.00 1.04 0.82 13 37 37 36 33
speed:0.000000, dis=0.000000
$GPGSA,A,3,16,14,32,03,27,193,23,,,,,,1.32,1.04,0.82*32
$GLGSA,A,3,68,81,82,,,,,,,,,,1.32,1.04,0.82*1C
$GPGSV,4,1,13,26,66,353,20,16,65,270,31,14,55,129,37,41,46,236,29*7E
$GPGSV,4,2,13,31,41,046,,32,31,139,36,22,30,251,23,27,30,179,37*7C
$GPGSV,4,3,13,03,25,282,29,193,23,170,33,23,15,320,21,29,13,044,*49
$GPGSV,4,4,13,08,02,199,*40
$GLGSV,3,1,09,69,54,279,19,68,40,195,33,79,37,359,,81,30,106,36*6E
$GLGSV,3,2,09,80,22,291,,78,19,039,,88,17,052,,82,14,157,35*69
$GLGSV,3,3,09,70,13,328,*50
$GNRMC,024153.000,A,2257.0743,N,11353.8061,E,0.07,2.77,100517,,,A*7E
$GNVTG,2.77,T,,M,0.07,N,0.14,K,A*23
$GNGGA,024154.000,2257.0744,N,11353.8062,E,1,10,1.05,10.0,M,-3.6,M,,*54
1494412896 113.896770 22.951240 10.00 1.05 0.82 13 37 37 36 33
speed:0.000000, dis=0.000000
$GPGSA,A,3,16,14,32,03,27,193,23,,,,,,1.34,1.05,0.84*33
$GLGSA,A,3,68,81,82,,,,,,,,,,1.34,1.05,0.84*1D
$GPGSV,4,1,13,26,66,353,19,16,65,270,31,14,55,129,36,50,46,122,*78
$GPGSV,4,2,13,31,41,046,,32,31,139,35,22,30,251,23,27,30,179,36*7E
$GPGSV,4,3,13,03,25,282,28,193,23,170,32,23,15,320,20,29,13,044,*48
$GPGSV,4,4,13,08,02,199,*40
$GLGSV,3,1,09,69,54,279,20,68,40,195,32,79,37,359,,81,30,106,36*65
$GLGSV,3,2,09,80,22,291,,78,19,039,,88,17,052,,82,14,157,36*6A
$GLGSV,3,3,09,70,13,328,*50
$GNRMC,024154.000,A,2257.0744,N,11353.8062,E,0.08,2.77,100517,,,A*72
$GNVTG,2.77,T,,M,0.08,N,0.15,K,A*2D
$GNGGA,024155.000,2257.0746,N,11353.8063,E,1,10,1.05,10.0,M,-3.6,M,,*56
1494412897 113.896771 22.951243 10.00 1.05 0.84 13 36 36 35 32
speed:0.000000, dis=0.000000
$GPGSA,A,3,16,14,32,03,27,193,23,,,,,,1.34,1.05,0.84*33
$GLGSA,A,3,68,81,82,,,,,,,,,,1.34,1.05,0.84*1D
$GPGSV,4,1,13,26,66,353,19,16,65,270,31,14,55,129,36,50,46,122,*78
$GPGSV,4,2,13,31,41,046,,32,31,139,34,22,30,251,23,27,30,179,35*7C
$GPGSV,4,3,13,03,25,282,27,193,23,170,31,23,15,320,20,29,13,044,*44
$GPGSV,4,4,13,08,02,199,*40
$GLGSV,3,1,09,69,54,279,20,68,40,195,32,79,37,359,,81,30,106,36*65
$GLGSV,3,2,09,80,22,291,,78,19,039,,88,17,052,,82,14,157,36*6A
$GLGSV,3,3,09,70,13,328,*50
$GNRMC,024155.000,A,2257.0746,N,11353.8063,E,0.08,2.77,100517,,,A*70
$GNVTG,2.77,T,,M,0.08,N,0.14,K,A*2C
$GNGGA,024156.000,2257.0747,N,11353.8065,E,1,11,1.05,10.0,M,-3.6,M,,*53
1494412898 113.896775 22.951245 10.00 1.05 0.84 13 36 35 34 31
speed:0.000000, dis=0.000000
$GPGSA,A,3,16,14,32,22,03,27,193,,,,,,1.34,1.05,0.84*32
$GLGSA,A,3,69,68,81,82,,,,,,,,,1.34,1.05,0.84*12
$GPGSV,4,1,13,26,66,353,17,16,65,270,31,14,55,129,35,50,46,122,*75
$GPGSV,4,2,13,31,41,046,,32,31,139,33,22,30,251,29,27,30,179,34*70
$GPGSV,4,3,13,03,25,282,27,193,23,170,29,23,15,320,,29,13,044,*4F
$GPGSV,4,4,13,08,02,199,*40
$GLGSV,3,1,09,69,54,279,19,68,40,195,31,79,37,359,,81,30,106,36*6C
$GLGSV,3,2,09,80,22,291,,78,19,039,,88,17,052,,82,14,157,36*6A
$GLGSV,3,3,09,70,13,328,*50
$GNRMC,024156.000,A,2257.0747,N,11353.8065,E,0.09,2.77,100517,,,A*75
$GNVTG,2.77,T,,M,0.09,N,0.16,K,A*2F
$GNGGA,024157.000,2257.0747,N,11353.8065,E,1,10,1.05,10.0,M,-3.6,M,,*53
1494412899 113.896775 22.951245 10.00 1.05 0.84 13 35 34 33 31
speed:0.000000, dis=0.000000
$GPGSA,A,3,16,14,32,03,27,193,,,,,,,1.34,1.05,0.84*32
$GLGSA,A,3,69,68,81,82,,,,,,,,,1.34,1.05,0.84*12
$GPGSV,4,1,13,26,66,353,17,16,65,270,31,14,55,129,35,50,46,122,*75
$GPGSV,4,2,13,31,41,046,,32,31,139,32,22,30,251,29,27,30,179,34*71
$GPGSV,4,3,13,03,25,282,27,193,23,170,28,23,15,320,,29,13,044,*4E
$GPGSV,4,4,13,08,02,199,*40
$GLGSV,3,1,09,69,54,279,19,68,40,195,31,79,37,359,,81,30,106,36*6C
$GLGSV,3,2,09,80,22,291,,78,19,039,,88,17,052,,82,14,157,36*6A
$GLGSV,3,3,09,70,13,328,*50
$GNRMC,024157.000,A,2257.0747,N,11353.8065,E,0.19,2.77,100517,,,A*75
$GNVTG,2.77,T,,M,0.19,N,0.35,K,A*2F
$GNGGA,024158.000,2257.0748,N,11353.8064,E,1,11,1.15,10.1,M,-3.6,M,,*53
1494412900 113.896773 22.951246 10.10 1.15 0.84 13 35 34 32 31
speed:0.000000, dis=0.000000
$GPGSA,A,3,16,14,32,22,03,27,193,,,,,,1.45,1.15,0.88*39
$GLGSA,A,3,69,68,81,82,,,,,,,,,1.45,1.15,0.88*19
$GPGSV,4,1,13,26,66,353,19,16,65,270,32,14,55,129,33,50,46,122,*7E
$GPGSV,4,2,13,31,41,046,,32,31,139,40,22,30,251,32,27,30,179,35*7F
$GPGSV,4,3,13,03,25,282,38,193,23,170,28,23,15,320,,29,13,044,*40
$GPGSV,4,4,13,08,02,199,*40
$GLGSV,3,1,09,69,54,279,26,68,40,195,33,79,37,359,,81,30,106,26*63
$GLGSV,3,2,09,80,22,291,,78,19,039,,88,17,052,,82,14,157,31*6D
$GLGSV,3,3,09,70,13,328,*50
$GNRMC,024158.000,A,2257.0748,N,11353.8064,E,0.38,2.77,100517,,,A*77
$GNVTG,2.77,T,,M,0.38,N,0.71,K,A*2C
$GNGGA,024159.000,2257.0749,N,11353.8064,E,1,11,1.15,10.1,M,-3.6,M,,*53
1494412901 113.896773 22.951248 10.10 1.15 0.88 13 40 38 35 33
speed:0.000000, dis=0.000000
$GPGSA,A,3,16,14,32,22,03,27,193,,,,,,1.45,1.15,0.88*39
$GLGSA,A,3,69,68,81,82,,,,,,,,,1.45,1.15,0.88*19
$GPGSV,4,1,13,26,66,353,19,16,65,270,33,14,55,129,32,50,46,122,*7E
$GPGSV,4,2,13,31,41,046,,32,31,139,40,22,30,251,32,27,30,179,36*7C
$GPGSV,4,3,13,03,25,282,38,193,23,170,28,23,15,320,,29,13,044,*40
$GPGSV,4,4,13,08,02,199,*40
$GLGSV,3,1,09,69,54,279,26,68,40,195,34,79,37,359,,81,30,106,26*64
$GLGSV,3,2,09,80,22,291,,78,19,039,,88,17,052,,82,14,157,31*6D
$GLGSV,3,3,09,70,13,328,*50
$GNRMC,024159.000,A,2257.0749,N,11353.8064,E,0.43,2.77,100517,,,A*7B
$GNVT$GNGGA,024159.999,2257.0745,N,11353.8062,E,1,13,0.96,10.1,M,-3.6,M,,*58
1494412901 113.896770 22.951241 10.10 0.96 0.88 13 40 38 36 33
speed:0.000000, dis=0.000000
$GPGSA,A,3,26,16,14,32,22,03,27,193,,,,,1.27,0.96,0.84*3F
$GLGSA,A,3,69,68,81,80,82,,,,,,,,1.27,0.96,0.84*13
$GPGSV,4,1,13,26,66,353,20,16,65,270,34,14,55,129,25,50,46,122,*75
$GPGSV,4,2,13,31,41,046,,32,31,139,39,22,30,251,35,27,30,179,36*75
$GPGSV,4,3,13,03,25,282,38,193,23,170,26,23,15,320,,29,13,044,*4E
$GPGSV,4,4,13,08,02,199,23*41
$GLGSV,3,1,09,69,54,279,31,68,40,195,36,79,37,359,,81,30,106,24*62
$GLGSV,3,2,09,80,22,291,27,78,19,039,,88,17,052,,82,14,157,24*6C
$GLGSV,3,3,09,70,13,328,*50
$GNRMC,024159.999,A,2257.0745,N,11353.8062,E,1.00,235.63,100517,,,A*7D
$GNVTG,235.63,T,,M,1.00,N,1.85,K,A*2F
$GNGGA,024201.000,2257.0744,N,11353.8061,E,1,13,0.96,10.1,M,-3.6,M,,*5D
1494412903 113.896768 22.951240 10.10 0.96 0.84 13 39 38 36 35
speed:0.000000, dis=0.000000
$GPGSA,A,3,26,16,14,32,22,03,27,193,,,,,1.27,0.96,0.84*3F
$GLGSA,A,3,69,68,81,80,82,,,,,,,,1.27,0.96,0.84*13
$GPGSV,4,1,13,26,66,353,20,16,65,270,34,14,55,129,25,50,46,122,*75
$GPGSV,4,2,13,31,41,046,,32,31,139,39,22,30,251,36,27,30,179,36*76
$GPGSV,4,3,13,03,25,282,38,193,23,170,24,23,15,320,24,29,13,044,*4A
$GPGSV,4,4,13,08,02,199,23*41
$GLGSV,3,1,09,69,54,279,33,68,40,195,37,79,37,359,,81,30,106,17*61
$GLGSV,3,2,09,80,22,291,27,78,19,039,,88,17,052,,82,14,157,27*6F
$GLGSV,3,3,09,70,13,328,*50
$GNRMC,024201.000,A,2257.0744,N,11353.8061,E,2.03,231.20,100517,,,A*7B
$GNVTG,231.20,T,,M,2.03,N,3.76,K,A*22
$GNGGA,024202.000,2257.0742,N,11353.8076,E,1,14,0.87,10.4,M,-3.6,M,,*5C
1494412904 113.896793 22.951236 10.40 0.87 0.84 13 39 38 36 36
speed:0.000000, dis=0.000000
$GPGSA,A,3,26,16,14,32,22,03,27,193,23,,,,1.17,0.87,0.78*3E
$GLGSA,A,3,69,68,81,80,82,,,,,,,,1.17,0.87,0.78*13
$GPGSV,4,1,13,26,66,353,20,16,65,270,34,14,55,129,25,50,46,122,*75
$GPGSV,4,2,13,31,41,046,,32,31,139,39,22,30,251,36,27,30,179,36*76
$GPGSV,4,3,13,03,25,282,38,193,23,170,24,23,15,320,24,29,13,044,*4A
$GPGSV,4,4,13,08,02,199,23*41
$GLGSV,3,1,09,69,54,279,33,68,40,195,37,79,37,359,,81,30,106,16*60
$GLGSV,3,2,09,80,22,291,28,78,19,039,,88,17,052,,82,14,157,28*6F
$GLGSV,3,3,09,70,13,328,*50
$GNRMC,024202.000,A,2257.0742,N,11353.8076,E,0.20,231.20,100517,,,A*7B
$GNVTG,231.20,T,,M,0.20,N,0.38,K,A*28
$GNGGA,024203.000,2257.0743,N,11353.8077,E,1,13,1.02,10.4,M,-3.6,M,,*56
1494412905 113.896795 22.951238 10.40 1.02 0.78 13 39 38 36 36
speed:0.000000, dis=0.000000
$GPGSA,A,3,26,16,14,32,22,03,27,193,23,,,,1.29,1.02,0.79*3E
$GLGSA,A,3,69,68,80,82,,,,,,,,,1.29,1.02,0.79*1A
$GPGSV,4,1,13,26,66,353,19,16,65,270,34,14,55,129,24,50,46,122,*7E
$GPGSV,4,2,13,31,41,046,15,32,31,139,39,22,30,251,33,27,30,179,36*77
$GPGSV,4,3,13,03,25,282,38,193,23,170,24,23,15,321,23,29,13,044,*4C
$GPGSV,4,4,13,08,02,199,24*46
$GLGSV,3,1,09,69,54,279,32,68,40,195,37,79,37,359,,81,30,106,*66
$GLGSV,3,2,09,80,22,291,28,78,$GNGGA,024204.000,2257.0743,N,11353.8077,E,1,13,1.02,10.5,M,-3.6,M,,*50
1494412906 113.896795 22.951238 10.50 1.02 0.79 13 39 38 36 34
speed:0.000000, dis=0.000000
$GPGSA,A,3,26,16,14,32,22,03,27,193,23,,,,1.29,1.02,0.79*3E
$GLGSA,A,3,69,68,80,82,,,,,,,,,1.29,1.02,0.79*1A
$GPGSV,4,1,13,26,66,353,18,16,65,270,35,14,55,129,17,50,46,122,*7E
$GPGSV,4,2,13,31,41,046,14,32,31,139,39,22,30,251,33,27,30,179,36*76
$GPGSV,4,3,13,03,25,282,38,193,23,170,25,23,15,321,29,29,13,044,*47
$GPGSV,4,4,13,08,02,199,18*49
$GLGSV,3,1,09,69,54,279,33,68,40,195,37,79,37,359,,81,30,106,*67
$GNVTG,231.20,T,,M,0.14,N,0.27,K,A*21
$GNGGA,024205.000,2257.0743,N,11353.8077,E,1,14,0.87,10.6,M,-3.6,M,,*59
1494412907 113.896795 22.951238 10.60 0.87 0.79 13 39 38 36 35
speed:0.000000, dis=0.000000
$GPGSA,A,3,26,16,14,32,22,03,27,193,23,,,,1.17,0.87,0.78*3E
$GLGSA,A,3,69,68,80,82,81,,,,,,,,1.17,0.87,0.78*13
$GPGSV,4,1,13,26,66,353,19,16,65,270,36,14,55,129,29,50,46,122,*71
$GPGSV,4,2,13,31,41,046,14,32,31,139,37,22,30,251,34,27,30,179,35*7C
$GPGSV,4,3,13,03,25,282,38,193,23,170,25,23,15,321,30,29,13,044,*4F
$GPGSV,4,4,13,08,02,199,18*49
$GLGSV,3,1,09,69,54,279,32,68,40,195,27,79,37,359,,81,30,106,31*65
$GLGSV,3,2,09,80,22,291,26,78,19,039,,88,17,052,,82,14,157,27*6E
$GLGSV,3,3,09,70,13,328,*50
$GNRMC,024205.000,A,2257.0743,N,11353.8077,E,0.10,231.20,100517,,,A*7F
$GNVTG,231.20,T,,M,0.10,N,0.18,K,A*29
$GNGGA,024206.000,2257.0743,N,11353.8078,E,1,13,1.02,10.6,M,-3.6,M,,*5E
1494412908 113.896796 22.951238 10.60 1.02 0.78 13 38 37 36 35
speed:0.000000, dis=0.000000
$GPGSA,A,3,26,16,14,32,22,03,27,193,23,,,,1.29,1.02,0.79*3E
$GLGSA,A,3,69,68,80,82,,,,,,,,,1.29,1.02,0.79*1A
$GPGSV,4,1,13,16,65,270,37,26,65,354,19,14,55,129,31,50,46,122,*7D
$GPGSV,4,2,13,31,41,046,13,32,31,139,28,22,30,251,35,27,30,179,34*75
$GPGSV,4,3,13,03,25,282,37,193,23,170,26,23,15,321,29,29,13,044,*4B
$GPGSV,4,4,13,08,02,199,18*49
$GLGSV,3,1,09,69,54,279,31,68,40,195,26,79,37,359,,81,30,106,21*66
$GLGSV,3,2,09,80,22,291,19,78,19,039,,88,17,052,,82,14,157,27*62
$GLGSV,3,3,09,70,13,328,*50
$GNRMC,024206.000,A,2257.0743,N,11353.8078,E,0.18,231.20,100517,,,A*7B
$GNVTG,231.20,T,,M,0.18,N,0.33,K,A*28
$GNGGA,024207.000,2257.0744,N,11353.8079,E,1,13,1.02,10.7,M,-3.6,M,,*58
1494412909 113.896798 22.951240 10.70 1.02 0.79 13 37 37 35 34
speed:0.000000, dis=0.000000
$GPGSA,A,3,26,16,14,32,22,03,27,193,23,,,,1.29,1.02,0.79*3E
$GLGSA,A,3,69,68,80,82,,,,,,,,,1.29,1.02,0.79*1A
$GPGSV,4,1,13,16,65,270,37,26,65,354,19,14,55,129,32,50,46,122,*7E
$GPGSV,4,2,13,31,41,046,13,32,31,139,28,22,30,251,36,27,30,179,34*76
$GPGSV,4,3,13,03,25,282,37,193,23,170,26,23,15,321,29,29,13,044,*4B
$GPGSV,4,4,13,08,02,199,18*49
$GLGSV,3,1,09,69,54,279,30,68,40,195,25,79,37,359,,81,30,106,21*64
$GLGSV,3,2,09,80,22,291,19,78,19,039,,88,17,052,,82,14,157,27*62
$GLGSV,3,3,09,70,13,328,*50
$GNRMC,024207.000,A,2257.0744,N,11353.8079,E,0.22,231.20,100517,,,A*75
$GNVTG,231.20,T,,M,0.22,N,0.40,K,A*25
$GNGGA,024208.000,2257.0744,N,11353.8079,E,1,13,1.02,10.7,M,-3.6,M,,*57
1494412910 113.896798 22.951240 10.70 1.02 0.79 13 37 37 36 34
speed:0.000000, dis=0.000000
$GPGSA,A,3,26,16,14,32,22,03,27,193,23,,,,1.29,1.02,0.79*3E
$GLGSA,A,3,69,68,82,81,,,,,,,,,1.29,1.02,0.79*1B
$GPGSV,4,1,13,16,65,270,37,26,65,354,19,14,55,129,27,50,46,122,*7A
$GPGSV,4,2,13,31,41,046,,32,31,139,35,22,30,251,37,27,30,179,34*79
$GPGSV,4,3,13,03,25,282,37,193,23,170,25,23,15,321,29,29,13,044,*48
$GPGSV,4,4,13,08,02,199,17*46
$GLGSV,3,1,09,69,54,279,30,68,40,195,26,79,37,359,,81,30,106,26*60
$GLGSV,3,2,09,80,22,291,19,78,19,039,,88,17,052,,82,14,157,27*62
$GLGSV,3,3,09,70,13,328,*50
$GNRMC,024208.000,A,2257.0744,N,11353.8079,E,0.38,231.20,100517,,,A*71
$GNVTG,231.20,T,,M,0.38,N,0.71,K,A*2C
$GNGGA,024209.000,2257.0745,N,11353.8080,E,1,13,1.02,10.8,M,-3.6,M,,*5E
1494412911 113.896800 22.951241 10.80 1.02 0.79 13 37 37 37 35
speed:0.000000, dis=0.000000
$GPGSA,A,3,26,16,14,32,22,03,27,193,23,,,,1.29,1.02,0.79*3E
$GLGSA,A,3,69,68,82,81,,,,,,,,,1.29,1.02,0.79*1B
$GPGSV,4,1,13,16,65,270,37,26,65,354,19,14,55,129,27,50,46,122,*7A
$GPGSV,4,2,13,31,41,046,,32,31,139,35,22,30,251,37,27,30,179,34*79
$GPGSV,4,3,13,03,25,282,37,193,23,170,24,23,15,321,29,29,13,044,*49
$GPGSV,4,4,13,08,02,199,17*46
$GLGSV,3,1,09,69,54,279,30,68,40,195,27,79,37,359,,81,30,106,26*61
$GLGSV,3,2,09,80,22,291,19,78,19,039,,88,17,052,,82,14,157,27*62
$GLGSV,3,3,09,70,13,328,*50
$GNRMC,024209.000,A,2257.0745,N,11353.8080,E,0.40,231.20,100517,,,A*78
$GNVTG,231.20,T,,M,0.40,N,0.74,K,A*26
$GNGGA,024210.000,2257.0745,N,11353.8080,E,1,11,1.02,10.8,M,-3.6,M,,*54
1494412912 113.896800 22.951241 10.80 1.02 0.79 13 37 37 37 35
speed:0.000000, dis=0.000000
$GPGSA,A,3,26,16,14,32,22,03,27,193,,,,,1.34,1.02,0.88*3D
$GLGSA,A,3,68,82,81,,,,,,,,,,1.34,1.02,0.88*16
$GPGSV,4,1,13,16,65,270,25,26,65,354,19,14,55,129,39,50,46,122,*76
$GPGSV,4,2,13,31,41,046,,32,31,139,35,22,30,251,37,27,30,179,35*78
$GPGSV,4,3,13,03,25,282,24,193,23,170,31,23,15,321,21,29,13,044,*47
$GPGSV,4,4,13,08,02,199,20*42
$GLGSV,3,1,09,69,54,279,21,68,40,195,36,79,37,359,,81,30,106,38*6E
$GLGSV,3,2,09,80,22,291,16,78,19,039,,88,17,052,,82,14,157,37*6C
$GLGSV,3,3,09,70,13,328,*50
$GNRMC,024210.000,A,2257.0745,N,11353.8080,E,0.18,231.20,100517,,,A*7D
$GNVTG,231.20,T,,M,0.18,N,0.34,K,A*2F
$GNGGA,024210.999,2257.0746,N,11353.8079,E,1,14,0.87,10.9,M,-3.6,M,,*50
1494412912 113.896798 22.951243 10.90 0.87 0.88 13 39 37 35 35
speed:0.000000, dis=0.000000
$GPGSA,A,3,26,16,14,32,22,03,27,193,23,,,,1.17,0.87,0.78*3E
$GLGSA,A,3,69,68,80,82,81,,,,,,,,1.17,0.87,0.78*13
$GPGSV,4,1,13,16,65,270,36,26,65,354,19,14,55,129,24,50,46,122,*78
$GPGSV,4,2,13,31,41,046,,32,31,139,36,22,30,251,36,27,30,179,34*7B
$GPGSV,4,3,13,03,25,282,36,193,23,170,20,23,15,321,24,29,13,044,*41
$GPGSV,4,4,13,08,02,199,20*42
$GLGSV,3,1,09,69,54,279,29,68,40,195,34,79,37,359,,81,30,106,32*6E
$GLGSV,3,2,09,80,22,291,26,78,19,039,,88,17,052,,82,14,157,30*68
$GLGSV,3,3,09,70,13,328,*50
$GNRMC,024210.999,A,2257.0746,N,11353.8079,E,0.26,231.20,100517,,,A*7C
$GNVTG,231.20,T,,M,0.26,N,0.48,K,A*29
$GNGGA,024212.000,2257.0746,N,11353.8079,E,1,14,0.87,10.9,M,-3.6,M,,*5B
1494412914 113.896798 22.951243 10.90 0.87 0.78 13 36 36 36 36
speed:0.000000, dis=0.000000
$GPGSA,A,3,26,16,14,32,22,03,27,193,23,,,,1.17,0.87,0.78*3E
$GLGSA,A,3,69,68,80,82,81,,,,,,,,1.17,0.87,0.78*13
$GPGSV,4,1,13,16,65,270,35,26,65,354,19,14,55,129,24,50,46,122,35*7D
$GPGSV,4,2,13,31,41,046,,32,31,139,36,22,30,251,34,27,30,179,33*7E
$GPGSV,4,3,13,03,25,282,36,193,23,170,19,23,15,321,26,29,13,044,*49
$GPGSV,4,4,13,08,02,199,18*49
$GLGSV,3,1,09,69,54,279,30,68,40,195,34,79,37,359,,81,30,106,28*6D
$GLGSV,3,2,09,80,22,291,27,78,19,039,,88,17,052,,82,14,157,29*61
$GLGSV,3,3,09,70,13,328,*50
$GNRMC,024212.000,A,2257.0746,N,11353.8079,E,0.07,231.20,100517,,,A*74
$GNVTG,231.20,T,,M,0.07,N,0.13,K,A*24
$GNGGA,024213.000,2257.0748,N,11353.8080,E,1,14,0.87,10.9,M,-3.6,M,,*52
1494412915 113.896800 22.951246 10.90 0.87 0.78 13 36 36 35 35
speed:0.000000, dis=0.000000
$GPGSA,A,3,26,16,14,32,22,03,27,193,23,,,,1.17,0.87,0.78*3E
$GLGSA,A,3,69,68,80,82,81,,,,,,,,1.17,0.87,0.78*13
$GPGSV,4,1,13,16,65,270,34,26,65,354,20,14,55,129,25,50,46,122,34*76
$GPGSV,4,2,13,31,41,046,,32,31,139,37,22,30,251,35,27,30,179,33*7E
$GPGSV,4,3,13,03,25,282,37,193,23,170,19,23,15,321,20,29,13,044,*4E
$GPGSV,4,4,13,08,02,199,18*49
$GLGSV,3,1,09,69,54,279,28,68,40,195,36,79,37,359,,81,30,106,25*6B
$GLGSV,3,2,09,80,22,291,26,78,19,039,,88,17,052,,82,14,157,29*60
$GLGSV,3,3,09,70,13,328,*50
$GNRMC,024213.000,A,2257.0748,N,11353.8080,E,0.29,231.20,100517,,2B
$GNGGA,024214.000,2257.0749,N,11353.8080,E,1,13,0.96,10.9,M,-3.6,M,,*53
1494412916 113.896800 22.951248 10.90 0.96 0.78 13 37 37 35 34
speed:0.000000, dis=0.000000
$GPGSA,A,3,26,16,14,32,22,03,27,193,,,,,1.27,0.96,0.84*3F
$GLGSA,A,3,69,68,80,82,81,,,,,,,,1.27,0.96,0.84*13
$GPGSV,4,1,13,16,65,270,34,26,65,354,21,14,55,129,25,41,46,236,*76
$GPGSV,4,2,13,31,41,046,,32,31,139,38,22,30,251,36,27,30,179,34*75
$GPGSV,4,3,13,03,25,282,37,193,23,170,20,23,15,321,20,29,13,044,*44
$GPGSV,4,4,13,08,02,199,18*49
$GLGSV,3,1,09,69,54,279,28,68,40,195,37,79,37,359,,81,30,106,25*6A
$GLGSV,3,2,09,80,22,291,25,78,19,039,,88,17,052,,82,14,157,28*62
$GLGSV,3,3,09,70,13,328,*50
$GNRMC,024214.000,A,2257.0749,N,11353.8080,E,0.48,231.20,100517,,,A*70
$GNVTG,231.20,T,,M,0.48,N,0.88,K,A*2D
$GNGGA,024215.000,2257.0750,N,11353.8080,E,1,13,0.96,10.9,M,-3.6,M,,*5A
1494412917 113.896800 22.951250 10.90 0.96 0.84 13 38 37 36 34
speed:0.000000, dis=0.000000
$GPGSA,A,3,26,16,14,32,22,03,27,193,,,,,1.27,0.96,0.84*3F
$GLGSA,A,3,69,68,80,82,81,,,,,,,,1.27,0.96,0.84*13
$GPGSV,4,1,13,16,65,270,34,26,65,354,21,14,55,129,25,41,46,236,*76
$GPGSV,4,2,13,31,41,046,,32,31,139,39,22,30,251,37,27,30,179,35*74
$GPGSV,4,3,13,03,25,282,37,193,23,170,20,23,15,321,20,29,13,044,*44
$GPGSV,4,4,13,08,02,199,18*49
$GLGSV,3,1,09,69,54,279,28,68,40,195,38,79,37,359,,81,30,106,25*65
$GLGSV,3,2,09,80,22,291,25,78,19,039,,88,17,052,,82,14,157,27*6D
$GLGSV,3,3,09,70,13,328,*50
$GNRMC,024215.000,A,2257.0750,N,11353.8080,E,0.51,231.20,100517,,,A*71
$GNVTG,231.20,T,,M,0.51,N,0.95,K,A*29
$GNGGA,024216.000,2257.0751,N,11353.8080,E,1,12,0.96,10.9,M,-3.6,M,,*59
1494412918 113.896800 22.951251 10.90 0.96 0.84 13 39 37 37 35
speed:0.000000, dis=0.000000
$GPGSA,A,3,16,14,32,22,03,27,193,,,,,,1.27,0.96,0.84*3B
$GLGSA,A,3,69,68,80,82,81,,,,,,,,1.27,0.96,0.84*13
$GPGSV,4,1,13,16,65,270,34,26,65,354,21,14,55,129,28,41,46,236,*7B
$GPGSV,4,2,13,31,41,046,,32,31,139,39,22,30,251,38,27,30,179,36*78
$GPGSV,4,3,13,03,25,282,37,193,23,170,30,23,15,321,21,29,13,044,*44
$GPGSV,4,4,13,08,02,199,18*49
$GLGSV,3,1,09,69,54,279,30,68,40,195,38,79,37,359,,81,30,106,30*68
$GLGSV,3,2,09,80,22,291,24,78,19,039,,88,17,052,,82,14,157,26*6D
$GLGSV,3,3,09,70,13,328,*50
$GNRMC,024216.000,A,2257.0751,N,11353.8080,E,0.49,231.20,100517,,,A*7A
$GNVTG,231.20,T,,M,0.49,N,0.91,K,A*24
$GNGGA,024217.000,2257.0751,N,11353.8081,E,1,12,0.96,10.9,M,-3.6,M,,*59
1494412919 113.896801 22.951251 10.90 0.96 0.84 13 39 38 37 36
speed:0.000000, dis=0.000000
$GPGSA,A,3,16,14,32,22,03,27,193,,,,,,1.27,0.96,0.84*3B
$GLGSA,A,3,69,68,80,82,81,,,,,,,,1.27,0.96,0.84*13
$GPGSV,4,1,13,16,65,270,34,26,65,354,21,14,55,129,28,41,46,236,*7B
$GPGSV,4,2,13,31,41,046,,32,31,139,39,22,30,251,39,27,30,179,36*79
$GPGSV,4,3,13,03,25,282,37,193,23,170,30,23,15,321,21,29,13,044,*44
$GPGSV,4,4,13,08,02,199,18*49
$GLGSV,3,1,09,69,54,279,30,68,40,195,38,79,37,359,,81,30,106,30*68
$GLGSV,3,2,09,80,22,291,24,78,19,039,,88,17,052,,82,14,157,26*6D
$GLGSV,3,3,09,70,13,328,*50
$GNGGA,024218.000,2257.0750,N,11353.8080,E,1,13,0.94,10.9,M,-3.6,M,,*55
1494412920 113.896800 22.951250 10.90 0.94 0.84 13 39 39 37 36
speed:0.000000, dis=0.000000
$GPGSA,A,3,16,14,32,22,03,27,193,23,,,,,1.24,0.94,0.81*3E
$GLGSA,A,3,69,68,80,82,81,,,,,,,,1.24,0.94,0.81*17
$GPGSV,4,1,13,16,65,270,35,26,65,354,21,14,55,129,27,41,46,236,*75
$GPGSV,4,2,13,31,41,047,,32,31,139,39,22,30,251,40,27,30,179,37*77
$GPGSV,4,3,13,03,25,282,36,193,23,170,31,23,15,321,22,29,13,044,*47
$GPGSV,4,4,13,08,02,199,17*46
$GLGSV,3,1,09,69,54,279,30,68,40,195,37,79,37,359,,81,30,106,30*67
$GLGSV,3,2,09,80,22,291,24,78,19,039,,88,17,052,,82,14,157,26*6D
$GLGSV,3,3,09,70,13,328,*50
$GNRMC,024218.000,A,2257.0750,N,11353.8080,E,0.23,231.20,100517,,,A*79
$GNVTG,231.20,T,,M,0.23,N,0.43,K,A*27
$GNGGA,024219.000,2257.0749,N,11353.8080,E,1,13,0.94,10.9,M,-3.6,M,,*5C
1494412921 113.896800 22.951248 10.90 0.94 0.81 13 40 39 37 36
speed:0.000000, dis=0.000000
$GPGSA,A,3,16,14,32,22,03,27,193,23,,,,,1.24,0.94,0.81*3E
$GLGSA,A,3,69,68,80,82,81,,,,,,,,1.24,0.94,0.81*17
$GPGSV,4,1,13,16,65,270,36,26,65,354,21,14,55,129,26,41,46,236,*77
$GPGSV,4,2,13,31,41,047,,32,31,139,39,22,30,251,41,27,30,179,37*76
$GPGSV,4,3,13,03,25,282,36,193,23,170,32,23,15,321,22,29,13,044,*44
$GPGSV,4,4,13,08,02,199,17*46
$GLGSV,3,1,09,69,54,279,30,68,40,195,36,79,37,359,,81,30,106,30*66
$GLGSV,3,2,09,80,22,291,24,78,19,039,,88,17,052,,82,14,157,26*6D
$GLGSV,3,3,09,70,13,328,*50
$GNRMC,0000,A,2257.0749,N,11353.8080,E,0.30,231.20,100517,,,A*72
$$GNGGA,024220.000,2257.0748,N,11353.8079,E,1,13,0.94,10.9,M,-3.6,M,,*51
1494412922 113.896798 22.951246 10.90 0.94 0.81 13 41 39 37 36
speed:0.000000, dis=0.000000
$GPGSA,A,3,26,16,14,32,22,03,27,193,23,,,,1.24,0.94,0.81*3A
$GLGSA,A,3,69,68,80,82,,,,,,,,,1.24,0.94,0.81*1E
$GPGSV,4,1,13,16,65,270,36,26,65,354,20,14,55,129,26,41,46,236,*76
$GPGSV,4,2,13,31,41,047,,32,31,139,26,22,30,251,40,27,30,179,35*7B
$GPGSV,4,3,13,03,25,282,36,193,23,170,25,23,15,321,23,29,13,044,*43
$GPGSV,4,4,13,08,02,199,19*48
$GLGSV,3,1,09,69,54,279,29,68,40,195,35,79,37,359,,81,30,106,24*68
$GLGSV,3,2,09,80,22,291,24,78,19,039,,88,17,052,,82,14,157,27*6C
$GLGSV,3,3,09,70,13,328,*50
$GNRMC,024220.000,A,2257.0748,N,11353.8079,E,0.43,231.20,100517,,,A*7B
$GNVTG,231.20,T,,M,0.43,N,0.80,K,A*2E
$GNGGA,024221.000,2257.0748,N,11353.8078,E,1,14,0.94,11.0,M,-3.6,M,,*5E
1494412923 113.896796 22.951246 11.00 0.94 0.81 13 40 36 36 35
speed:0.000000, dis=0.000000
$GPGSA,A,3,26,16,14,32,22,03,27,193,23,,,,1.24,0.94,0.81*3A
$GLGSA,A,3,69,68,80,82,81,,,,,,,,1.24,0.94,0.81*17
$GPGSV,4,1,13,16,65,270,36,26,65,354,20,14,55,129,26,41,46,236,*76
$GPGSV,4,2,13,31,41,047,,32,31,139,26,22,30,251,40,27,30,179,34*7A
$GPGSV,4,3,13,03,25,282,36,193,23,170,25,23,15,321,23,29,13,044,*43
$GPGSV,4,4,13,08,02,199,19*48
$GLGSV,3,1,09,69,54,279,29,68,40,195,34,79,37,359,,81,30,106,24*69
$GLGSV,3,2,09,80,22,291,24,7$GNGGA,024222.000,2257.0747,N,11353.8077,E,1,13,0.94,11.0,M,-3.6,M,,*5A
1494412924 113.896795 22.951245 11.00 0.94 0.81 13 40 36 36 34
speed:0.000000, dis=0.000000
$GPGSA,A,3,16,14,32,22,03,27,193,23,,,,,1.24,0.94,0.81*3E
$GLGSA,A,3,69,68,80,82,81,,,,,,,,1.24,0.94,0.81*17
$GPGSV,4,1,13,16,65,270,36,26,65,354,20,14,55,129,36,41,46,236,*77
$GPGSV,4,2,13,31,41,047,,32,31,140,36,22,30,251,39,27,30,179,33*7C
$GPGSV,4,3,13,03,25,282,35,193,23,170,34,23,15,321,22,29,13,044,*41
$GPGSV,4,4,13,08,02,199,17*46
$GLGSV,3,1,09,69,54,279,25,68,40,195,34,79,37,359,,81,30,106,36*66
$GLGSV,3,2,09,80,22,291,22,78,19,039,,88,17,052,,82,14,157,28*65
$GLGSV,3,3,09,70,13,328,*50
$GNRMC,024222.000,A,2257.0747,N,11353.8077,E,0.50,231.20,100517,,,A0.93,K,A*2E
$GNGGA,024223.000,2257.0746,N,11353.8075,E,1,13,0.94,11.0,M,-3.6,M,,*58
1494412925 113.896791 22.951243 11.00 0.94 0.81 13 39 36 36 36
speed:0.000000, dis=0.000000
$GPGSA,A,3,16,14,32,22,03,27,193,23,,,,,1.24,0.94,0.81*3E
$GLGSA,A,3,69,68,80,82,81,,,,,,,,1.24,0.94,0.81*17
$GPGSV,4,1,13,16,65,270,36,26,65,354,20,14,55,129,36,41,46,236,*77
$GPGSV,4,2,13,31,41,047,,32,31,140,36,22,30,251,39,27,30,179,33*7C
$GPGSV,4,3,13,03,25,282,34,193,23,170,34,23,15,321,22,29,13,044,*40
$GPGSV,4,4,13,08,02,199,17*46
$GLGSV,3,1,09,69,54,279,25,68,40,195,34,79,37,359,,81,30,106,36*66
$GLGSV,3,2,09,80,22,291,22,78,19,039,,88,17,052,,82,14,157,28*65
$GLGSV,3,3,09,70,13,328,*50
$GNRMC,024223.000,A,2257.0746,N,11353.8075,E,0.42,231.20,100517,,,A*7B
$GNVTG,231.20,T,,M,0.42,N,0.77,K,A*27
$GNGGA,024224.000,2257.0746,N,11353.8075,E,1,11,0.94,11.0,M,-3.6,M,,*5D
1494412926 113.896791 22.951243 11.00 0.94 0.81 13 39 36 36 36
speed:0.000000, dis=0.000000
$GPGSA,A,3,16,14,32,22,03,27,193,,,,,,1.24,0.94,0.81*3F
$GLGSA,A,3,69,68,82,81,,,,,,,,,1.24,0.94,0.81*1F
$GPGSV,4,1,13,16,65,270,34,26,65,354,20,14,55,129,37,41,46,236,*74
$GPGSV,4,2,13,31,41,047,,32,31,140,37,22,30,251,30,27,30,179,34*73
$GPGSV,4,3,13,03,25,282,25,193,23,170,35,23,15,321,20,29,13,044,*43
$GPGSV,4,4,13,08,02,199,20*42
$GLGSV,3,1,09,69,54,279,24,68,40,195,35,79,37,359,,81,30,106,36*66
$GLGSV,3,2,09,80,22,291,18,78,19,039,,88,17,052,,82,14,157,38*6D
$GLGSV,3,3,09,70,13,328,*50
$GNRMC,024224.000,A,2257.0746,N,11353.8075,E,0.21,231.20,100517,,,A*79
$GNVTG,231.20,T,,M,0.21,N,0.38,K,A*29
$GNGGA,024225.000,2257.0747,N,11353.8076,E,1,11,0.94,11.0,M,-3.6,M,,*5E
1494412927 113.896793 22.951245 11.00 0.94 0.81 13 37 37 35 34
speed:0.000000, dis=0.000000
$GPGSA,A,3,16,14,32,22,03,27,193,,,,,,1.24,0.94,0.81*3F
$GLGSA,A,3,69,68,82,81,,,,,,,,,1.24,0.94,0.81*1F
$GPGSV,4,1,13,16,65,270,33,26,65,354,20,14,55,129,40,41,46,236,*73
$GPGSV,4,2,13,31,41,047,,32,31,140,38,22,30,251,30,27,30,179,35*7D
$GPGSV,4,3,13,03,25,282,25,193,23,170,36,23,15,321,20,29,13,044,*40
$GPGSV,4,4,13,08,02,199,20*42
$GLGSV,3,1,09,69,54,279,24,68,40,195,35,79,37,359,,81,30,106,36*66
$GLGSV,3,2,09,80,22,291,18,78,19,039,,88,17,052,,82,14,157,38*6D
$GLGSV,3,3,09,70,13,328,*50
$GNRMC,024225.000,A,2257.0747,N,11353.8076,E,0.03,231.20,100517,,,A*7A
$GNVTG,231.20,T,,M,0.03,N,0.05,K,A*27
$GNGGA,024226.000,2257.0748,N,11353.8076,E,1,11,1.15,11.1,M,-3.6,M,,*5B
1494412928 113.896793 22.951246 11.10 1.15 0.81 13 40 38 36 35
speed:0.000000, dis=0.000000
$GPGSA,A,3,16,14,32,22,03,27,193,,,,,,1.45,1.15,0.88*39
$GLGSA,A,3,69,68,82,81,,,,,,,,,1.45,1.15,0.88*19
$GPGSV,4,1,13,16,65,270,34,26,65,354,20,14,55,129,39,41,46,236,*7A
$GPGSV,4,2,13,31,41,047,,32,31,140,37,22,30,251,32,27,30,179,36*73
$GPGSV,4,3,13,03,25,282,36,193,23,170,25,23,15,321,24,29,13,044,*44
$GPGSV,4,4,13,08,02,199,19*48
$GLGSV,3,1,09,69,54,279,25,68,40,195,36,79,37,359,,81,30,106,33*61
$GLGSV,3,2,09,80,22,291,19,78,19,039,,88,17,052,,82,14,157,36*62
$GLGSV,3,3,09,70,13,328,*50
$GNRMC,024226.000,A,2257.0748,N,11353.8076,E,0.14,231.20,100517,,,A*70
$GNVTG,231.20,T,,M,0.14,N,0.27,K,A*21
$GNGGA,024227.000,2257.0748,N,11353.8075,E,1,11,1.15,11.1,M,-3.6,M,,*59
1494412929 113.896791 22.951246 11.10 1.15 0.88 13 39 37 36 36
speed:0.000000, dis=0.000000
$GPGSA,A,3,16,14,32,22,03,27,193,,,,,,1.45,1.15,0.88*39
$GLGSA,A,3,69,68,82,81,,,,,,,,,1.45,1.15,0.88*19
$GPGSV,4,1,13,16,65,270,34,26,65,354,20,14,55,129,38,41,46,236,*7B
$GPGSV,4,2,13,31,41,047,,32,31,140,37,22,30,251,33,27,30,179,36*72
$GPGSV,4,3,13,03,25,282,36,193,23,170,25,23,15,321,24,29,13,044,*44
$GPGSV,4,4,13,08,02,199,19*48
$GLGSV,3,1,09,69,54,279,25,68,40,195,37,79,37,359,,81,30,106,33*60
$GLGSV,3,2,09,80,22,291,19,78,19,039,,88,17,052,,82,14,157,35*61
$GLGSV,3,3,09,70,13,328,*50
$GNRMC,024227.000,A,2257.0748,N,11353.8075,E,0.26,231.20,100517,,,A*73
$GNVTG,231.20,T,,M,0.26,N,0.48,K,A*29
$GNGGA,024228.000,2257.0749,N,11353.8074,E,1,13,1.15,11.2,M,-3.6,M,,*57
1494412930 113.896790 22.951248 11.20 1.15 0.88 13 38 37 36 36
speed:0.000000, dis=0.000000
$GPGSA,A,3,26,16,14,32,22,03,27,193,23,,,,1.45,1.15,0.88*3C
$GLGSA,A,3,69,68,82,81,,,,,,,,,1.45,1.15,0.88*19
$GPGSV,4,1,13,16,65,270,35,26,65,354,21,14,55,129,37,41,46,236,*74
$GPGSV,4,2,13,31,41,047,,32,31,140,37,22,30,251,35,27,30,179,36*74
$GPGSV,4,3,13,03,25,282,36,193,23,170,24,23,15,321,26,29,13,044,*47
$GPGSV,4,4,13,08,02,199,21*43
$GLGSV,3,1,09,69,54,279,28,68,40,195,38,79,37,359,,81,30,106,36*67
$GLGSV,3,2,09,80,22,291,19,78,19,039,,88,17,052,,82,14,157,34*60
$GLGSV,3,3,09,70,13,328,*50
$GNRMC,024228.000,A,2257.0749,N,11353.8074,E,0.21,231.20,100517,,,A*7B
$GNVTG,231.20,T,,M,0.21,N,0.39,K,A*28
$GNGGA,024228.999,2257.0748,N,11353.8075,E,1,14,0.87,11.2,M,-3.6,M,,*53
1494412930 113.896791 22.951246 11.20 0.87 0.88 13 37 37 36 36
speed:0.000000, dis=0.000000
$GPGSA,A,3,26,16,14,32,22,03,27,193,23,,,,1.17,0.87,0.78*3E
$GLGSA,A,3,69,68,80,82,81,,,,,,,,1.17,0.87,0.78*13
$GPGSV,4,1,13,16,65,270,36,26,65,354,21,14,55,129,37,41,46,236,36*72
$GPGSV,4,2,13,31,41,047,,32,31,140,37,22,30,251,36,27,30,179,36*77
$GPGSV,4,3,13,03,25,282,36,193,23,170,23,23,15,321,27,29,13,044,*41
$GPGSV,4,4,13,08,02,199,22*40
$GLGSV,3,1,09,69,54,279,28,68,40,195,38,79,37,359,,81,30,106,36*67
$GLGSV,3,2,09,80,22,291,19,78,19,039,,88,17,052,,82,14,157,33*67
$GLGSV,3,3,09,70,13,328,*50
$GNRMC,024228.999,A,2257.0748,N,11353.8075,E,0.10,231.20,100517,,,A*70
$GNVTG,231.20,T,,M,0.10,N,0.18,K,A*29
$GNGGA,024230.000,2257.0748,N,11353.8075,E,1,14,0.87,11.3,M,-3.6,M,,*52
1494412932 113.896791 22.951246 11.30 0.87 0.78 13 37 37 36 36
speed:0.000000, dis=0.000000
$GPGSA,A,3,26,16,14,32,22,03,27,193,23,,,,1.17,0.87,0.78*3E
$GLGSA,A,3,69,68,80,82,81,,,,,,,,1.17,0.87,0.78*13
$GPGSV,4,1,13,16,65,270,36,26,65,354,22,14,55,129,37,41,46,236,37*70
$GPGSV,4,2,13,31,41,047,,32,31,140,37,22,30,251,36,27,30,179,36*77
$GPGSV,4,3,13,03,25,282,36,193,23,170,23,23,15,321,27,29,13,044,*41
$GPGSV,4,4,13,08,02,199,22*40
$GLGSV,3,1,09,69,54,279,28,68,40,195,38,79,37,359,,81,30,106,36*67
$GLGSV,3,2,09,80,22,291,19,78,19,039,,88,17,052,,82,14,157,32*66
$GLGSV,3,3,09,70,13,328,*50
$GNRMC,024230.000,A,2257.0748,N,11353.8075,E,0.07,231.20,100517,,,A*76
$GNVTG,231.20,T,,M,0.07,N,0.13,K,A*24
$GNGGA,024231.000,2257.0748,N,11353.8075,E,1,14,0.87,11.3,M,-3.6,M,,*53
1494412933 113.896791 22.951246 11.30 0.87 0.78 13 37 37 37 36
speed:0.000000, dis=0.000000
$GPGSA,A,3,26,16,14,32,22,03,27,193,23,,,,1.17,0.87,0.78*3E
$GLGSA,A,3,69,68,80,82,81,,,,,,,,1.17,0.87,0.78*13
$GPGSV,4,1,13,16,65,270,36,26,65,354,21,14,55,129,37,41,46,236,36*72
$GPGSV,4,2,13,31,41,047,,32,31,140,37,22,30,251,36,27,30,179,36*77
$GPGSV,4,3,13,03,25,282,36,193,23,170,22,23,15,321,27,29,13,044,*40
$GPGSV,4,4,13,08,02,199,22*40
$GLGSV,3,1,09,69,54,279,28,68,40,195,38,79,37,359,,81,30,106,36*67
$GLGSV,3,2,09,80,22,291,19,78,19,039,,88,17,052,,82,14,157,31*65
$GLGSV,3,3,09,70,13,328,*50
$GNRMC,024231.000,A,2257.0748,N,11353.8075,E,0.10,231.20,100517,,9,K,A*28
$GNGGA,024232.000,2257.0748,N,11353.8075,E,1,14,0.87,11.3,M,-3.6,M,,*50
1494412934 113.896791 22.951246 11.30 0.87 0.78 13 37 37 36 36
speed:0.000000, dis=0.000000
$GPGSA,A,3,26,16,14,32,22,03,27,193,23,,,,1.17,0.87,0.78*3E
$GLGSA,A,3,69,68,80,82,81,,,,,,,,1.17,0.87,0.78*13
$GPGSV,4,1,13,16,65,270,36,26,65,354,21,14,55,129,37,41,46,236,35*71
$GPGSV,4,2,13,31,41,047,,32,31,140,37,22,30,251,36,27,30,179,35*74
$GPGSV,4,3,13,03,25,282,36,193,23,170,21,23,15,321,26,29,13,044,*42
$GPGSV,4,4,13,08,02,199,21*43
$GLGSV,3,1,09,69,54,279,29,68,40,195,38,79,37,359,,81,30,106,36*66
$GLGSV,3,2,09,80,22,291,19,78,19,039,,88,17,052,,82,14,157,30*64
$GLGSV,3,3,09,70,13,328,*50
$GNRMC,024232.000,A,2257.0748,N,11353.8075,E,0.40,231.20,100517,,,A*77
$GNVTG,231.20,T,,M,0.40,N,0.74,K,A*26
$GNGGA,024233.000,2257.0748,N,11353.8075,E,1,14,0.87,11.2,M,-3.6,M,,*50
1494412935 113.896791 22.951246 11.20 0.87 0.78 13 37 37 36 36
speed:0.000000, dis=0.000000
$GPGSA,A,3,26,16,14,32,22,03,27,193,23,,,,1.17,0.87,0.78*3E
$GLGSA,A,3,69,68,80,82,81,,,,,,,,1.17,0.87,0.78*13
$GPGSV,4,1,13,16,65,270,36,26,65,354,19,14,55,129,37,41,46,236,36*79
$GPGSV,4,2,13,31,41,047,,32,31,140,38,22,30,251,37,27,30,179,35*7A
$GPGSV,4,3,13,03,25,282,36,193,23,170,22,23,15,321,27,29,13,044,*40
$GPGSV,4,4,13,08,02,199,23*41
$GLGSV,3,1,09,69,54,279,29,68,40,195,38,79,37,359,,81,30,106,36*66
$GLGSV,3,2,09,80,22,291,19,78,19,039,,88,17,052,,82,14,157,29*6C
$GLGSV,3,3,09,70,13,328,*50
$GNRMC,024233.000,A,2257.0748,N,11353.8075,E,0.14,231.20,100517,,,A*77
$GNVTG,231.20,T,,M,0.14,N,0.26,K,A*20
$GNGGA,024234.000,2257.0748,N,11353.8075,E,1,14,0.87,11.2,M,-3.6,M,,*57
1494412936 113.896791 22.951246 11.20 0.87 0.78 13 38 37 37 36
speed:0.000000, dis=0.000000
$GPGSA,A,3,26,16,14,32,22,03,27,193,23,,,,1.17,0.87,0.78*3E
$GLGSA,A,3,69,68,80,82,81,,,,,,,,1.17,0.87,0.78*13
$GPGSV,4,1,13,16,65,270,36,26,65,354,19,14,55,129,37,41,46,236,37*78
$GPGSV,4,2,13,31,41,047,,32,31,140,38,22,30,251,37,27,30,179,35*7A
$GPGSV,4,3,13,03,25,282,36,193,23,170,24,23,15,321,27,29,13,044,*46
$GPGSV,4,4,13,08,02,199,20*42
$GLGSV,3,1,09,69,54,279,29,68,40,195,38,79,37,359,,81,30,106,36*66
$GLGSV,3,2,09,80,22,291,19,78,19,039,,88,17,052,,82,14,157,28*6D
$GLGSV,3,3,09,70,13,328,*50
$GNRMC,024234.000,A,2257.0748,N,11353.8075,E,0.05,231.20,100517,,,A*70
$GNVTG,231.20,T,,M,0.05,N,0.09,K,A*2D
$GNGGA,024235.000,2257.0748,N,11353.8075,E,1,14,0.87,11.2,M,-3.6,M,,*56
1494412937 113.896791 22.951246 11.20 0.87 0.78 13 38 37 37 37
speed:0.000000, dis=0.000000
$GPGSA,A,3,26,16,14,32,22,03,27,193,23,,,,1.17,0.87,0.78*3E
$GLGSA,A,3,69,68,80,82,81,,,,,,,,1.17,0.87,0.78*13
$GPGSV,4,1,13,16,65,270,36,26,65,354,19,14,55,129,37,41,46,236,37*78
$GPGSV,4,2,13,31,41,047,,32,31,140,38,22,30,251,37,27,30,179,35*7A
$GPGSV,4,3,13,03,25,282,36,193,23,170,24,23,15,321,27,29,13,044,*46
$GPGSV,4,4,13,08,02,199,20*42
$GLGSV,3,1,09,69,54,279,29,68,40,195,38,79,37,359,,81,30,106,36*66
$GLGSV,3,2,09,80,22,291,19,78,19,039,,88,17,052,,82,14,157,27*62
$GLGSV,3,3,09,70,13,328,*50
$GNRMC,024235.000,A,2257.0748,N,11353.8075,E,0.02,231.20,100517,,,A*76
$GNVTG,231.20,T,,M,0.02,N,0.04,K,A*27
$GNGGA,024236.000,2257.0748,N,11353.8075,E,1,14,0.87,11.2,M,-3.6,M,,*55
1494412938 113.896791 22.951246 11.20 0.87 0.78 13 38 37 37 37
speed:0.000000, dis=0.000000
$GPGSA,A,3,26,16,14,32,22,03,27,193,23,,,,1.17,0.87,0.78*3E
$GLGSA,A,3,69,68,80,82,81,,,,,,,,1.17,0.87,0.78*13
$GPGSV,4,1,13,16,65,270,36,26,65,354,19,14,55,129,36,41,46,236,37*79
$GPGSV,4,2,13,31,41,047,,32,31,140,38,22,30,251,37,27,30,179,36*79
$GPGSV,4,3,13,03,25,282,36,193,23,170,26,23,15,321,26,29,13,044,*45
$GPGSV,4,4,13,08,02,199,20*42
$GLGSV,3,1,09,69,54,279,29,68,40,195,39,79,37,359,,81,30,106,37*66
$GLGSV,3,2,09,80,22,291,19,78,19,039,,88,17,052,,82,14,157,27*62
$GLGSV,3,3,09,70,13,328,*50
$GNRMC,024236.000,A,2257.0748,N,11353.8075,E,0.06,231.20,100517,,,A*71
$GNVTG,231.20,T,,M,0.06,N,0.11,K,A*27
$GNGGA,024237.000,2257.0748,N,11353.8075,E,1,14,0.87,11.3,M,-3.6,M,,*55
1494412939 113.896791 22.951246 11.30 0.87 0.78 13 38 37 37 36
speed:0.000000, dis=0.000000
$GPGSA,A,3,26,16,14,32,22,03,27,193,23,,,,1.17,0.87,0.78*3E
$GLGSA,A,3,69,68,80,82,81,,,,,,,,1.17,0.87,0.78*13
$GPGSV,4,1,13,16,65,270,36,26,65,354,19,14,55,129,36,41,46,236,36*78
$GPGSV,4,2,13,31,41,047,,32,31,140,39,22,30,251,36,27,30,179,37*78
$GPGSV,4,3,13,03,25,282,36,193,23,170,27,23,15,321,24,29,13,044,*46
$GPGSV,4,4,13,08,02,199,20*42
$GLGSV,3,1,09,69,54,279,29,68,40,195,39,79,37,359,,81,30,106,38*69
$GLGSV,3,2,09,80,22,291,18,78,19,039,,88,17,052,,82,14,157,25*61
$GLGSV,3,3,09,70,13,328,*50
$GNRMC,024237.000,A,2257.0748,N,11353.8075,E,0.03,231.20,100517,,,A*75
$GNVTG,231.20,T,,M,0.03,N,0.05,K,A*27
$GNGGA,024238.000,2257.0748,N,11353.8075,E,1,14,0.87,11.3,M,-3.6,M,,*5A
1494412940 113.896791 22.951246 11.30 0.87 0.78 13 39 37 36 36
speed:0.000000, dis=0.000000
$GPGSA,A,3,26,16,14,32,22,03,27,193,23,,,,1.17,0.87,0.78*3E
$GLGSA,A,3,69,68,80,82,81,,,,,,,,1.17,0.87,0.78*13
$GPGSV,4,1,13,16,65,270,35,26,65,354,19,14,55,129,37,41,46,236,36*7A
$GPGSV,4,2,13,31,41,047,,32,31,140,28,22,30,251,34,27,30,179,37*7A
$GPGSV,4,3,13,03,25,282,36,193,23,170,28,23,15,321,24,29,13,044,*49
$GPGSV,4,4,13,08,02,199,20*42
$GLGSV,3,1,09,69,54,279,27,68,40,195,39,79,37,359,,81,30,106,37*68
$GLGSV,3,2,09,80,22,291,25,78,19,039,,88,17,052,,82,14,157,25*6F
$GLGSV,3,3,09,70,13,328,*50
$GNRMC,024238.000,A,2257.0748,N,11353.8075,E,0.10,231.20,100517,,,A*78
$GNVTG,231.20,T,,M,0.10,N,0.19,K,A*28
$GNGGA,024239.000,2257.0748,N,11353.8074,E,1,14,0.87,11.2,M,-3.6,M,,*5B
1494412941 113.896790 22.951246 11.20 0.87 0.78 13 37 37 36 36
speed:0.000000, dis=0.000000
$GPGSA,A,3,26,16,14,32,22,03,27,193,23,,,,1.17,0.87,0.78*3E
$GLGSA,A,3,69,68,80,82,81,,,,,,,,1.17,0.87,0.78*13
$GPGSV,4,1,13,16,65,270,33,26,65,354,19,14,55,129,36,41,46,236,26*7C
$GPGSV,4,2,13,31,41,047,,32,31,140,30,22,30,251,27,27,30,179,27*70
$GPGSV,4,3,13,03,25,282,26,193,23,170,27,23,15,321,26,29,13,044,*45
$GPGSV,4,4,13,08,02,199,20*42
$GLGSV,3,1,09,69,54,279,20,68,40,195,25,79,37,359,,81,30,106,38*6D
$GLGSV,3,2,09,80,22,291,23,78,19,039,,88,17,052,,82,14,157,26*6A
$GLGSV,3,3,09,70,13,328,*50
$GNRMC,024239.000,A,2257.0748,N,11353.8074,E,1.47,45.68,100517,,,A*46
$GNVTG,45.68,T,,M,1.47,N,2.72,K,A*19
$GNGGA,024240.000,2257.0750,N,11353.8079,E,1,14,0.87,10.9,M,-3.6,M,,*5B
1494412942 113.896798 22.951250 10.90 0.87 0.78 13 36 33 30 27
speed:0.000000, dis=0.000000
$GPGSA,A,3,26,16,14,32,22,03,27,193,23,,,,1.17,0.87,0.78*3E
$GLGSA,A,3,69,68,80,82,81,,,,,,,,1.17,0.87,0.78*13
$GPGSV,4,1,13,16,65,270,31,26,65,354,18,14,55,129,35,41,46,236,26*7C
$GPGSV,4,2,13,31,41,047,,32,31,140,30,22,30,251,27,27,30,179,27*70
$GPGSV,4,3,13,03,25,282,27,193,23,170,25,23,15,321,24,29,13,044,*44
$GPGSV,4,4,13,08,02,199,20*42
$GLGSV,3,1,09,69,54,279,21,68,40,195,25,79,37,359,,81,30,106,36*62
$GLGSV,3,2,09,80,22,291,24,78,19,039,,88,17,052,,82,14,157,26*6D
$GLGSV,3,3,09,70,13,328,*50
$GNRMC,024240.000,A,2257.0750,N,11353.8079,E,1.70,69.26,100517,,,A*4C
$GNVTG,69.26,T,,M,1.70,N,3.15,K,A*19
$GNGGA,024241.000,2257.0751,N,11353.8087,E,1,14,0.87,10.5,M,-3.6,M,,*56
1494412943 113.896811 22.951251 10.50 0.87 0.78 13 35 31 30 27
speed:0.000000, dis=0.000000
$GPGSA,A,3,26,16,14,32,22,03,27,193,23,,,,1.17,0.87,0.78*3E
$GLGSA,A,3,69,68,80,82,81,,,,,,,,1.17,0.87,0.78*13
$GPGSV,4,1,13,16,65,270,30,26,65,354,18,14,55,129,35,41,46,236,26*7D
$GPGSV,4,2,13,31,41,047,,32,31,140,28,22,30,251,27,27,30,179,26*78
$GPGSV,4,3,13,03,25,282,27,193,23,170,24,23,15,321,17,29,13,044,*45
$GPGSV,4,4,13,08,02,199,19*48
$GLGSV,3,1,09,69,54,279,21,68,40,195,24,79,37,359,,81,30,106,36*63
$GLGSV,3,2,09,80,22,291,23,78,19,039,,88,17,052,,82,14,157,26*6A
$GLGSV,3,3,09,70,13,328,*50
$GNRMC,024241.000,A,2257.0751,N,11353.8087,E,2.37,78.28,10017,,,A$GNGGA,024242.000,2257.0752,N,11353.8098,E,1,14,0.87,10.2,M,-3.6,M,,*5F
1494412944 113.896830 22.951253 10.20 0.87 0.78 13 35 30 28 27
speed:0.000000, dis=0.000000
$GPGSA,A,3,26,16,14,32,22,03,27,193,23,,,,1.17,0.87,0.79*3F
$GLGSA,A,3,69,68,80,82,81,,,,,,,,1.17,0.87,0.79*12
$GPGSV,4,1,13,16,65,270,29,26,65,354,17,14,55,129,35,41,46,236,26*7A
$GPGSV,4,2,13,31,41,047,,32,31,140,29,22,30,251,27,27,30,179,26*79
$GPGSV,4,3,13,03,25,282,28,193,23,170,23,23,15,321,17,29,13,044,*4D
$GPGSV,4,4,13,08,02,199,18*49
$GLGSV,3,1,09,69,54,279,21,68,40,195,24,79,37,359,,81,30,106,36*63
$GLGSV,3,2,09,80,22,291,23,78,19,039,,88,17,052,,82,14,157,26*6A
$GLGSV,3,3,09,70,13,328,*50
$GNRMC,024242.000,A,2257.0752,N,11353.8098,E,2.93,82.88,100517,,,A*4C
$GNVTG,82.88,T,,M,2.93,N,5.43,K,A*13
$GNGGA,024243.000,2257.0751,N,11353.8109,E,1,14,0.87,9.9,M,-3.6,M,,*67
1494412945 113.896848 22.951251 9.90 0.87 0.79 13 35 29 29 28
speed:0.000000, dis=0.000000
$GPGSA,A,3,26,16,14,32,22,03,27,193,23,,,,1.17,0.87,0.79*3F
$GLGSA,A,3,69,68,80,82,81,,,,,,,,1.17,0.87,0.79*12
$GPGSV,4,1,13,16,65,270,28,26,65,354,17,14,55,129,35,41,46,236,44*7F
$GPGSV,4,2,13,31,41,047,,32,31,140,30,22,30,251,27,27,30,179,26*71
$GPGSV,4,3,13,03,25,282,29,193,23,170,22,23,15,321,17,29,13,044,*4D
$GPGSV,4,4,13,08,02,199,18*49
$GLGSV,3,1,09,69,54,279,21,68,40,195,24,79,37,359,,81,30,106,36*63
$GLGSV,3,2,09,80,22,291,23,$GNGGA,024244.000,2257.0757,N,11353.8128,E,1,12,0.87,9.6,M,-3.6,M,,*6C
1494412946 113.896880 22.951261 9.60 0.87 0.79 13 44 35 30 29
speed:0.000000, dis=0.000000
$GPGSA,A,3,16,14,32,22,03,27,193,,,,,,1.17,0.87,0.79*3A
$GLGSA,A,3,69,68,80,82,81,,,,,,,,1.17,0.87,0.79*12
$GPGSV,4,1,13,16,65,270,28,26,65,354,14,14,55,129,34,41,46,236,29*76
$GPGSV,4,2,13,31,41,047,,32,31,140,29,22,30,251,28,27,30,179,34*75
$GPGSV,4,3,13,03,25,282,30,193,23,170,21,23,15,321,13,29,13,044,*42
$GPGSV,4,4,13,08,02,199,18*49
$GLGSV,3,1,09,69,54,279,21,68,40,195,25,79,37,359,,81,30,106,24*61
$GLGSV,3,2,09,80,22,291,22,78,19,039,,88,17,052,,82,14,157,27*6A
$GLGSV,3,3,09,70,13,328,*50
$GNGGA,024245.000,2257.0762,N,11353.8152,E,1,12,0.87,9.4,M,-3.6,M,,*64
1494412947 113.896920 22.951270 9.40 0.87 0.79 13 34 34 30 29
speed:2.057391, dis=21.199999
$GPGSA,A,3,16,14,32,22,03,27,193,,,,,,1.17,0.87,0.79*3A
$GLGSA,A,3,69,68,80,82,81,,,,,,,,1.17,0.87,0.79*12
$GPGSV,4,1,13,16,65,270,28,26,65,354,14,14,55,129,33,41,46,236,29*71
$GPGSV,4,2,13,31,41,047,,32,31,140,28,22,30,251,28,27,30,179,34*74
$GPGSV,4,3,13,03,25,282,31,193,23,170,21,23,15,321,,29,13,044,*41
$GPGSV,4,4,13,08,02,199,18*49
$GLGSV,3,1,09,69,54,279,21,68,40,195,25,79,37,359,,81,30,106,24*61
$GLGSV,3,2,09,80,22,291,22,78,19,039,,88,17,052,,82,14,157,28*65
$GLGSV,3,3,09,70,13,328,*50
$GNRMC,024245.000,A,2257.0762,N,11353.8152,E,7.93,79.53,100517,,,A*48
$GNVTG,79.53,T,,M,7.93,N,14.69,K,A*2C
$GNGGA,024246.000,2257.0767,N,11353.8176,E,1,11,1.24,9.1,M,-3.6,M,,*6A
1494412948 113.896960 22.951278 9.10 1.24 0.79 13 34 33 31 29
speed:2.453348, dis=23.071003
$GPGSA,A,3,16,14,32,22,03,27,193,,,,,,2.21,1.24,1.83*30
$GLGSA,A,3,69,68,82,81,,,,,,,,,2.21,1.24,1.83*10
$GPGSV,4,1,13,16,65,270,28,26,65,354,17,14,55,129,34,41,46,236,28*74
$GPGSV,4,2,13,31,41,047,,32,31,140,27,22,30,251,27,27,30,179,32*72
$GPGSV,4,3,13,03,25,282,30,193,23,170,22,23,15,321,,29,13,044,*43
$GPGSV,4,4,13,08,02,199,20*42
$GLGSV,3,1,09,69,54,279,21,68,40,195,25,79,37,359,,81,30,106,26*63
$GLGSV,3,2,09,80,22,291,18,78,19,03$GNGGA,024247.000,2257.0774,N,11353.8201,E,1,11,1.24,8.9,M,-3.6,M,,*63
1494412949 113.897001 22.951290 8.90 1.24 1.83 13 34 32 30 28
speed:2.699921, dis=25.349304
$GPGSA,A,3,16,14,32,22,03,27,193,,,,,,2.21,1.24,1.83*30
$GLGSA,A,3,69,68,82,81,,,,,,,,,2.21,1.24,1.83*10
$GPGSV,4,1,13,16,65,270,28,26,65,354,17,14,55,129,34,41,46,236,52*79
$GPGSV,4,2,13,31,41,047,,32,31,140,27,22,30,251,26,27,30,179,31*70
$GPGSV,4,3,13,03,25,282,48,193,23,170,23,23,15,321,,29,13,044,*4D
$GPGSV,4,4,13,08,02,199,20*42
$GLGSV,3,1,09,69,54,279,21,68,40,195,25,79,37,359,,81,30,106,27*62
$GLGSV,3,2,09,80,22,291,18,78,19,039,,88,17,052,,82,14,157,28*6C
$GLGSV,3,3,09,70,13,328,*50
$GNRMC,024247.000,A,2257.0774,N,11353.8201,E,7.98,85.22,100517,,,A*46
$GNVTG,85.22,T,,M,7.98,N,14.79,K,A*23
$GNGGA,024248.000,2257.0783,N,11353.8229,E,1,10,1.24,8.6,M,-3.6,M,,*60
1494412950 113.897048 22.951305 8.60 1.24 1.83 13 52 48 34 31
speed:2.974685, dis=27.971056
$GPGSA,A,3,16,14,32,22,03,27,193,,,,,,2.21,1.24,1.83*30
$GLGSA,A,3,68,82,81,,,,,,,,,,2.21,1.24,1.83*1F
$GPGSV,4,1,13,16,65,270,28,26,65,354,17,14,55,129,35,41,46,236,*7F
